     3.03           OBSERVATION DATA    M: Mixed            RINEX VERSION / TYPE
RTKCONV 2.4.3 b34                       20240826 001646 UTC PGM / RUN BY / DATE 
format: RTCM 3                                              COMMENT             
log: E:\Seafile\SAIC\proj\Satrack_client_V1.30.016\logs\COM1COMMENT             
0666                                                        MARKER NAME         
                                                            MARKER NUMBER       
                                                            MARKER TYPE         
                                                            OBSERVER / AGENCY   
                                                            REC # / TYPE / VERS 
                                                            ANT # / TYPE        
 -2851699.2416  4653325.9299  3289760.9931                  APPROX POSITION XYZ 
        0.0000        0.0000        0.0000                  ANTENNA: DELTA H/E/N
G    4 C1C L1C D1C S1C                                      SYS / # / OBS TYPES 
  2024    08    26    00    10   27.1000000     GPS         TIME OF FIRST OBS   
  2024    08    26    00    14   40.9000000     GPS         TIME OF LAST OBS    
G L1C                                                       SYS / PHASE SHIFT   
  1 R21  4                                                  GLONASS SLOT / FRQ #
 C1C    0.000 C1P    0.000 C2C    0.000 C2P    0.000        GLONASS COD/PHS/BIS 
                                                            END OF HEADER       
> 2024 08 26 00 10 27.1000000  0 10                     
G04  24546854.076   128994312.9981      -1548.226          46.000  
G05  22841004.111   120029700.0721       3409.017          52.000  
G06  21326722.653   112072359.9811       -226.572          57.000  
G09  22289488.155   117131735.4881       -111.950          50.000  
G11  21440284.665   112669268.4831       1602.966          57.000  
G12  22561312.069   118560187.4091        324.038          51.000  
G17  22368818.367   117548373.0181      -1982.639          53.000  
G19  20558991.794   108037930.2651      -1297.080          58.000  
G20  20911940.374   109892559.1521       1838.802          56.000  
G25  24048246.239   126373788.3611       1792.211          48.000  
> 2024 08 26 00 10 27.2000000  0 10                     
G04  24547149.155   128995861.834       -1548.000          46.000  
G05  22841204.923   120030753.198        3409.000          52.000  
G06  21326992.551   112073776.654        -227.000          57.000  
G09  22289755.942   117133140.745        -113.000          50.000  
G11  21440519.767   112670502.177        1603.000          57.000  
G12  22561571.514   118561549.007         324.000          51.000  
G17  22369121.787   117549965.338       -1984.000          53.000  
G19  20559282.096   108039454.008       -1298.000          58.000  
G20  20912171.022   109893769.296        1839.000          56.000  
G25  24048477.803   126375003.135        1792.000          48.000  
> 2024 08 26 00 10 27.3000000  0 10                     
G04  24547178.960   128996016.611       -1547.768          46.000  
G05  22841140.471   120030412.295        3409.019          52.000  
G06  21326997.158   112073799.260        -226.059          57.000  
G09  22289758.442   117133151.961        -112.159          50.000  
G11  21440489.587   112670341.802        1603.751          57.000  
G12  22561565.668   118561516.552         324.546          52.000  
G17  22369159.934   117550163.666       -1983.283          53.000  
G19  20559307.120   108039583.754       -1297.456          58.000  
G20  20912136.384   109893585.401        1838.951          56.000  
G25  24048444.085   126374823.804        1793.303          48.000  
> 2024 08 26 00 10 27.4000000  0 10                     
G04  24547208.765   128996171.426       -1548.149          46.000  
G05  22841076.018   120030071.441        3408.545          52.000  
G06  21327001.769   112073821.899        -226.391          57.000  
G09  22289760.959   117133163.208        -112.472          50.000  
G11  21440459.398   112670181.431        1603.711          57.000  
G12  22561559.844   118561484.108         324.444          52.000  
G17  22369198.106   117550362.090       -1984.246          53.000  
G19  20559332.165   108039713.564       -1298.107          58.000  
G20  20912101.762   109893401.539        1838.619          56.000  
G25  24048410.367   126374644.471        1793.332          49.000  
> 2024 08 26 00 10 27.5000000  0 10                     
G04  24547238.558   128996326.165       -1547.395          46.000  
G05  22841011.562   120029730.578        3408.633          52.000  
G06  21327006.376   112073844.512        -226.126          57.000  
G09  22289763.476   117133174.447        -112.387          50.000  
G11  21440429.205   112670021.015        1604.166          57.000  
G12  22561554.015   118561451.626         324.828          52.000  
G17  22369236.270   117550560.528       -1984.382          53.000  
G19  20559357.207   108039843.396       -1298.310          58.000  
G20  20912067.132   109893217.655        1838.850          56.000  
G25  24048376.645   126374465.078        1793.929          50.000  
> 2024 08 26 00 10 27.6000000  0 10                     
G04  24547268.349   128996480.920       -1547.557          47.000  
G05  22840947.110   120029389.727        3408.510          52.000  
G06  21327010.987   112073867.114        -226.019          57.000  
G09  22289765.997   117133185.692        -112.454          50.000  
G11  21440399.016   112669860.575        1604.396          57.000  
G12  22561548.192   118561419.129         324.958          52.000  
G17  22369274.460   117550759.016       -1984.876          53.000  
G19  20559382.261   108039973.266       -1298.694          59.000  
G20  20912032.502   109893033.760        1838.942          56.000  
G25  24048342.909   126374285.656        1794.220          51.000  
> 2024 08 26 00 10 27.7000000  0 10                     
G04  24547298.149   128996635.677       -1547.562          47.000  
G05  22840882.657   120029048.908        3408.199          52.000  
G06  21327015.603   112073889.722        -226.082          56.000  
G09  22289768.519   117133196.999        -113.071          50.000  
G11  21440368.819   112669700.116        1604.592          57.000  
G12  22561542.368   118561386.633         324.969          52.000  
G17  22369312.654   117550957.569       -1985.530          53.000  
G19  20559407.332   108040103.185       -1299.192          59.000  
G20  20911997.876   109892849.886        1838.742          57.000  
G25  24048309.156   126374106.219        1794.373          51.000  
> 2024 08 26 00 10 27.8000000  0 10                     
G04  24547327.937   128996790.397       -1547.203          47.000  
G05  22840818.200   120028708.086        3408.219          52.000  
G06  21327020.227   112073912.307        -225.858          56.000  
G09  22289771.036   117133208.273        -112.734          50.000  
G11  21440338.621   112669539.621        1604.949          57.000  
G12  22561536.539   118561354.111         325.220          52.000  
G17  22369350.857   117551156.157       -1985.877          53.000  
G19  20559432.399   108040233.116       -1299.315          59.000  
G20  20911963.243   109892666.007        1838.791          57.000  
G25  24048275.381   126373926.699        1795.197          50.000  
> 2024 08 26 00 10 27.9000000  0 10                     
G04  24547357.724   128996945.073       -1546.766          47.000  
G05  22840753.748   120028367.242        3408.432          52.000  
G06  21327024.838   112073934.843        -225.354          56.000  
G09  22289773.558   117133219.540        -112.663          51.000  
G11  21440308.406   112669379.065        1605.560          57.000  
G12  22561530.698   118561321.527         325.836          52.000  
G17  22369389.064   117551354.762       -1986.048          53.000  
G19  20559457.480   108040363.060       -1299.437          59.000  
G20  20911928.608   109892482.082        1839.245          57.000  
G25  24048241.610   126373747.136        1795.622          50.000  
> 2024 08 26 00 10 28.0000000  0 10                     
G04  24547387.512   128997099.781       -1547.075          47.000  
G05  22840689.313   120028026.467        3407.755          52.000  
G06  21327029.463   112073957.452        -226.086          56.000  
G09  22289776.092   117133230.864        -113.242          51.000  
G11  21440278.195   112669218.535        1605.286          57.000  
G12  22561524.869   118561289.000         325.269          52.000  
G17  22369427.280   117551553.470       -1987.084          53.000  
G19  20559482.569   108040493.091       -1300.309          59.000  
G20  20911893.991   109892298.230        1838.521          57.000  
G25  24048207.853   126373567.593        1795.445          50.000  
> 2024 08 26 00 10 28.1000000  0 10                     
G04  24547417.296   128997254.461       -1546.792          47.000  
G05  22840624.878   120027685.670        3407.964          52.000  
G06  21327034.074   112073979.985        -225.336          56.000  
G09  22289778.631   117133242.162        -112.989          51.000  
G11  21440247.971   112669057.935        1606.012          57.000  
G12  22561519.028   118561256.402         325.982          52.000  
G17  22369465.505   117551752.175       -1987.056          52.000  
G19  20559507.658   108040623.120       -1300.293          59.000  
G20  20911859.361   109892114.328        1839.023          57.000  
G25  24048174.065   126373387.958        1796.348          50.000  
> 2024 08 26 00 10 28.2000000  0 10                     
G04  24547712.361   128998803.153       -1547.000          47.000  
G05  22840825.725   120028738.927        3408.000          52.000  
G06  21327303.954   112075396.586        -225.000          56.000  
G09  22290046.453   117134647.523        -113.000          51.000  
G11  21440483.030   112670291.378        1606.000          57.000  
G12  22561778.473   118562617.862         326.000          52.000  
G17  22369769.021   117553344.992       -1988.000          52.000  
G19  20559798.038   108042147.229       -1301.000          59.000  
G20  20912090.018   109893324.496        1839.000          57.000  
G25  24048405.559   126374602.320        1797.000          50.000  
> 2024 08 26 00 10 28.3000000  0 10                     
G04  24547742.136   128998957.800       -1546.469          47.000  
G05  22840761.286   120028398.180        3407.473          52.000  
G06  21327308.544   112075419.125        -225.397          56.000  
G09  22290049.009   117134658.868        -113.455          51.000  
G11  21440452.802   112670130.738        1606.406          57.000  
G12  22561772.628   118562585.252         326.097          52.000  
G17  22369807.258   117553543.810       -1988.186          52.000  
G19  20559823.153   108042277.346       -1301.174          59.000  
G20  20912055.384   109893140.599        1838.975          57.000  
G25  24048371.767   126374422.635        1796.853          49.000  
> 2024 08 26 00 10 28.4000000  0 10                     
G04  24547771.914   128999112.413       -1546.127          47.000  
G05  22840696.856   120028057.417        3407.625          52.000  
G06  21327313.155   112075441.656        -225.305          56.000  
G09  22290051.566   117134670.197        -113.295          51.000  
G11  21440422.570   112669970.076        1606.613          57.000  
G12  22561766.765   118562552.622         326.302          52.000  
G17  22369845.510   117553742.684       -1988.729          52.000  
G19  20559848.277   108042407.494       -1301.478          59.000  
G20  20912020.758   109892956.710        1838.890          57.000  
G25  24048337.979   126374242.895        1797.404          49.000  
> 2024 08 26 00 10 28.5000000  0 10                     
G04  24547801.689   128999267.035       -1546.211          47.000  
G05  22840632.417   120027716.655        3407.622          52.000  
G06  21327317.762   112075464.151        -224.950          57.000  
G09  22290054.101   117134681.540        -113.418          52.000  
G11  21440392.324   112669809.356        1607.208          57.000  
G12  22561760.883   118562519.955         326.670          52.000  
G17  22369883.756   117553941.569       -1988.859          52.000  
G19  20559873.396   108042537.647       -1301.529          59.000  
G20  20911986.137   109892772.799        1839.112          57.000  
G25  24048304.152   126374063.103        1797.921          49.000  
> 2024 08 26 00 10 28.6000000  0 10                     
G04  24547831.450   128999421.555       -1545.203          46.000  
G05  22840567.981   120027375.873        3407.812          52.000  
G06  21327322.356   112075486.622        -224.711          57.000  
G09  22290056.622   117134692.845        -113.057          52.000  
G11  21440362.074   112669648.580        1607.753          57.000  
G12  22561755.007   118562487.237         327.173          52.000  
G17  22369922.016   117554140.480       -1989.100          52.000  
G19  20559898.525   108042667.812       -1301.654          59.000  
G20  20911951.503   109892588.855        1839.434          58.000  
G25  24048270.308   126373883.226        1798.761          49.000  
> 2024 08 26 00 10 28.7000000  0 10                     
G04  24547861.237   128999576.190       -1546.353          46.000  
G05  22840503.564   120027035.179        3406.944          52.000  
G06  21327326.967   112075509.149        -225.272          58.000  
G09  22290059.178   117134704.256        -114.112          53.000  
G11  21440331.833   112669487.869        1607.114          57.000  
G12  22561749.131   118562454.594         326.432          52.000  
G17  22369960.293   117554339.521       -1990.413          52.000  
G19  20559923.675   108042798.081       -1302.690          59.000  
G20  20911916.891   109892404.997        1838.585          58.000  
G25  24048236.502   126373703.403        1798.225          49.000  
> 2024 08 26 00 10 28.8000000  0 10                     
G04  24547891.003   128999730.742       -1545.520          46.000  
G05  22840439.146   120026694.475        3407.041          52.000  
G06  21327331.578   112075531.645        -224.955          58.000  
G09  22290061.713   117134715.631        -113.745          53.000  
G11  21440301.579   112669327.083        1607.865          57.000  
G12  22561743.250   118562421.882         327.119          52.000  
G17  22369998.574   117554538.571       -1990.504          52.000  
G19  20559948.825   108042928.364       -1302.827          59.000  
G20  20911882.260   109892221.095        1839.013          58.000  
G25  24048202.675   126373523.498        1799.060          49.000  
> 2024 08 26 00 10 28.9000000  0 10                     
G04  24547920.786   128999885.305       -1545.644          46.000  
G05  22840374.730   120026353.776        3406.993          52.000  
G06  21327336.189   112075554.139        -224.948          58.000  
G09  22290064.270   117134727.041        -114.100          53.000  
G11  21440271.324   112669166.290        1607.919          57.000  
G12  22561737.374   118562389.188         326.946          52.000  
G17  22370036.877   117554737.676       -1991.047          52.000  
G19  20559973.984   108043058.700       -1303.355          59.000  
G20  20911847.644   109892037.224        1838.713          58.000  
G25  24048168.847   126373343.581        1799.165          49.000  
> 2024 08 26 00 10 29.0000000  0 10                     
G04  24547950.556   129000039.861       -1545.556          46.000  
G05  22840310.308   120026013.104        3406.726          52.000  
G06  21327340.796   112075576.629        -224.897          58.000  
G09  22290066.822   117134738.447        -114.065          54.000  
G11  21440241.061   112669005.470        1608.201          57.000  
G12  22561731.489   118562356.467         327.203          52.000  
G17  22370075.185   117554936.835       -1991.594          52.000  
G19  20559999.143   108043189.055       -1303.543          59.000  
G20  20911813.026   109891853.341        1838.821          58.000  
G25  24048135.002   126373163.606        1799.758          49.000  
> 2024 08 26 00 10 29.1000000  0 10                     
G04  24547980.339   129000194.438       -1545.762          46.000  
G05  22840245.911   120025672.491        3406.122          52.000  
G06  21327345.408   112075599.151        -225.218          58.000  
G09  22290069.396   117134749.929        -114.815          54.000  
G11  21440210.802   112668844.666        1608.040          57.000  
G12  22561725.630   118562323.774         326.933          52.000  
G17  22370113.515   117555136.090       -1992.543          52.000  
G19  20560024.324   108043319.504       -1304.497          59.000  
G20  20911778.418   109891669.498        1838.442          58.000  
G25  24048101.180   126372983.643        1799.620          49.000  
> 2024 08 26 00 10 29.2000000  0 10                     
G04  24548275.370   129001742.910       -1545.000          46.000  
G05  22840446.759   120026725.795        3406.000          52.000  
G06  21327615.266   112077015.573        -225.000          58.000  
G09  22290337.221   117136155.306        -115.000          54.000  
G11  21440445.791   112670077.738        1609.000          57.000  
G12  22561985.019   118563684.979         327.000          53.000  
G17  22370417.104   117556729.287       -1993.000          52.000  
G19  20560314.757   108044843.877       -1305.000          59.000  
G20  20912009.066   109892879.569        1839.000          58.000  
G25  24048332.583   126374197.561        1801.000          49.000  
> 2024 08 26 00 10 29.3000000  0 10                     
G04  24548305.137   129001897.441       -1545.313          46.000  
G05  22840382.360   120026385.193        3406.026          52.000  
G06  21327619.873   112077038.068        -224.946          58.000  
G09  22290339.791   117136166.793        -114.873          54.000  
G11  21440415.520   112669916.866        1608.718          57.000  
G12  22561979.138   118563652.234         327.457          53.000  
G17  22370455.447   117556928.619       -1993.329          52.000  
G19  20560339.950   108044974.380       -1305.033          59.000  
G20  20911974.450   109892695.711        1838.585          59.000  
G25  24048298.721   126374017.501        1800.606          49.000  
> 2024 08 26 00 10 29.4000000  0 10                     
G04  24548334.898   129002051.909       -1544.680          46.000  
G05  22840317.942   120026044.547        3406.457          52.000  
G06  21327624.471   112077060.501        -224.337          58.000  
G09  22290342.365   117136178.222        -114.288          54.000  
G11  21440385.239   112669755.911        1609.557          56.000  
G12  22561973.262   118563619.435         327.986          53.000  
G17  22370493.790   117557127.948       -1993.283          52.000  
G19  20560365.149   108045104.864       -1304.845          59.000  
G20  20911939.842   109892511.816        1838.952          59.000  
G25  24048264.859   126373837.377        1801.236          49.000  
> 2024 08 26 00 10 29.5000000  0 10                     
G04  24548364.659   129002206.365       -1544.565          46.000  
G05  22840253.520   120025703.904        3406.438          52.000  
G06  21327629.061   112077082.925        -224.238          58.000  
G09  22290344.917   117136189.678        -114.561          54.000  
G11  21440354.950   112669594.928        1609.825          56.000  
G12  22561967.364   118563586.610         328.253          53.000  
G17  22370532.132   117557327.316       -1993.683          52.000  
G19  20560390.342   108045235.371       -1305.063          59.000  
G20  20911905.225   109892327.901        1839.146          60.000  
G25  24048230.979   126373657.187        1801.891          49.000  
> 2024 08 26 00 10 29.6000000  0 10                     
G04  24548394.429   129002360.878       -1545.122          46.000  
G05  22840189.124   120025363.361        3405.423          52.000  
G06  21327633.654   112077105.413        -224.876          58.000  
G09  22290347.491   117136201.213        -115.350          54.000  
G11  21440324.674   112669433.993        1609.348          56.000  
G12  22561961.483   118563553.838         327.721          53.000  
G17  22370570.509   117557526.808       -1994.921          52.000  
G19  20560415.561   108045365.996       -1306.255          59.000  
G20  20911870.625   109892144.070        1838.320          60.000  
G25  24048197.116   126373477.052        1801.363          49.000  
> 2024 08 26 00 10 29.7000000  0 10                     
G04  24548424.191   129002515.328       -1544.494          46.000  
G05  22840124.725   120025022.770        3405.913          52.000  
G06  21327638.249   112077127.839        -224.267          58.000  
G09  22290350.048   117136212.694        -114.810          54.000  
G11  21440294.389   112669272.984        1610.089          56.000  
G12  22561955.589   118563521.017         328.210          53.000  
G17  22370608.882   117557726.297       -1994.891          52.000  
G19  20560440.786   108045496.615       -1306.187          59.000  
G20  20911836.013   109891960.188        1838.807          59.000  
G25  24048163.219   126373296.805        1802.466          49.000  
> 2024 08 26 00 10 29.8000000  0 10                     
G04  24548453.960   129002669.834       -1545.070          46.000  
G05  22840060.342   120024682.274        3404.961          52.000  
G06  21327642.855   112077150.333        -224.930          58.000  
G09  22290352.621   117136224.272        -115.775          54.000  
G11  21440264.095   112669112.009        1609.746          56.000  
G12  22561949.709   118563488.235         327.815          53.000  
G17  22370647.281   117557925.911       -1996.137          52.000  
G19  20560466.024   108045627.330       -1307.156          59.000  
G20  20911801.413   109891776.386        1838.022          60.000  
G25  24048129.340   126373116.605        1802.000          49.000  
> 2024 08 26 00 10 29.9000000  0 10                     
G04  24548483.713   129002824.240       -1544.058          46.000  
G05  22839995.942   120024341.684        3405.883          52.000  
G06  21327647.449   112077172.730        -223.985          58.000  
G09  22290355.213   117136235.783        -115.113          54.000  
G11  21440233.793   112668950.928        1610.813          56.000  
G12  22561943.815   118563455.361         328.746          53.000  
G17  22370685.672   117558125.477       -1995.667          52.000  
G19  20560491.247   108045757.987       -1306.568          59.000  
G20  20911766.796   109891592.485        1839.013          60.000  
G25  24048095.443   126372936.277        1803.283          49.000  
> 2024 08 26 00 10 30.0000000  0 10                     
G04  24548513.478   129002978.715       -1544.761          45.000  
G05  22839931.559   120024001.207        3404.785          52.000  
G06  21327652.038   112077195.210        -224.793          58.000  
G09  22290357.800   117136247.373        -115.903          53.000  
G11  21440203.490   112668789.903        1610.246          56.000  
G12  22561937.930   118563422.545         328.158          53.000  
G17  22370724.089   117558325.191       -1997.130          52.000  
G19  20560516.502   108045888.782       -1307.952          59.000  
G20  20911732.201   109891408.674        1838.113          60.000  
G25  24048061.542   126372755.986        1802.903          49.000  
> 2024 08 26 00 10 30.1000000  0  9                     
G05  22839867.159   120023660.641        3405.655          52.000  
G06  21327656.632   112077217.573        -223.632          58.000  
G09  22290360.395   117136258.886        -115.134          53.000  
G11  21440173.179   112668628.750        1611.541          56.000  
G12  22561932.018   118563389.621         329.237          53.000  
G17  22370762.492   117558524.831       -1996.404          52.000  
G19  20560541.736   108046019.496       -1307.135          59.000  
G20  20911697.589   109891224.756        1839.182          60.000  
G25  24048027.627   126372575.582        1804.041          49.000  
> 2024 08 26 00 10 30.2000000  0  9                     
G05  22840068.046   120024714.126        3406.000          52.000  
G06  21327926.508   112078633.978        -223.000          58.000  
G09  22290628.252   117137664.441        -115.000          53.000  
G11  21440408.151   112669861.626        1612.000          56.000  
G12  22562191.389   118564750.722         330.000          53.000  
G17  22371066.187   117560118.575       -1997.000          52.000  
G19  20560832.251   108047544.304       -1308.000          59.000  
G20  20911928.259   109892434.892        1839.000          60.000  
G25  24048258.983   126373789.177        1805.000          49.000  
> 2024 08 26 00 10 30.3000000  0  9                     
G05  22840003.659   120024373.622        3405.036          52.000  
G06  21327931.080   112078656.366        -223.879          58.000  
G09  22290630.839   117137676.018        -115.775          54.000  
G11  21440377.823   112669700.450        1611.749          56.000  
G12  22562185.474   118564717.792         329.297          53.000  
G17  22371104.613   117560318.349       -1997.740          52.000  
G19  20560857.511   108047675.125       -1308.204          59.000  
G20  20911893.647   109892251.016        1838.754          60.000  
G25  24048225.045   126373608.701        1804.755          49.000  
> 2024 08 26 00 10 30.4000000  0  9                     
G05  22839939.298   120024033.229        3403.929          52.000  
G06  21327935.674   112078678.841        -224.748          58.000  
G09  22290633.452   117137687.681        -116.630          55.000  
G11  21440347.521   112669539.362        1610.882          56.000  
G12  22562179.576   118564684.963         328.290          53.000  
G17  22371143.068   117560518.287       -1999.381          52.000  
G19  20560882.796   108047806.092       -1309.674          59.000  
G20  20911859.069   109892067.242        1837.744          60.000  
G25  24048191.131   126373428.313        1803.894          49.000  
> 2024 08 26 00 10 30.5000000  0  9                     
G05  22839874.911   120023692.783        3404.458          52.000  
G06  21327940.268   112078701.244        -224.040          58.000  
G09  22290636.057   117137699.311        -116.297          55.000  
G11  21440317.201   112669378.170        1611.922          56.000  
G12  22562173.660   118564652.040         329.232          54.000  
G17  22371181.519   117560718.197       -1999.103          52.000  
G19  20560908.077   108047937.027       -1309.344          59.000  
G20  20911824.469   109891883.409        1838.324          59.000  
G25  24048157.195   126373247.801        1805.117          49.000  
> 2024 08 26 00 10 30.6000000  0  9                     
G05  22839810.551   120023352.411        3403.729          52.000  
G06  21327944.879   112078723.710        -224.660          58.000  
G09  22290638.687   117137711.011        -117.004          55.000  
G11  21440286.890   112669217.007        1611.635          56.000  
G12  22562167.767   118564619.170         328.696          54.000  
G17  22371219.993   117560918.221       -2000.240          52.000  
G19  20560933.380   108048068.057       -1310.304          59.000  
G20  20911789.887   109891699.626        1837.837          59.000  
G25  24048123.263   126373067.327        1804.735          49.000  
> 2024 08 26 00 10 30.7000000  0  9                     
G05  22839746.186   120023012.056        3403.550          52.000  
G06  21327949.491   112078746.158        -224.476          58.000  
G09  22290641.314   117137722.714        -117.026          55.000  
G11  21440256.574   112669055.832        1611.745          56.000  
G12  22562161.868   118564586.277         328.922          54.000  
G17  22371258.475   117561118.288       -2000.677          51.000  
G19  20560958.696   108048199.131       -1310.745          59.000  
G20  20911755.301   109891515.863        1837.636          59.000  
G25  24048089.331   126372886.814        1805.134          49.000  
> 2024 08 26 00 10 30.8000000  0  9                     
G05  22839681.820   120022671.654        3404.016          52.000  
G06  21327954.080   112078768.543        -223.847          58.000  
G09  22290643.922   117137734.392        -116.781          55.000  
G11  21440226.241   112668894.572        1612.602          56.000  
G12  22562155.952   118564553.316         329.607          53.000  
G17  22371296.953   117561318.353       -2000.642          51.000  
G19  20560983.994   108048330.171       -1310.396          59.000  
G20  20911720.702   109891332.027        1838.354          59.000  
G25  24048055.377   126372706.201        1806.136          49.000  
> 2024 08 26 00 10 30.9000000  0  9                     
G05  22839617.459   120022331.289        3403.651          52.000  
G06  21327958.691   112078790.952        -224.095          58.000  
G09  22290646.531   117137746.073        -116.810          55.000  
G11  21440195.908   112668733.300        1612.712          56.000  
G12  22562150.041   118564520.374         329.427          53.000  
G17  22371335.444   117561518.492       -2001.393          51.000  
G19  20561009.327   108048461.285       -1311.139          59.000  
G20  20911686.115   109891148.220        1838.075          59.000  
G25  24048021.411   126372525.559        1806.415          49.000  
> 2024 08 26 00 10 31.0000000  0  9                     
G05  22839553.090   120021990.869        3404.202          52.000  
G06  21327963.280   112078813.291        -223.392          57.000  
G09  22290649.140   117137757.734        -116.610          55.000  
G11  21440165.567   112668571.960        1613.409          56.000  
G12  22562144.104   118564487.342         330.323          53.000  
G17  22371373.931   117561718.620       -2001.278          51.000  
G19  20561034.634   108048592.362       -1310.781          59.000  
G20  20911651.512   109890964.347        1838.731          59.000  
G25  24047987.439   126372344.853        1807.058          49.000  
> 2024 08 26 00 10 31.1000000  0  9                     
G05  22839488.729   120021650.492        3403.766          52.000  
G06  21327967.857   112078835.670        -223.783          57.000  
G09  22290651.749   117137769.414        -116.796          55.000  
G11  21440135.235   112668410.661        1612.997          56.000  
G12  22562138.192   118564454.364         329.779          53.000  
G17  22371412.426   117561918.741       -2001.206          51.000  
G19  20561059.946   108048723.456       -1310.937          59.000  
G20  20911616.926   109890780.523        1838.238          59.000  
G25  24047953.473   126372164.217        1806.353          50.000  
> 2024 08 26 00 10 31.2000000  0  9                     
G05  22839689.634   120022704.101        3403.000          52.000  
G06  21328237.716   112080252.048        -224.000          57.000  
G09  22290919.644   117139175.098        -117.000          55.000  
G11  21440370.180   112669643.357        1612.000          56.000  
G12  22562397.563   118565815.389         329.000          53.000  
G17  22371716.182   117563512.848       -2001.000          51.000  
G19  20561350.536   108050248.554       -1311.000          59.000  
G20  20911847.596   109891990.691        1838.000          59.000  
G25  24048184.770   126373377.552        1806.000          50.000  
> 2024 08 26 00 10 31.3000000  0  9                     
G05  22839625.282   120022363.757        3403.446          53.000  
G06  21328242.327   112080274.457        -224.096          57.000  
G09  22290922.266   117139186.819        -117.208          55.000  
G11  21440339.860   112669482.122        1612.353          56.000  
G12  22562391.678   118565782.486         329.029          53.000  
G17  22371754.676   117563712.999       -2001.510          51.000  
G19  20561375.852   108050379.670       -1311.162          59.000  
G20  20911813.005   109891806.912        1837.789          59.000  
G25  24048150.816   126373196.985        1805.667          50.000  
> 2024 08 26 00 10 31.4000000  0  9                     
G05  22839560.921   120022023.400        3403.583          52.000  
G06  21328246.938   112080296.890        -224.321          57.000  
G09  22290924.897   117139198.562        -117.435          55.000  
G11  21440309.549   112669320.900        1612.220          56.000  
G12  22562385.802   118565749.595         328.907          53.000  
G17  22371793.167   117563913.114       -2001.147          51.000  
G19  20561401.177   108050510.784       -1311.128          59.000  
G20  20911778.427   109891623.134        1837.781          59.000  
G25  24048116.867   126373016.455        1805.304          50.000  
> 2024 08 26 00 10 31.5000000  0  9                     
G05  22839496.556   120021683.037        3403.629          52.000  
G06  21328251.545   112080319.320        -224.303          57.000  
G09  22290927.519   117139210.281        -117.190          55.000  
G11  21440279.229   112669159.684        1612.154          57.000  
G12  22562379.921   118565716.709         328.873          53.000  
G17  22371831.658   117564113.208       -2000.938          51.000  
G19  20561426.484   108050641.880       -1310.963          59.000  
G20  20911743.840   109891439.357        1837.776          59.000  
G25  24048082.914   126372835.927        1805.276          50.000  
> 2024 08 26 00 10 31.6000000  0  9                     
G05  22839432.209   120021342.688        3403.490          52.000  
G06  21328256.156   112080341.757        -224.368          57.000  
G09  22290930.150   117139222.024        -117.433          55.000  
G11  21440248.927   112668998.483        1612.009          57.000  
G12  22562374.045   118565683.865         328.435          53.000  
G17  22371870.149   117564313.294       -2000.859          51.000  
G19  20561451.800   108050772.961       -1310.810          59.000  
G20  20911709.263   109891255.586        1837.708          59.000  
G25  24048048.982   126372655.427        1804.999          50.000  
> 2024 08 26 00 10 31.7000000  0  9                     
G05  22839367.847   120021002.303        3403.842          52.000  
G06  21328260.767   112080364.184        -224.276          57.000  
G09  22290932.776   117139233.745        -117.209          55.000  
G11  21440218.620   112668837.293        1611.894          57.000  
G12  22562368.169   118565650.999         328.658          53.000  
G17  22371908.632   117564513.338       -2000.443          51.000  
G19  20561477.112   108050904.028       -1310.669          59.000  
G20  20911674.682   109891071.808        1837.773          59.000  
G25  24048015.050   126372474.964        1804.633          50.000  
> 2024 08 26 00 10 31.8000000  0  9                     
G05  22839303.500   120020661.967        3403.360          52.000  
G06  21328265.374   112080386.670        -224.858          57.000  
G09  22290935.402   117139245.526        -117.802          55.000  
G11  21440188.331   112668676.157        1611.378          57.000  
G12  22562362.306   118565618.216         327.834          53.000  
G17  22371947.109   117564713.404       -2000.657          51.000  
G19  20561502.419   108051035.126       -1310.978          59.000  
G20  20911640.104   109890888.080        1837.292          59.000  
G25  24047981.131   126372294.552        1804.114          50.000  
> 2024 08 26 00 10 31.9000000  0  9                     
G05  22839239.135   120020321.593        3403.739          52.000  
G06  21328269.990   112080409.106        -224.364          57.000  
G09  22290938.028   117139257.246        -117.208          55.000  
G11  21440158.037   112668514.979        1611.777          57.000  
G12  22562356.424   118565585.392         328.244          52.000  
G17  22371985.582   117564913.410       -2000.062          51.000  
G19  20561527.735   108051166.177       -1310.515          59.000  
G20  20911605.526   109890704.319        1837.598          59.000  
G25  24047947.221   126372114.126        1804.257          50.000  
> 2024 08 26 00 10 32.0000000  0  9                     
G05  22839174.769   120019981.227        3403.661          52.000  
G06  21328274.597   112080431.562        -224.556          57.000  
G09  22290940.654   117139269.008        -117.610          55.000  
G11  21440127.744   112668353.856        1611.227          56.000  
G12  22562350.561   118565552.603         327.890          52.000  
G17  22372024.051   117565113.420       -2000.110          51.000  
G19  20561553.032   108051297.220       -1310.425          58.000  
G20  20911570.944   109890520.567        1837.523          59.000  
G25  24047913.302   126371933.743        1803.839          50.000  
> 2024 08 26 00 10 32.1000000  0  9                     
G05  22839110.421   120019640.882        3403.446          52.000  
G06  21328279.225   112080454.062        -225.010          56.000  
G09  22290943.281   117139280.786        -117.782          55.000  
G11  21440097.468   112668192.772        1610.845          56.000  
G12  22562344.702   118565519.866         327.368          52.000  
G17  22372062.524   117565313.435       -2000.140          51.000  
G19  20561578.352   108051428.297       -1310.766          58.000  
G20  20911536.370   109890336.855        1837.113          59.000  
G25  24047879.405   126371753.433        1803.103          51.000  
> 2024 08 26 00 10 32.2000000  0  9                     
G05  22839311.326   120020694.472        3404.000          52.000  
G06  21328549.119   112081870.483        -225.000          56.000  
G09  22291211.176   117140686.508        -118.000          55.000  
G11  21440332.448   112669425.625        1611.000          57.000  
G12  22562604.109   118566881.064         327.000          52.000  
G17  22372366.245   117566907.349       -2000.000          51.000  
G19  20561868.925   108052953.276       -1310.000          58.000  
G20  20911767.049   109891547.067        1837.000          58.000  
G25  24048110.755   126372967.047        1803.000          51.000  
> 2024 08 26 00 10 32.3000000  0  9                     
G05  22839246.979   120020354.151        3403.209          52.000  
G06  21328553.765   112081893.026        -225.432          56.000  
G09  22291213.816   117140698.312        -118.037          55.000  
G11  21440302.176   112669264.598        1610.266          57.000  
G12  22562598.263   118566848.389         326.749          51.000  
G17  22372404.719   117567107.361       -2000.122          51.000  
G19  20561894.241   108053084.347       -1310.706          58.000  
G20  20911732.476   109891363.413        1836.546          58.000  
G25  24048076.876   126372786.821        1802.253          51.000  
> 2024 08 26 00 10 32.4000000  0  9                     
G05  22839182.635   120020013.815        3403.361          52.000  
G06  21328558.412   112081915.531        -225.050          56.000  
G09  22291216.464   117140710.112        -117.995          55.000  
G11  21440271.909   112669103.552        1610.451          57.000  
G12  22562592.422   118566815.700         326.902          51.000  
G17  22372443.184   117567307.308       -1999.473          51.000  
G19  20561919.556   108053215.393       -1310.467          58.000  
G20  20911697.911   109891179.707        1837.053          58.000  
G25  24048042.996   126372606.578        1802.431          51.000  
> 2024 08 26 00 10 32.5000000  0  9                     
G05  22839118.265   120019673.463        3403.510          52.000  
G06  21328563.036   112081938.061        -225.301          56.000  
G09  22291219.107   117140721.899        -117.873          55.000  
G11  21440241.641   112668942.526        1610.265          57.000  
G12  22562586.558   118566783.032         326.673          51.000  
G17  22372481.644   117567507.252       -1999.437          51.000  
G19  20561944.864   108053346.421       -1310.287          58.000  
G20  20911663.348   109890996.009        1836.986          58.000  
G25  24048009.117   126372426.371        1802.075          51.000  
> 2024 08 26 00 10 32.6000000  0  9                     
G05  22839053.905   120019333.078        3403.860          52.000  
G06  21328567.652   112081960.541        -224.803          56.000  
G09  22291221.734   117140733.668        -117.689          55.000  
G11  21440211.382   112668781.470        1610.559          57.000  
G12  22562580.700   118566750.328         327.036          51.000  
G17  22372520.091   117567707.123       -1998.709          51.000  
G19  20561970.166   108053477.399       -1309.777          58.000  
G20  20911628.774   109890812.284        1837.255          58.000  
G25  24047975.255   126372246.132        1802.384          51.000  
> 2024 08 26 00 10 32.7000000  0  9                     
G05  22838989.539   120018992.703        3403.746          52.000  
G06  21328572.280   112081983.050        -225.088          56.000  
G09  22291224.364   117140745.436        -117.682          54.000  
G11  21440181.115   112668620.446        1610.247          57.000  
G12  22562574.841   118566717.663         326.650          51.000  
G17  22372558.534   117567907.009       -1998.859          52.000  
G19  20561995.475   108053608.389       -1309.885          57.000  
G20  20911594.206   109890628.584        1836.988          58.000  
G25  24047941.396   126372065.946        1801.862          51.000  
> 2024 08 26 00 10 32.8000000  0  9                     
G05  22838925.192   120018652.377        3403.265          52.000  
G06  21328576.922   112082005.606        -225.553          56.000  
G09  22291227.004   117140757.281        -118.456          54.000  
G11  21440150.860   112668459.487        1609.589          57.000  
G12  22562569.013   118566685.069         325.944          50.000  
G17  22372596.986   117568106.910       -1999.013          52.000  
G19  20562020.773   108053739.399       -1310.104          57.000  
G20  20911559.641   109890444.927        1836.578          58.000  
G25  24047907.548   126371885.841        1801.046          51.000  
> 2024 08 26 00 10 32.9000000  0  9                     
G05  22838860.831   120018312.026        3403.511          52.000  
G06  21328581.568   112082028.158        -225.528          56.000  
G09  22291229.635   117140769.065        -117.832          54.000  
G11  21440120.611   112668298.524        1609.632          57.000  
G12  22562563.189   118566652.470         325.988          50.000  
G17  22372635.432   117568306.774       -1998.639          52.000  
G19  20562046.076   108053870.395       -1309.958          57.000  
G20  20911525.076   109890261.265        1836.614          58.000  
G25  24047873.707   126371705.744        1800.968          51.000  
> 2024 08 26 00 10 33.0000000  0  9                     
G05  22838796.462   120017971.633        3403.936          52.000  
G06  21328586.214   112082050.670        -225.115          55.000  
G09  22291232.274   117140780.881        -118.161          54.000  
G11  21440090.357   112668137.531        1609.929          57.000  
G12  22562557.360   118566619.849         326.215          50.000  
G17  22372673.866   117568506.583       -1998.090          52.000  
G19  20562071.370   108054001.353       -1309.578          57.000  
G20  20911490.507   109890077.565        1837.003          58.000  
G25  24047839.858   126371525.648        1800.967          50.000  
> 2024 08 26 00 10 33.1000000  0  9                     
G05  22838732.101   120017631.256        3403.769          52.000  
G06  21328590.860   112082073.209        -225.388          55.000  
G09  22291234.904   117140792.649        -117.679          54.000  
G11  21440060.111   112667976.576        1609.548          57.000  
G12  22562551.536   118566587.262         325.857          50.000  
G17  22372712.305   117568706.394       -1998.112          52.000  
G19  20562096.664   108054132.305       -1309.523          57.000  
G20  20911455.947   109889893.889        1836.768          58.000  
G25  24047806.018   126371345.586        1800.620          50.000  
> 2024 08 26 00 10 33.2000000  0  9                     
G05  22838933.006   120018684.878        3404.000          52.000  
G06  21328860.776   112083489.746        -226.000          55.000  
G09  22291502.818   117142198.482        -118.000          54.000  
G11  21440295.148   112669209.633        1609.000          57.000  
G12  22562810.982   118567948.689         326.000          50.000  
G17  22373016.009   117570300.177       -1998.000          52.000  
G19  20562387.223   108055657.233       -1310.000          57.000  
G20  20911686.652   109891104.214        1836.000          57.000  
G25  24048037.460   126372559.542        1800.000          50.000  
> 2024 08 26 00 10 33.3000000  0  9                     
G05  22838868.636   120018344.444        3404.344          52.000  
G06  21328865.418   112083512.248        -225.020          55.000  
G09  22291505.440   117142210.204        -117.229          54.000  
G11  21440264.889   112669048.655        1609.777          56.000  
G12  22562805.153   118567916.088         326.007          50.000  
G17  22373054.426   117570499.892       -1997.150          52.000  
G19  20562412.509   108055788.121       -1308.878          57.000  
G20  20911652.075   109890920.508        1837.061          57.000  
G25  24048003.611   126372379.476        1800.654          50.000  
> 2024 08 26 00 10 33.4000000  0  9                     
G05  22838804.275   120018004.071        3403.736          52.000  
G06  21328870.064   112083534.796        -225.483          55.000  
G09  22291508.088   117142222.038        -118.332          54.000  
G11  21440234.648   112668887.748        1609.066          56.000  
G12  22562799.329   118567883.545         325.431          49.000  
G17  22373092.847   117570699.642       -1997.493          52.000  
G19  20562437.802   108055919.034       -1309.130          57.000  
G20  20911617.515   109890736.826        1836.828          57.000  
G25  24047969.789   126372199.498        1799.783          50.000  
> 2024 08 26 00 10 33.5000000  0  9                     
G05  22838739.910   120017663.704        3403.670          51.000  
G06  21328874.727   112083557.390        -225.943          55.000  
G09  22291510.727   117142233.856        -118.184          53.000  
G11  21440204.411   112668726.881        1608.669          56.000  
G12  22562793.518   118567851.053         324.927          49.000  
G17  22373131.263   117570899.394       -1997.524          52.000  
G19  20562463.100   108056049.973       -1309.390          57.000  
G20  20911582.968   109890553.216        1836.099          57.000  
G25  24047935.978   126372019.575        1799.231          50.000  
> 2024 08 26 00 10 33.6000000  0  9                     
G05  22838675.545   120017323.354        3403.495          51.000  
G06  21328879.391   112083579.992        -226.020          55.000  
G09  22291513.375   117142245.731        -118.754          53.000  
G11  21440174.187   112668566.040        1608.414          56.000  
G12  22562787.729   118567818.598         324.548          49.000  
G17  22373169.680   117571099.147       -1997.525          52.000  
G19  20562488.408   108056180.917       -1309.443          57.000  
G20  20911548.411   109890369.572        1836.426          57.000  
G25  24047902.168   126371839.684        1798.902          50.000  
> 2024 08 26 00 10 33.7000000  0  9                     
G05  22838611.184   120016982.978        3403.767          51.000  
G06  21328884.041   112083602.568        -225.756          55.000  
G09  22291516.023   117142257.523        -117.913          53.000  
G11  21440143.964   112668405.188        1608.531          56.000  
G12  22562781.944   118567786.112         324.865          49.000  
G17  22373208.101   117571298.845       -1996.982          52.000  
G19  20562513.702   108056311.812       -1308.952          57.000  
G20  20911513.855   109890185.963        1836.094          57.000  
G25  24047868.363   126371659.783        1799.016          50.000  
> 2024 08 26 00 10 33.8000000  0  9                     
G05  22838546.815   120016642.609        3403.689          51.000  
G06  21328888.700   112083625.166        -225.979          55.000  
G09  22291518.663   117142269.368        -118.457          53.000  
G11  21440113.745   112668244.359        1608.279          56.000  
G12  22562776.168   118567753.673         324.393          49.000  
G17  22373246.517   117571498.545       -1996.995          52.000  
G19  20562538.992   108056442.718       -1309.060          57.000  
G20  20911479.299   109890002.341        1836.224          57.000  
G25  24047834.553   126371479.944        1798.393          50.000  
> 2024 08 26 00 10 33.9000000  0  9                     
G05  22838482.454   120016302.238        3403.702          51.000  
G06  21328893.368   112083647.783        -226.174          55.000  
G09  22291521.328   117142281.250        -118.818          53.000  
G11  21440083.534   112668083.553        1608.066          56.000  
G12  22562770.397   118567721.251         324.221          49.000  
G17  22373284.938   117571698.221       -1996.768          52.000  
G19  20562564.285   108056573.623       -1309.052          57.000  
G20  20911444.757   109889818.738        1836.033          57.000  
G25  24047800.748   126371300.128        1798.156          50.000  
> 2024 08 26 00 10 34.0000000  0  9                     
G05  22838418.088   120015961.886        3403.520          51.000  
G06  21328898.027   112083670.408        -226.251          55.000  
G09  22291523.968   117142293.094        -118.436          53.000  
G11  21440053.315   112667922.775        1607.773          56.000  
G12  22562764.625   118567688.857         323.930          49.000  
G17  22373323.355   117571897.902       -1996.817          52.000  
G19  20562589.580   108056704.515       -1308.913          58.000  
G20  20911410.210   109889635.141        1835.970          57.000  
G25  24047766.956   126371120.351        1797.778          50.000  
> 2024 08 26 00 10 34.1000000  0  9                     
G05  22838353.741   120015621.567        3403.201          51.000  
G06  21328902.695   112083693.076        -226.672          55.000  
G09  22291526.650   117142305.007        -119.132          53.000  
G11  21440023.100   112667762.037        1607.381          56.000  
G12  22562758.871   118567656.518         323.394          49.000  
G17  22373361.772   117572097.579       -1996.758          52.000  
G19  20562614.874   108056835.438       -1309.226          58.000  
G20  20911375.672   109889451.596        1835.447          57.000  
G25  24047733.186   126370940.635        1797.146          50.000  
> 2024 08 26 00 10 34.2000000  0  9                     
G05  22838554.663   120016675.178        3404.000          51.000  
G06  21329172.624   112085109.681        -226.000          55.000  
G09  22291794.581   117143710.848        -118.000          53.000  
G11  21440258.149   112668995.260        1608.000          56.000  
G12  22563018.368   118569018.122         324.000          49.000  
G17  22373665.450   117573691.197       -1995.000          52.000  
G19  20562905.425   108058360.292       -1308.000          58.000  
G20  20911606.390   109890661.987        1836.000          58.000  
G25  24047964.663   126372154.869        1798.000          50.000  
> 2024 08 26 00 10 34.3000000  0  9                     
G05  22838490.332   120016334.829        3403.490          52.000  
G06  21329177.288   112085132.355        -226.748          55.000  
G09  22291797.260   117143722.747        -118.994          54.000  
G11  21440227.938   112668834.536        1607.230          56.000  
G12  22563012.592   118568985.795         323.266          49.000  
G17  22373703.858   117573890.828       -1996.314          52.000  
G19  20562930.719   108058491.188       -1308.971          58.000  
G20  20911571.843   109890478.418        1835.688          58.000  
G25  24047930.887   126371975.213        1796.560          50.000  
> 2024 08 26 00 10 34.4000000  0  9                     
G05  22838425.989   120015994.499        3403.301          52.000  
G06  21329181.968   112085155.037        -226.815          55.000  
G09  22291799.942   117143734.649        -119.025          54.000  
G11  21440197.740   112668673.846        1606.915          56.000  
G12  22563006.825   118568953.504         322.913          50.000  
G17  22373742.261   117574090.457       -1996.287          52.000  
G19  20562956.013   108058622.073       -1308.843          57.000  
G20  20911537.317   109890294.905        1835.125          59.000  
G25  24047897.112   126371795.579        1796.342          50.000  
> 2024 08 26 00 10 34.5000000  0  9                     
G05  22838361.637   120015654.192        3403.074          53.000  
G06  21329186.667   112085177.754        -227.172          56.000  
G09  22291802.621   117143746.588        -119.385          55.000  
G11  21440167.556   112668513.211        1606.342          56.000  
G12  22563001.066   118568921.259         322.457          50.000  
G17  22373780.655   117574290.087       -1996.305          52.000  
G19  20562981.302   108058752.982       -1309.095          57.000  
G20  20911502.783   109890111.382        1835.230          59.000  
G25  24047863.337   126371615.965        1796.139          50.000  
> 2024 08 26 00 10 34.6000000  0  9                     
G05  22838297.277   120015313.810        3403.809          54.000  
G06  21329191.330   112085200.397        -226.431          56.000  
G09  22291805.300   117143758.471        -118.830          55.000  
G11  21440137.350   112668352.514        1606.975          56.000  
G12  22562995.294   118568888.951         323.072          50.000  
G17  22373819.041   117574489.648       -1995.615          52.000  
G19  20563006.579   108058883.810       -1308.269          57.000  
G20  20911468.249   109889927.825        1835.582          59.000  
G25  24047829.567   126371436.366        1795.991          50.000  
> 2024 08 26 00 10 34.7000000  0  9                     
G05  22838232.933   120014973.544        3402.670          54.000  
G06  21329196.033   112085223.175        -227.775          56.000  
G09  22291808.000   117143770.462        -119.913          55.000  
G11  21440107.175   112668191.941        1605.738          56.000  
G12  22562989.545   118568856.773         321.788          50.000  
G17  22373857.445   117574689.276       -1996.271          52.000  
G19  20563031.886   108059014.742       -1309.327          57.000  
G20  20911433.733   109889744.367        1834.568          59.000  
G25  24047795.814   126371256.869        1794.969          50.000  
> 2024 08 26 00 10 34.8000000  0  9                     
G05  22838168.581   120014633.195        3403.481          54.000  
G06  21329200.710   112085245.865        -226.904          56.000  
G09  22291810.679   117143782.376        -119.134          55.000  
G11  21440076.981   112668031.308        1606.326          56.000  
G12  22562983.786   118568824.542         322.311          50.000  
G17  22373895.822   117574888.829       -1995.528          52.000  
G19  20563057.167   108059145.587       -1308.445          57.000  
G20  20911399.199   109889560.844        1835.239          59.000  
G25  24047762.061   126371077.354        1795.147          50.000  
> 2024 08 26 00 10 34.9000000  0  9                     
G05  22838104.237   120014292.906        3402.898          54.000  
G06  21329205.395   112085268.636        -227.711          56.000  
G09  22291813.379   117143794.355        -119.796          55.000  
G11  21440046.810   112667870.752        1605.558          56.000  
G12  22562978.054   118568792.390         321.525          50.000  
G17  22373934.218   117575088.415       -1995.869          51.000  
G19  20563082.461   108059276.484       -1308.977          57.000  
G20  20911364.682   109889377.380        1834.634          59.000  
G25  24047728.326   126370897.898        1794.561          50.000  
> 2024 08 26 00 10 35.0000000  0  9                     
G05  22838039.891   120013952.598        3403.072          54.000  
G06  21329210.094   112085291.385        -227.480          56.000  
G09  22291816.058   117143806.316        -119.612          55.000  
G11  21440016.638   112667710.179        1605.731          56.000  
G12  22562972.295   118568760.218         321.716          50.000  
G17  22373972.599   117575287.958       -1995.431          51.000  
G19  20563107.755   108059407.342       -1308.587          57.000  
G20  20911330.162   109889193.910        1834.706          59.000  
G25  24047694.586   126370718.4511       1794.469          50.000  
> 2024 08 26 00 10 35.1000000  0  9                     
G05  22837975.543   120013612.312        3402.871          54.000  
G06  21329214.810   112085314.170        -227.858          56.000  
G09  22291818.758   117143818.313        -119.967          55.000  
G11  21439986.467   112667549.668        1605.106          56.000  
G12  22562966.563   118568728.121         320.971          50.000  
G17  22374010.981   117575487.517       -1995.583          51.000  
G19  20563133.058   108059538.228       -1308.858          57.000  
G20  20911295.646   109889010.474        1834.352          59.000  
G25  24047660.867   126371309.078        1793.726          50.000  
> 2024 08 26 00 10 35.2000000  0  9                     
G05  22838176.481   120014666.032        3403.000          54.000  
G06  21329484.795   112086730.970        -228.000          57.000  
G09  22292086.724   117145224.322        -120.000          55.000  
G11  21440221.569   112668783.170        1605.000          56.000  
G12  22563226.095   118570090.031         321.000          50.000  
G17  22374314.642   117577081.063       -1996.000          51.000  
G19  20563423.626   108061063.109       -1308.000          57.000  
G20  20911526.398   109890221.047        1834.000          59.000  
G25  24047892.414   126372523.740        1794.000          49.000  
> 2024 08 26 00 10 35.3000000  0  9                     
G05  22838112.151   120014325.787        3402.455          54.000  
G06  21329489.511   112086753.797        -228.268          57.000  
G09  22292089.420   117145236.365        -120.430          55.000  
G11  21440191.415   112668622.720        1604.508          55.000  
G12  22563220.372   118570057.989         320.413          51.000  
G17  22374353.023   117577280.627       -1995.642          51.000  
G19  20563448.929   108061194.014       -1309.051          57.000  
G20  20911491.890   109890037.662        1833.861          59.000  
G25  24047858.713   126372344.461        1792.792          49.000  
> 2024 08 26 00 10 35.4000000  0  9                     
G05  22838047.808   120013985.506        3402.815          54.000  
G06  21329494.213   112086776.631        -228.339          57.000  
G09  22292092.116   117145248.396        -120.310          54.000  
G11  21440161.261   112668462.266        1604.544          55.000  
G12  22563214.657   118570025.955         320.347          51.000  
G17  22374391.404   117577480.148       -1995.203          51.000  
G19  20563474.214   108061324.890       -1308.752          57.000  
G20  20911457.386   109889854.257        1834.049          59.000  
G25  24047825.012   126372165.157        1793.038          49.000  
> 2024 08 26 00 10 35.5000000  0  9                     
G05  22837983.461   120013645.239        3402.668          54.000  
G06  21329498.908   112086799.452        -228.205          57.000  
G09  22292094.812   117145260.412        -120.161          54.000  
G11  21440131.116   112668301.811        1604.548          55.000  
G12  22563208.938   118569993.920         320.342          51.000  
G17  22374429.777   117577679.656       -1995.077          51.000  
G19  20563499.496   108061455.741       -1308.507          57.000  
G20  20911422.883   109889670.857        1833.994          59.000  
G25  24047791.308   126371985.939        1792.182          49.000  
> 2024 08 26 00 10 35.6000000  0  9                     
G05  22837919.113   120013304.9761       3402.628          53.000  
G06  21329503.610   112086822.289        -228.379          57.000  
G09  22292097.512   117145272.450        -120.387          54.000  
G11  21440100.971   112668141.392        1604.190          56.000  
G12  22563203.223   118569961.913         320.073          51.000  
G17  22374468.150   117577879.144       -1994.884          51.000  
G19  20563524.794   108061586.602       -1308.609          57.000  
G20  20911388.385   109889487.461        1833.967          59.000  
G25  24047757.611   126371806.697        1792.416          50.000  
> 2024 08 26 00 10 35.7000000  0  9                     
G05  22837854.752   120013735.614        3403.608          53.000  
G06  21329508.313   112086845.047        -227.580          57.000  
G09  22292100.195   117145284.407        -119.565          54.000  
G11  21440070.817   112667980.908        1604.831          56.000  
G12  22563197.521   118569929.855         320.577          51.000  
G17  22374506.511   117578078.530       -1993.862          51.000  
G19  20563550.071   108061717.364       -1307.631          57.000  
G20  20911353.868   109889303.996        1834.643          59.000  
G25  24047723.911   126371627.422        1792.761          50.000  
> 2024 08 26 00 10 35.8000000  0  4                     
G06  21329512.990   112086867.721        -226.734          25.000  
G11  21440040.620   112667820.204        1607.045          24.000  
G20  20911319.400   109889120.828        1831.687          28.000  
G25  24047690.205   126371448.1494       1792.725          48.000  
> 2024 08 26 00 10 43.3000000  0  2                     
G11  23329091.512                4       1605.843          54.000  
G19  22456781.199                4      -1318.795          56.000  
> 2024 08 26 00 10 43.4000000  0  2                     
G11  23329061.228   122595043.6173       1604.926          54.000  
G19  22456806.528   118011314.7813      -1319.785          56.000  
> 2024 08 26 00 10 43.5000000  0  2                     
G11  23329030.926   122594883.0963       1605.218          54.000  
G19  22456831.857   118011446.7593      -1319.786          56.000  
> 2024 08 26 00 10 43.6000000  0  2                     
G11  23329000.619   122594722.5683       1605.276          54.000  
G19  22456857.195   118011578.7623      -1320.025          56.000  
> 2024 08 26 00 10 43.7000000  0  2                     
G11  23328970.295   122594561.9983       1605.702          54.000  
G19  22456882.528   118011710.7393      -1319.772          57.000  
> 2024 08 26 00 10 43.8000000  0  2                     
G11  23328939.971   122594401.4403       1605.576          55.000  
G19  22456907.866   118011842.7503      -1320.109          57.000  
> 2024 08 26 00 10 43.9000000  0  2                     
G11  23329174.920   122595634.8543       1606.000          55.000  
G19  22457198.477   118013368.7553      -1319.000          57.000  
> 2024 08 26 00 10 44.0000000  0  2                     
G11  23329409.866   122596868.2463       1606.000          55.000  
G19  22457489.076   118014894.7573      -1320.000          57.000  
> 2024 08 26 00 10 44.1000000  0  2                     
G11  23329644.816   122598101.6423       1608.000          55.000  
G19  22457779.683   118016420.7783      -1319.000          57.000  
> 2024 08 26 00 10 44.2000000  0  2                     
G11  23329879.757   122599334.9933       1607.000          55.000  
G19  22458070.290   118017946.7923      -1320.000          57.000  
> 2024 08 26 00 10 44.3000000  0  2                     
G11  23330114.667   122600568.3413       1607.000          55.000  
G19  22458360.889   118019472.7983      -1320.000          57.000  
> 2024 08 26 00 10 44.4000000  0  2                     
G11  23330349.581   122601801.6723       1606.000          55.000  
G19  22458651.496   118020998.8523      -1321.000          57.000  
> 2024 08 26 00 10 44.5000000  0  2                     
G11  23330584.483   122603034.9813       1607.000          55.000  
G19  22458942.103   118022524.8723      -1321.000          57.000  
> 2024 08 26 00 10 44.6000000  0  2                     
G11  23330819.399   122604268.3013       1607.000          55.000  
G19  22459232.714   118024050.9223      -1320.000          57.000  
> 2024 08 26 00 10 44.7000000  0  2                     
G11  23331054.327   122605501.6223       1608.000          55.000  
G19  22459523.335   118025577.0183      -1320.000          57.000  
> 2024 08 26 00 10 44.8000000  0  2                     
G11  23331289.241   122606734.9063       1606.000          55.000  
G19  22459813.951   118027103.0803      -1321.000          57.000  
> 2024 08 26 00 10 44.9000000  0  2                     
G11  23331524.173   122607968.2693       1606.000          55.000  
G19  22460104.589   118028629.2493      -1323.000          57.000  
> 2024 08 26 00 10 45.0000000  0  2                     
G11  23331759.075   122609201.5443       1608.000          55.000  
G19  22460395.209   118030155.3623      -1320.000          57.000  
> 2024 08 26 00 10 45.1000000  0  2                     
G11  23331994.007   122610434.9243       1607.000          55.000  
G19  22460685.860   118031681.5783      -1322.000          57.000  
> 2024 08 26 00 10 45.2000000  0  2                     
G11  23332228.931   122611668.2513       1606.000          55.000  
G19  22460976.501   118033207.7823      -1323.000          57.000  
> 2024 08 26 00 10 45.3000000  0  2                     
G11  23332463.864   122612901.6373       1607.000          55.000  
G19  22461267.152   118034734.0543      -1322.000          57.000  
> 2024 08 26 00 10 45.4000000  0  2                     
G11  23332698.791   122614134.9423       1604.000          55.000  
G19  22461557.803   118036260.2903      -1324.000          57.000  
> 2024 08 26 00 10 45.5000000  0  2                     
G11  23332933.727   122615368.3213       1608.000          55.000  
G19  22461848.458   118037786.6063      -1321.000          57.000  
> 2024 08 26 00 10 45.6000000  0  2                     
G11  23333168.664   122616601.6743       1606.000          55.000  
G19  22462139.118   118039312.9153      -1324.000          57.000  
> 2024 08 26 00 10 45.7000000  0  2                     
G11  23333403.593   122617835.0193       1607.000          55.000  
G19  22462429.777   118040839.2393      -1323.000          57.000  
> 2024 08 26 00 10 45.8000000  0  2                     
G11  23333638.521   122619068.3623       1606.000          55.000  
G19  22462720.442   118042365.5903      -1324.000          58.000  
> 2024 08 26 00 10 45.9000000  0  2                     
G11  23333873.453   122620301.7153       1607.000          55.000  
G19  22463011.110   118043891.9603      -1324.000          58.000  
> 2024 08 26 00 10 46.0000000  0  2                     
G11  23334108.372   122621534.9933       1606.000          55.000  
G19  22463301.761   118045418.2743      -1324.000          58.000  
> 2024 08 26 00 10 46.1000000  0  2                     
G11  23334343.308   122622768.3723       1608.000          54.000  
G19  22463592.442   118046944.7003      -1323.000          58.000  
> 2024 08 26 00 10 46.2000000  0  2                     
G11  23334578.236   122624001.7113       1607.000          54.000  
G19  22463883.119   118048471.0803      -1323.000          58.000  
> 2024 08 26 00 10 46.3000000  0  2                     
G11  23334813.156   122625235.0593       1607.000          54.000  
G19  22464173.800   118049997.5013      -1324.000          58.000  
> 2024 08 26 00 10 46.4000000  0  2                     
G11  23335048.083   122626468.3473       1606.000          54.000  
G19  22464464.477   118051523.8493      -1324.000          58.000  
> 2024 08 26 00 10 46.5000000  0  2                     
G11  23335283.037   122627701.7773       1606.000          54.000  
G19  22464755.168   118053050.3403      -1324.000          58.000  
> 2024 08 26 00 10 46.6000000  0  2                     
G11  23335517.978   122628935.1413       1605.000          54.000  
G19  22465045.858   118054576.7733      -1325.000          58.000  
> 2024 08 26 00 10 46.7000000  0  2                     
G11  23335752.924   122630168.5503       1607.000          54.000  
G19  22465336.561   118056103.2493      -1324.000          58.000  
> 2024 08 26 00 10 46.8000000  0  2                     
G11  23335987.848   122631401.9413       1607.000          54.000  
G19  22465627.251   118057629.7203      -1324.000          58.000  
> 2024 08 26 00 10 46.9000000  0  2                     
G11  23336222.775   122632635.3273       1605.000          54.000  
G19  22465917.941   118059156.1913      -1326.000          57.000  
> 2024 08 26 00 10 47.0000000  0  2                     
G11  23336457.694   122633868.7193       1606.000          54.000  
G19  22466208.627   118060682.6623      -1325.000          57.000  
> 2024 08 26 00 10 47.1000000  0  2                     
G11  23336692.631   122635102.1313       1606.000          54.000  
G19  22466499.326   118062209.1783      -1324.000          57.000  
> 2024 08 26 00 10 47.2000000  0  2                     
G11  23336927.568   122636335.5303       1607.000          54.000  
G19  22466790.015   118063735.6483      -1324.000          57.000  
> 2024 08 26 00 10 47.3000000  0  2                     
G11  23337162.492   122637568.9333       1606.000          54.000  
G19  22467080.705   118065262.1543      -1325.000          57.000  
> 2024 08 26 00 10 47.4000000  0  2                     
G11  23337397.415   122638802.3073       1607.000          54.000  
G19  22467371.400   118066788.6443      -1325.000          57.000  
> 2024 08 26 00 10 47.5000000  0  2                     
G11  23337632.329   122640035.7203       1606.000          54.000  
G19  22467662.086   118068315.1393      -1324.000          57.000  
> 2024 08 26 00 10 47.6000000  0  2                     
G11  23337867.253   122641269.1043       1606.000          54.000  
G19  22467952.793   118069841.6653      -1325.000          57.000  
> 2024 08 26 00 10 47.7000000  0  2                     
G11  23338102.177   122642502.5153       1605.000          54.000  
G19  22468243.501   118071368.1813      -1326.000          57.000  
> 2024 08 26 00 10 47.8000000  0  2                     
G11  23338337.097   122643735.9273       1606.000          53.000  
G19  22468534.200   118072894.6983      -1325.000          57.000  
> 2024 08 26 00 10 47.9000000  0  2                     
G11  23338572.015   122644969.3323       1606.000          53.000  
G19  22468824.916   118074421.2343      -1325.000          57.000  
> 2024 08 26 00 10 48.0000000  0  2                     
G11  23338806.926   122646202.7453       1606.000          53.000  
G19  22469115.632   118075947.7723      -1326.000          57.000  
> 2024 08 26 00 10 48.1000000  0  2                     
G11  23339041.849   122647436.1733       1607.000          53.000  
G19  22469406.349   118077474.3293      -1324.000          57.000  
> 2024 08 26 00 10 48.2000000  0  2                     
G11  23339276.760   122648669.5463       1606.000          54.000  
G19  22469697.060   118079000.8343      -1325.000          57.000  
> 2024 08 26 00 10 48.3000000  0  2                     
G11  23339511.670   122649902.9023       1606.000          54.000  
G19  22469987.772   118080527.3283      -1326.000          57.000  
> 2024 08 26 00 10 48.4000000  0  2                     
G11  23339746.589   122651136.3053       1606.000          53.000  
G19  22470278.497   118082053.8673      -1326.000          57.000  
> 2024 08 26 00 10 48.5000000  0  2                     
G11  23339981.513   122652369.7543       1607.000          53.000  
G19  22470569.231   118083580.4643      -1324.000          57.000  
> 2024 08 26 00 10 48.6000000  0  2                     
G11  23340216.423   122653603.1393       1606.000          53.000  
G19  22470859.952   118085106.9983      -1325.000          57.000  
> 2024 08 26 00 10 48.7000000  0  2                     
G11  23340451.330   122654836.5013       1606.000          53.000  
G19  22471150.681   118086633.5263      -1326.000          57.000  
> 2024 08 26 00 10 48.8000000  0  2                     
G11  23340686.249   122656069.9643       1606.000          53.000  
G19  22471441.423   118088160.1413      -1326.000          57.000  
> 2024 08 26 00 10 48.9000000  0  2                     
G11  23340921.177   122657303.3883       1606.000          53.000  
G19  22471732.166   118089686.7233      -1325.000          57.000  
> 2024 08 26 00 10 49.0000000  0  2                     
G11  23341156.096   122658536.8003       1606.000          53.000  
G19  22472022.908   118091213.3023      -1326.000          57.000  
> 2024 08 26 00 10 49.1000000  0  2                     
G11  23341391.028   122659770.2213       1606.000          53.000  
G19  22472313.655   118092739.8993      -1326.000          57.000  
> 2024 08 26 00 10 49.2000000  0  2                     
G11  23341625.961   122661003.6923       1607.000          53.000  
G19  22472604.419   118094266.5383      -1325.000          56.000  
> 2024 08 26 00 10 49.3000000  0  2                     
G11  23341860.871   122662237.081        1606.000          53.000  
G19  22472895.162   118095793.109       -1326.000          56.000  
> 2024 08 26 00 10 49.4000000  0  2                     
G11  23342095.790   122663470.501        1605.000          53.000  
G19  22473185.922   118097319.737       -1326.000          56.000  
> 2024 08 26 00 10 49.5000000  0  2                     
G11  23342330.727   122664704.023        1606.000          53.000  
G19  22473476.690   118098846.414       -1326.000          56.000  
> 2024 08 26 00 10 49.6000000  0  2                     
G11  23342565.650   122665937.472        1606.000          52.000  
G19  22473767.446   118100373.046       -1326.000          56.000  
> 2024 08 26 00 10 49.7000000  0  2                     
G11  23342800.587   122667170.948        1604.000          52.000  
G19  22474058.219   118101899.737       -1328.000          56.000  
> 2024 08 26 00 10 49.8000000  0  2                     
G11  23343035.515   122668404.437        1605.000          52.000  
G19  22474348.992   118103426.426       -1327.000          57.000  
> 2024 08 26 00 10 49.9000000  0  2                     
G11  23343270.452   122669637.931        1605.000          53.000  
G19  22474639.764   118104953.120       -1327.000          57.000  
> 2024 08 26 00 10 50.0000000  0  3                     
G04  24177428.107   127053206.2983      -2014.000          29.000  
G11  23343505.388   122670871.427        1605.000          53.000  
G19  22474930.542   118106479.825       -1327.000          58.000  
> 2024 08 26 00 10 50.1000000  0  3                     
G04  24177732.880   127054801.6713      -2013.000          29.000  
G11  23343740.320   122672104.906        1605.000          54.000  
G19  22475221.315   118108006.506       -1327.000          59.000  
> 2024 08 26 00 10 50.2000000  0  3                     
G04  24178037.717   127056397.0863      -2014.000          30.000  
G11  23343975.270   122673338.426        1604.000          54.000  
G19  22475512.110   118109533.251       -1327.000          60.000  
> 2024 08 26 00 10 50.3000000  0  3                     
G04  24178342.438   127057992.5033      -2015.000          29.000  
G11  23344210.207   122674571.942        1605.000          54.000  
G19  22475802.900   118111059.988       -1327.000          60.000  
> 2024 08 26 00 10 50.4000000  0  3                     
G04  24178647.140   127059587.9513      -2014.000          29.000  
G11  23344445.157   122675805.498        1605.000          54.000  
G19  22476093.704   118112586.769       -1327.000          60.000  
> 2024 08 26 00 10 50.5000000  0  3                     
G04  24178951.826   127061183.4023      -2014.000          29.000  
G11  23344680.097   122677039.038        1604.000          54.000  
G19  22476384.503   118114113.530       -1328.000          60.000  
> 2024 08 26 00 10 50.6000000  0  3                     
G04  24179256.485   127062778.8653      -2014.000          29.000  
G11  23344915.047   122678272.611        1605.000          54.000  
G19  22476675.315   118115640.340       -1328.000          60.000  
> 2024 08 26 00 10 50.7000000  0  3                     
G04  24179561.125   127064374.3543      -2015.000          29.000  
G11  23345150.006   122679506.186        1605.000          54.000  
G19  22476966.131   118117167.152       -1328.000          60.000  
> 2024 08 26 00 10 50.8000000  0  3                     
G04  24179865.754   127065969.9093      -2016.000          29.000  
G11  23345384.969   122680739.779        1604.000          54.000  
G19  22477256.944   118118693.990       -1328.000          60.000  
> 2024 08 26 00 10 50.9000000  0  3                     
G04  24180170.352   127067565.4063      -2014.000          29.000  
G11  23345619.927   122681973.349        1604.000          54.000  
G19  22477547.760   118120220.796       -1328.000          60.000  
> 2024 08 26 00 10 51.0000000  0  2                     
G11  23345854.894   122683206.974        1604.000          54.000  
G19  22477838.590   118121747.668       -1328.000          59.000  
> 2024 08 26 00 10 51.1000000  0  2                     
G11  23346089.874   122684440.635        1603.000          54.000  
G19  22478129.433   118123274.593       -1329.000          59.000  
> 2024 08 26 00 10 51.2000000  0  2                     
G11  23346324.846   122685674.249        1605.000          54.000  
G19  22478420.262   118124801.452       -1328.000          59.000  
> 2024 08 26 00 10 51.3000000  0  2                     
G11  23346559.827   122686907.890        1604.000          54.000  
G19  22478711.096   118126328.347       -1329.000          59.000  
> 2024 08 26 00 10 51.4000000  0  2                     
G11  23346794.794   122688141.464        1604.000          54.000  
G19  22479001.930   118127855.201       -1328.000          59.000  
> 2024 08 26 00 10 51.5000000  0  2                     
G11  23347029.769   122689375.072        1604.000          55.000  
G19  22479292.756   118129382.070       -1329.000          59.000  
> 2024 08 26 00 10 51.6000000  0  2                     
G11  23347264.767   122690608.741        1604.000          55.000  
G19  22479583.603   118130909.015       -1328.000          59.000  
> 2024 08 26 00 10 51.7000000  0  2                     
G11  23347499.761   122691842.418        1603.000          55.000  
G19  22479874.458   118132435.970       -1330.000          59.000  
> 2024 08 26 00 10 51.8000000  0  2                     
G11  23347734.750   122693076.088        1603.000          55.000  
G19  22480165.306   118133962.912       -1329.000          59.000  
> 2024 08 26 00 10 51.9000000  0  2                     
G11  23347969.765   122694309.827        1603.000          56.000  
G19  22480456.175   118135489.938       -1329.000          59.000  
> 2024 08 26 00 10 52.0000000  0  2                     
G11  23348204.775   122695543.539        1604.000          56.000  
G19  22480747.039   118137016.939       -1329.000          59.000  
> 2024 08 26 00 10 52.1000000  0  2                     
G11  23348439.773   122696777.197        1603.000          56.000  
G19  22481037.904   118138543.899       -1330.000          59.000  
> 2024 08 26 00 10 52.2000000  0  2                     
G11  23348674.789   122698010.900        1603.000          56.000  
G19  22481328.769   118140070.890       -1331.000          59.000  
> 2024 08 26 00 10 52.3000000  0  2                     
G11  23348909.808   122699244.665        1603.000          56.000  
G19  22481619.651   118141597.962       -1330.000          59.000  
> 2024 08 26 00 10 52.4000000  0  3                     
G04  24184735.993   127091499.4353      -2017.000          26.000  
G11  23349144.832   122700478.401        1602.000          56.000  
G19  22481910.528   118143125.000       -1331.000          58.000  
> 2024 08 26 00 10 52.5000000  0  3                     
G04  24185040.281   127093095.1473      -2017.000          26.000  
G11  23349379.860   122701712.141        1603.000          56.000  
G19  22482201.402   118144652.055       -1330.000          58.000  
> 2024 08 26 00 10 52.6000000  0  3                     
G04  24185344.568   127094690.8553      -2017.000          26.000  
G11  23349614.892   122702945.916        1604.000          56.000  
G19  22482492.288   118146179.136       -1329.000          58.000  
> 2024 08 26 00 10 52.7000000  0  3                     
G04  24185648.844   127096286.5533      -2017.000          26.000  
G11  23349849.925   122704179.627        1602.000          56.000  
G19  22482783.166   118147706.176       -1331.000          58.000  
> 2024 08 26 00 10 52.8000000  0  3                     
G04  24185953.114   127097882.2843      -2017.000          26.000  
G11  23350084.962   122705413.409        1603.000          56.000  
G19  22483074.052   118149233.274       -1330.000          58.000  
> 2024 08 26 00 10 52.9000000  0  3                     
G04  24186257.399   127099478.0403      -2017.000          26.000  
G11  23350319.995   122706647.167        1602.000          56.000  
G19  22483364.952   118150760.356       -1331.000          58.000  
> 2024 08 26 00 10 53.0000000  0  3                     
G04  24186561.661   127101073.7723      -2017.000          26.000  
G11  23350555.023   122707880.894        1602.000          56.000  
G19  22483655.838   118152287.417       -1332.000          58.000  
> 2024 08 26 00 10 53.1000000  0  3                     
G04  24186865.918   127102669.4733      -2017.000          26.000  
G11  23350790.073   122709114.694        1602.000          56.000  
G19  22483946.737   118153814.542       -1331.000          58.000  
> 2024 08 26 00 10 53.2000000  0  3                     
G04  24187170.184   127104265.2133      -2017.000          26.000  
G11  23351025.132   122710348.495        1602.000          56.000  
G19  22484237.646   118155341.678       -1331.000          58.000  
> 2024 08 26 00 10 53.3000000  0  3                     
G04  24187474.446   127105860.9983      -2018.000          26.000  
G11  23351260.191   122711582.319        1602.000          56.000  
G19  22484528.558   118156868.856       -1332.000          58.000  
> 2024 08 26 00 10 53.4000000  0  3                     
G04  24187778.721   127107456.8313      -2018.000          26.000  
G11  23351495.250   122712816.132        1602.000          56.000  
G19  22484819.467   118158396.009       -1332.000          58.000  
> 2024 08 26 00 10 53.5000000  0  3                     
G04  24188082.974   127109052.6173      -2018.000          26.000  
G11  23351730.304   122714049.929        1602.000          56.000  
G19  22485110.370   118159923.160       -1332.000          58.000  
> 2024 08 26 00 10 53.6000000  0  3                     
G04  24188387.214   127110648.4293      -2018.000          25.000  
G11  23351965.375   122715283.793        1602.000          56.000  
G19  22485401.296   118161450.380       -1331.000          58.000  
> 2024 08 26 00 10 53.7000000  0  3                     
G04  24188691.454   127112244.2263      -2018.000          25.000  
G11  23352200.435   122716517.614        1602.000          56.000  
G19  22485692.209   118162977.551       -1331.000          58.000  
> 2024 08 26 00 10 53.8000000  0  3                     
G04  24188995.699   127113840.0273      -2018.000          25.000  
G11  23352435.498   122717751.443        1602.000          56.000  
G19  22485983.130   118164504.742       -1332.000          57.000  
> 2024 08 26 00 10 53.9000000  0  3                     
G04  24189299.948   127115435.8733      -2018.000          25.000  
G11  23352670.566   122718985.286        1602.000          56.000  
G19  22486274.055   118166031.959       -1332.000          57.000  
> 2024 08 26 00 10 54.0000000  0  3                     
G04  24189604.192   127117031.7103      -2018.000          25.000  
G11  23352905.637   122720219.124        1601.000          56.000  
G19  22486564.981   118167559.161       -1333.000          57.000  
> 2024 08 26 00 10 54.1000000  0  3                     
G04  24189908.441   127118627.5403      -2018.000          25.000  
G11  23353140.704   122721452.966        1602.000          56.000  
G19  22486855.907   118169086.368       -1332.000          57.000  
> 2024 08 26 00 10 54.2000000  0  3                     
G04  24190212.677   127120223.3363      -2018.000          25.000  
G11  23353375.768   122722686.791        1601.000          56.000  
G19  22487146.854   118170613.587       -1332.000          57.000  
> 2024 08 26 00 10 54.3000000  0  3                     
G04  24190516.930   127121819.1993      -2018.000          25.000  
G11  23353610.844   122723920.678        1601.000          56.000  
G19  22487437.775   118172140.840       -1333.000          57.000  
> 2024 08 26 00 10 54.4000000  0  3                     
G04  24190821.188   127123415.0833      -2018.000          25.000  
G11  23353845.921   122725154.538        1602.000          56.000  
G19  22487728.702   118173668.106       -1332.000          57.000  
> 2024 08 26 00 10 54.5000000  0  3                     
G04  24191125.433   127125010.9193      -2018.000          25.000  
G11  23354080.992   122726388.375        1602.000          56.000  
G19  22488019.644   118175195.325       -1332.000          57.000  
> 2024 08 26 00 10 54.6000000  0  3                     
G04  24191429.682   127126606.7513      -2018.000          25.000  
G11  23354316.068   122727622.218        1602.000          56.000  
G19  22488310.587   118176722.567       -1332.000          57.000  
> 2024 08 26 00 10 54.7000000  0  3                     
G04  24191733.931   127128202.5933      -2018.000          25.000  
G11  23354551.145   122728856.093        1601.000          56.000  
G19  22488601.535   118178249.840       -1333.000          57.000  
> 2024 08 26 00 10 54.8000000  0  3                     
G04  24192038.193   127129798.5063      -2019.000          25.000  
G11  23354786.221   122730090.006        1601.000          56.000  
G19  22488892.491   118179777.147       -1333.000          57.000  
> 2024 08 26 00 10 54.9000000  0  3                     
G04  24192342.451   127131394.4183      -2019.000          25.000  
G11  23355021.306   122731323.869        1601.000          56.000  
G19  22489183.439   118181304.416       -1333.000          57.000  
> 2024 08 26 00 10 55.0000000  0  3                     
G04  24192646.695   127132990.2753      -2018.000          25.000  
G11  23355256.373   122732557.689        1602.000          56.000  
G19  22489474.378   118182831.657       -1332.000          57.000  
> 2024 08 26 00 10 55.1000000  0  3                     
G04  24192950.935   127134586.1093      -2019.000          25.000  
G11  23355491.462   122733791.605        1602.000          56.000  
G19  22489765.342   118184358.979       -1333.000          57.000  
> 2024 08 26 00 10 55.2000000  0  3                     
G04  24193255.202   127136182.0693      -2020.000          25.000  
G11  23355726.552   122735025.499        1601.000          56.000  
G19  22490056.308   118185886.307       -1333.000          57.000  
> 2024 08 26 00 10 55.3000000  0  3                     
G04  24193559.455   127137777.987       -2019.000          26.000  
G11  23355961.629   122736259.381        1601.000          55.000  
G19  22490347.263   118187413.603       -1333.000          57.000  
> 2024 08 26 00 10 55.4000000  0  3                     
G04  24193863.704   127139373.853       -2018.000          26.000  
G11  23356196.705   122737493.232        1602.000          55.000  
G19  22490638.229   118188940.889       -1332.000          57.000  
> 2024 08 26 00 10 55.5000000  0  3                     
G04  24194167.992   127140969.721       -2018.000          28.000  
G11  23356431.794   122738727.137        1602.000          55.000  
G19  22490929.185   118190468.218       -1332.000          57.000  
> 2024 08 26 00 10 55.6000000  0  3                     
G04  24194472.276   127142565.615       -2019.000          28.000  
G11  23356666.874   122739960.996        1601.000          55.000  
G19  22491220.149   118191995.509       -1334.000          57.000  
> 2024 08 26 00 10 55.7000000  0  3                     
G04  24194776.564   127144161.534       -2019.000          28.000  
G11  23356901.959   122741194.832        1602.000          55.000  
G19  22491511.127   118193522.806       -1332.000          57.000  
> 2024 08 26 00 10 55.8000000  0  3                     
G04  24195080.826   127145757.382       -2019.000          28.000  
G11  23357137.054   122742428.742        1601.000          55.000  
G19  22491802.106   118195050.145       -1333.000          57.000  
> 2024 08 26 00 10 55.9000000  0  3                     
G04  24195385.083   127147353.239       -2017.000          28.000  
G11  23357372.151   122743662.684        1601.000          55.000  
G19  22492093.053   118196577.242       -1330.000          57.000  
> 2024 08 26 00 10 56.0000000  0  3                     
G04  24195689.280   127148948.885       -2019.000          28.000  
G11  23357607.245   122744896.597        1599.000          55.000  
G19  22492383.883   118198103.781       -1324.000          56.000  
> 2024 08 26 00 10 56.1000000  0  3                     
G04  24195993.476   127150544.513       -2019.000          28.000  
G11  23357842.365   122746130.628        1600.000          55.000  
G19  22492674.761   118199630.566       -1326.000          56.000  
> 2024 08 26 00 10 56.2000000  0  3                     
G04  24196297.664   127152140.161       -2019.000          28.000  
G11  23358077.476   122747364.581        1601.000          55.000  
G19  22492965.594   118201157.105       -1326.000          56.000  
> 2024 08 26 00 10 56.3000000  0  3                     
G04  24196601.843   127153735.787       -2019.000          28.000  
G11  23358312.583   122748598.540        1600.000          55.000  
G19  22493256.446   118202683.724       -1326.000          56.000  
> 2024 08 26 00 10 56.4000000  0  2                     
G11  23358547.708   122749832.530        1600.000          55.000  
G19  22493547.302   118204210.353       -1326.000          56.000  
> 2024 08 26 00 10 56.5000000  0  2                     
G11  23358782.831   122751066.544        1601.000          55.000  
G19  22493838.153   118205737.016       -1325.000          56.000  
> 2024 08 26 00 10 56.6000000  0  2                     
G11  23359017.946   122752300.531        1600.000          55.000  
G19  22494129.009   118207263.659       -1327.000          56.000  
> 2024 08 26 00 10 56.7000000  0  2                     
G11  23359253.062   122753534.487        1600.000          55.000  
G19  22494419.848   118208790.277       -1326.000          56.000  
> 2024 08 26 00 10 56.8000000  0  2                     
G11  23359488.187   122754768.518        1600.000          55.000  
G19  22494710.699   118210316.970       -1327.000          56.000  
> 2024 08 26 00 10 56.9000000  0  2                     
G11  23359723.311   122756002.496        1601.000          55.000  
G19  22495001.555   118211843.614       -1326.000          56.000  
> 2024 08 26 00 10 57.0000000  0  2                     
G11  23359958.444   122757236.533        1600.000          55.000  
G19  22495292.407   118213370.321       -1327.000          56.000  
> 2024 08 26 00 10 57.1000000  0  2                     
G11  23360193.576   122758470.538        1600.000          55.000  
G19  22495583.262   118214897.002       -1327.000          56.000  
> 2024 08 26 00 10 57.2000000  0  2                     
G11  23360428.701   122759704.509        1600.000          55.000  
G19  22495874.118   118216423.644       -1327.000          56.000  
> 2024 08 26 00 10 57.3000000  0  2                     
G11  23360663.825   122760938.527        1601.000          55.000  
G19  22496164.970   118217950.349       -1326.000          56.000  
> 2024 08 26 00 10 57.4000000  0  2                     
G11  23360898.967   122762172.548        1600.000          55.000  
G19  22496455.826   118219477.056       -1327.000          56.000  
> 2024 08 26 00 10 57.5000000  0  2                     
G11  23361134.109   122763406.615        1600.000          55.000  
G19  22496746.695   118221003.808       -1328.000          56.000  
> 2024 08 26 00 10 57.6000000  0  2                     
G11  23361369.259   122764640.691        1599.000          56.000  
G19  22497037.568   118222530.579       -1328.000          56.000  
> 2024 08 26 00 10 57.7000000  0  2                     
G11  23361604.418   122765874.809        1599.000          56.000  
G19  22497328.463   118224057.395       -1328.000          56.000  
> 2024 08 26 00 10 57.8000000  0  2                     
G11  23361839.569   122767108.914        1598.000          56.000  
G19  22497619.349   118225584.207       -1328.000          56.000  
> 2024 08 26 00 10 57.9000000  0  2                     
G11  23362074.724   122768343.018        1598.000          56.000  
G19  22497910.240   118227111.018       -1329.000          56.000  
> 2024 08 26 00 10 58.0000000  0  2                     
G11  23362309.874   122769577.101        1599.000          56.000  
G19  22498201.109   118228637.818       -1328.000          56.000  
> 2024 08 26 00 10 58.1000000  0  2                     
G11  23362545.041   122770811.197        1599.000          56.000  
G19  22498492.000   118230164.630       -1329.000          56.000  
> 2024 08 26 00 10 58.2000000  0  2                     
G11  23362780.218   122772045.358        1599.000          56.000  
G19  22498782.891   118231691.506       -1328.000          56.000  
> 2024 08 26 00 10 58.3000000  0  2                     
G11  23363015.387   122773279.483        1599.000          56.000  
G19  22499073.782   118233218.361       -1328.000          56.000  
> 2024 08 26 00 10 58.4000000  0  2                     
G11  23363250.559   122774513.618        1599.000          56.000  
G19  22499364.673   118234745.221       -1328.000          57.000  
> 2024 08 26 00 10 58.5000000  0  2                     
G11  23363485.730   122775747.785        1599.000          56.000  
G19  22499655.577   118236272.122       -1329.000          57.000  
> 2024 08 26 00 10 58.6000000  0  2                     
G11  23363720.894   122776981.900        1599.000          56.000  
G19  22499946.485   118237798.965       -1329.000          57.000  
> 2024 08 26 00 10 58.7000000  0  2                     
G11  23363956.070   122778216.011        1600.000          55.000  
G19  22500237.380   118239325.831       -1328.000          57.000  
> 2024 08 26 00 10 58.8000000  0  2                     
G11  23364191.252   122779450.168        1598.000          55.000  
G19  22500528.284   118240852.727       -1329.000          57.000  
> 2024 08 26 00 10 58.9000000  0  2                     
G11  23364426.428   122780684.281        1600.000          55.000  
G19  22500819.192   118242379.584       -1328.000          57.000  
> 2024 08 26 00 10 59.0000000  0  2                     
G11  23364661.609   122781918.425        1598.000          55.000  
G19  22501110.118   118243906.490       -1329.000          57.000  
> 2024 08 26 00 10 59.1000000  0  2                     
G11  23364896.794   122783152.568        1599.000          55.000  
G19  22501401.026   118245433.386       -1328.000          57.000  
> 2024 08 26 00 10 59.2000000  0  2                     
G11  23365131.980   122784386.728        1598.000          55.000  
G19  22501691.951   118246960.309       -1330.000          57.000  
> 2024 08 26 00 10 59.3000000  0  2                     
G11  23365367.183   122785620.944        1598.000          55.000  
G19  22501982.878   118248487.286       -1330.000          58.000  
> 2024 08 26 00 10 59.4000000  0  2                     
G11  23365602.394   122786855.202        1598.000          55.000  
G19  22502273.820   118250014.319       -1330.000          58.000  
> 2024 08 26 00 10 59.5000000  0  2                     
G11  23365837.597   122788089.419        1598.000          55.000  
G19  22502564.741   118251541.309       -1330.000          58.000  
> 2024 08 26 00 10 59.6000000  0  2                     
G11  23366072.804   122789323.642        1599.000          55.000  
G19  22502855.672   118253068.294       -1330.000          58.000  
> 2024 08 26 00 10 59.7000000  0  2                     
G11  23366308.019   122790557.905        1598.000          55.000  
G19  22503146.615   118254595.349       -1330.000          58.000  
> 2024 08 26 00 10 59.8000000  0  2                     
G11  23366543.222   122791792.119        1598.000          55.000  
G19  22503437.558   118256122.352       -1329.000          58.000  
> 2024 08 26 00 10 59.9000000  0  2                     
G11  23366778.443   122793026.371        1598.000          55.000  
G19  22503728.501   118257649.398       -1330.000          58.000  
> 2024 08 26 00 11 00.0000000  0  2                     
G11  23367013.654   122794260.578        1599.000          55.000  
G19  22504019.444   118259176.398       -1329.000          59.000  
> 2024 08 26 00 11 00.1000000  0  2                     
G11  23367248.865   122795494.798        1598.000          55.000  
G19  22504310.388   118260703.406       -1330.000          59.000  
> 2024 08 26 00 11 00.2000000  0  2                     
G11  23367484.077   122796728.993        1598.000          55.000  
G19  22504601.335   118262230.408       -1330.000          59.000  
> 2024 08 26 00 11 00.3000000  0  2                     
G11  23367719.288   122797963.223        1598.000          55.000  
G19  22504892.274   118263757.445       -1330.000          59.000  
> 2024 08 26 00 11 00.4000000  0  2                     
G11  23367954.505   122799197.452        1598.000          55.000  
G19  22505183.239   118265284.488       -1330.000          59.000  
> 2024 08 26 00 11 00.5000000  0  2                     
G11  23368189.725   122800431.681        1597.000          54.000  
G19  22505474.195   118266811.532       -1331.000          58.000  
> 2024 08 26 00 11 00.6000000  0  2                     
G11  23368424.953   122801665.903        1598.000          54.000  
G19  22505765.159   118268338.570       -1331.000          58.000  
> 2024 08 26 00 11 00.7000000  0  2                     
G11  23368660.182   122802900.155        1598.000          54.000  
G19  22506056.120   118269865.649       -1330.000          58.000  
> 2024 08 26 00 11 00.8000000  0  2                     
G11  23368895.393   122804134.338        1598.000          54.000  
G19  22506347.063   118271392.657       -1330.000          58.000  
> 2024 08 26 00 11 00.9000000  0  2                     
G11  23369130.618   122805368.577        1599.000          54.000  
G19  22506638.006   118272919.718       -1330.000          58.000  
> 2024 08 26 00 11 01.0000000  0  2                     
G11  23369365.835   122806602.813        1599.000          54.000  
G19  22506928.949   118274446.805       -1330.000          58.000  
> 2024 08 26 00 11 01.1000000  0  2                     
G11  23369601.046   122807836.979        1597.000          54.000  
G19  22507219.893   118275973.807       -1331.000          57.000  
> 2024 08 26 00 11 01.2000000  0  2                     
G11  23369836.270   122809071.216        1598.000          54.000  
G19  22507510.840   118277500.879       -1330.000          57.000  
> 2024 08 26 00 11 01.3000000  0  3                     
G06  23268457.647                4       -228.000          59.000  
G11  23370071.482   122810305.404        1598.000          54.000  
G19  22507801.779   118279027.925       -1331.000          57.000  
> 2024 08 26 00 11 01.4000000  0  3                     
G06  23268727.410   122277987.2693       -228.000          59.000  
G11  23370306.698   122811539.615        1598.000          54.000  
G19  22508092.726   118280554.978       -1331.000          57.000  
> 2024 08 26 00 11 01.5000000  0  3                     
G06  23268997.169   122279404.0563       -228.000          59.000  
G11  23370541.909   122812773.842        1597.000          54.000  
G19  22508383.665   118282082.061       -1331.000          57.000  
> 2024 08 26 00 11 01.6000000  0  3                     
G06  23269266.936   122280820.8363       -229.000          59.000  
G11  23370777.129   122814008.065        1597.000          54.000  
G19  22508674.647   118283609.158       -1331.000          57.000  
> 2024 08 26 00 11 01.7000000  0  3                     
G06  23269536.716   122282237.6673       -227.000          59.000  
G11  23371012.362   122815242.339        1598.000          54.000  
G19  22508965.625   118285136.297       -1331.000          57.000  
> 2024 08 26 00 11 01.8000000  0  3                     
G06  23269806.492   122283654.4583       -228.000          59.000  
G11  23371247.587   122816476.590        1597.000          54.000  
G19  22509256.603   118286663.403       -1332.000          57.000  
> 2024 08 26 00 11 01.9000000  0  3                     
G06  23270076.290   122285071.3153       -229.000          59.000  
G11  23371482.816   122817710.880        1597.000          54.000  
G19  22509547.586   118288190.574       -1332.000          57.000  
> 2024 08 26 00 11 02.0000000  0  3                     
G06  23270346.092   122286488.1953       -228.000          59.000  
G11  23371718.050   122818945.216        1597.000          54.000  
G19  22509838.581   118289717.781       -1332.000          57.000  
> 2024 08 26 00 11 02.1000000  0  3                     
G06  23270615.889   122287905.0573       -229.000          59.000  
G11  23371953.283   122820179.524        1597.000          54.000  
G19  22510129.577   118291244.974       -1332.000          57.000  
> 2024 08 26 00 11 02.2000000  0  3                     
G06  23270885.683   122289321.9383       -228.000          59.000  
G11  23372188.516   122821413.844        1598.000          54.000  
G19  22510420.577   118292772.191       -1331.000          57.000  
> 2024 08 26 00 11 02.3000000  0  3                     
G06  23271155.467   122290738.7673       -228.000          59.000  
G11  23372423.745   122822648.118        1597.000          54.000  
G19  22510711.555   118294299.350       -1332.000          57.000  
> 2024 08 26 00 11 02.4000000  0  3                     
G06  23271425.266   122292155.6143       -228.000          59.000  
G11  23372658.979   122823882.412        1598.000          54.000  
G19  22511002.533   118295826.522       -1331.000          57.000  
> 2024 08 26 00 11 02.5000000  0  3                     
G06  23271695.059   122293572.4143       -228.000          59.000  
G11  23372894.199   122825116.660        1598.000          54.000  
G19  22511293.511   118297353.672       -1331.000          57.000  
> 2024 08 26 00 11 02.6000000  0  3                     
G06  23271964.866   122294989.2753       -229.000          59.000  
G11  23373129.428   122826350.956        1597.000          54.000  
G19  22511584.511   118298880.865       -1332.000          58.000  
> 2024 08 26 00 11 02.7000000  0  3                     
G06  23272234.673   122296406.1403       -228.000          58.000  
G11  23373364.656   122827585.266        1598.000          54.000  
G19  22511875.510   118300408.094       -1331.000          58.000  
> 2024 08 26 00 11 02.8000000  0  3                     
G06  23272504.458   122297822.9323       -228.000          58.000  
G11  23373599.872   122828819.505        1598.000          54.000  
G19  22512166.484   118301935.247       -1331.000          58.000  
> 2024 08 26 00 11 02.9000000  0  3                     
G06  23272774.242   122299239.7653       -228.000          58.000  
G11  23373835.102   122830053.790        1597.000          54.000  
G19  22512457.484   118303462.433       -1332.000          59.000  
> 2024 08 26 00 11 03.0000000  0  3                     
G06  23273044.027   122300656.6313       -228.000          58.000  
G11  23374070.335   122831288.098        1598.000          54.000  
G19  22512748.479   118304989.663       -1331.000          59.000  
> 2024 08 26 00 11 03.1000000  0  3                     
G06  23273313.816   122302073.4353       -230.000          58.000  
G11  23374305.560   122832522.357        1596.000          54.000  
G19  22513039.457   118306516.832       -1333.000          59.000  
> 2024 08 26 00 11 03.2000000  0  4                     
G04  24217590.337   127264187.078       -2016.000          25.000  
G06  23273583.630   122303490.2813       -228.000          57.000  
G11  23374540.792   122833756.645        1597.000          53.000  
G19  22513330.457   118308044.041       -1332.000          59.000  
> 2024 08 26 00 11 03.3000000  0  4                     
G04  24217894.909   127265782.783       -2017.000          25.000  
G06  23273853.459   122304907.2413       -228.000          57.000  
G11  23374776.039   122834991.037        1597.000          53.000  
G19  22513621.470   118309571.381       -1332.000          59.000  
> 2024 08 26 00 11 03.4000000  0  4                     
G04  24218199.498   127267378.482       -2017.000          25.000  
G06  23274123.265   122306324.0843       -229.000          57.000  
G11  23375011.268   122836225.325        1597.000          53.000  
G19  22513912.470   118311098.591       -1333.000          58.000  
> 2024 08 26 00 11 03.5000000  0  4                     
G04  24218504.100   127268974.162       -2017.000          25.000  
G06  23274393.068   122307740.9453       -229.000          57.000  
G11  23375246.505   122837459.658        1597.000          53.000  
G19  22514203.465   118312625.858       -1332.000          58.000  
> 2024 08 26 00 11 03.6000000  0  4                     
G04  24218808.715   127270569.803       -2017.000          25.000  
G06  23274662.891   122309157.8673       -229.000          57.000  
G11  23375481.752   122838694.000        1597.000          53.000  
G19  22514494.478   118314153.145       -1333.000          58.000  
> 2024 08 26 00 11 03.7000000  0  4                     
G04  24219113.357   127272165.499       -2017.000          25.000  
G06  23274932.707   122310574.7763       -229.000          57.000  
G11  23375716.998   122839928.368        1596.000          53.000  
G19  22514785.496   118315680.462       -1334.000          58.000  
> 2024 08 26 00 11 03.8000000  0  4                     
G04  24219418.021   127273761.266       -2017.000          25.000  
G06  23275202.518   122311991.6543       -229.000          57.000  
G11  23375952.231   122841162.693        1597.000          53.000  
G19  22515076.491   118317207.733       -1332.000          58.000  
> 2024 08 26 00 11 03.9000000  0  4                     
G04  24219722.688   127275356.925       -2017.000          25.000  
G06  23275472.351   122313408.5753       -229.000          57.000  
G11  23376187.478   122842397.056        1597.000          53.000  
G19  22515367.508   118318735.054       -1333.000          58.000  
> 2024 08 26 00 11 04.0000000  0  4                     
G04  24220027.369   127276952.639       -2017.000          25.000  
G06  23275742.179   122314825.4983       -228.000          58.000  
G11  23376422.724   122843631.407        1597.000          53.000  
G19  22515658.522   118320262.376       -1332.000          58.000  
> 2024 08 26 00 11 04.1000000  0  4                     
G04  24220332.067   127278548.343       -2017.000          25.000  
G06  23276012.012   122316242.4243       -230.000          58.000  
G11  23376657.980   122844865.791        1596.000          53.000  
G19  22515949.539   118321789.712       -1334.000          58.000  
> 2024 08 26 00 11 04.2000000  0  4                     
G04  24220636.800   127280144.135       -2018.000          25.000  
G06  23276282.674   122317659.3503       -229.000          58.000  
G11  23376893.239   122846100.160        1597.000          53.000  
G19  22516240.551   118323317.044       -1333.000          58.000  
> 2024 08 26 00 11 04.3000000  0  4                     
G04  24220941.533   127281739.929       -2018.000          25.000  
G06  23276553.274   122319076.3373       -229.000          58.000  
G11  23377128.507   122847334.596        1597.000          53.000  
G19  22516531.582   118324844.452       -1333.000          58.000  
> 2024 08 26 00 11 04.4000000  0  4                     
G04  24221246.271   127283335.639       -2017.000          25.000  
G06  23276823.809   122320493.2533       -230.000          58.000  
G11  23377363.758   122848568.948        1595.000          53.000  
G19  22516822.599   118326371.771       -1334.000          58.000  
> 2024 08 26 00 11 04.5000000  0  4                     
G04  24221551.039   127284931.469       -2018.000          25.000  
G06  23277094.327   122321910.2663       -230.000          57.000  
G11  23377599.022   122849803.395        1596.000          53.000  
G19  22517113.647   118327899.207       -1334.000          58.000  
> 2024 08 26 00 11 04.6000000  0  4                     
G04  24221855.820   127286527.293       -2019.000          25.000  
G06  23277364.831   122323327.2703       -230.000          57.000  
G11  23377834.290   122851037.861        1596.000          52.000  
G19  22517404.699   118329426.660       -1334.000          58.000  
> 2024 08 26 00 11 04.7000000  0  4                     
G04  24222160.602   127288123.083       -2018.000          25.000  
G06  23277635.322   122324744.3033       -230.000          57.000  
G11  23378069.567   122852272.330        1596.000          52.000  
G19  22517695.734   118330954.114       -1335.000          58.000  
> 2024 08 26 00 11 04.8000000  0  3                     
G06  23277905.796   122326161.3313       -229.000          57.000  
G11  23378304.839   122853506.806        1596.000          52.000  
G19  22517986.782   118332481.575       -1334.000          58.000  
> 2024 08 26 00 11 04.9000000  0  3                     
G06  23278176.236   122327578.3543       -230.000          57.000  
G11  23378540.125   122854741.274        1595.000          52.000  
G19  22518277.851   118334009.040       -1335.000          57.000  
> 2024 08 26 00 11 05.0000000  0  3                     
G06  23278446.635   122328995.4193       -230.000          57.000  
G11  23378775.406   122855975.778        1596.000          52.000  
G19  22518568.904   118335536.551       -1335.000          57.000  
> 2024 08 26 00 11 05.1000000  0  3                     
G06  23278717.005   122330412.5153       -231.000          57.000  
G11  23379010.705   122857210.335        1595.000          52.000  
G19  22518859.956   118337064.101       -1335.000          57.000  
> 2024 08 26 00 11 05.2000000  0  3                     
G06  23278987.357   122331829.5843       -230.000          57.000  
G11  23379245.986   122858444.832        1595.000          52.000  
G19  22519151.008   118338591.614       -1335.000          57.000  
> 2024 08 26 00 11 05.3000000  0  3                     
G06  23279257.678   122333246.6383       -230.000          57.000  
G11  23379481.267   122859679.326        1595.000          52.000  
G19  22519442.055   118340119.118       -1335.000          57.000  
> 2024 08 26 00 11 05.4000000  0  3                     
G06  23279528.000   122334663.7203       -231.000          57.000  
G11  23379716.562   122860913.850        1595.000          52.000  
G19  22519733.108   118341646.648       -1335.000          57.000  
> 2024 08 26 00 11 05.5000000  0  3                     
G06  23279798.312   122336080.7813       -230.000          57.000  
G11  23379951.852   122862148.362        1595.000          52.000  
G19  22520024.173   118343174.178       -1335.000          57.000  
> 2024 08 26 00 11 05.6000000  0  3                     
G06  23280068.612   122337497.7983       -230.000          57.000  
G11  23380187.133   122863382.828        1596.000          52.000  
G19  22520315.225   118344701.677       -1334.000          57.000  
> 2024 08 26 00 11 05.7000000  0  3                     
G06  23280338.881   122338914.8753       -231.000          57.000  
G11  23380422.419   122864617.330        1594.000          52.000  
G19  22520606.295   118346229.217       -1336.000          57.000  
> 2024 08 26 00 11 05.8000000  0  3                     
G06  23280609.110   122340331.9483       -231.000          57.000  
G11  23380657.709   122865851.861        1595.000          52.000  
G19  22520897.360   118347756.771       -1335.000          57.000  
> 2024 08 26 00 11 05.9000000  0  3                     
G06  23280879.318   122341749.0193       -230.000          57.000  
G11  23380893.003   122867086.372        1595.000          52.000  
G19  22521188.430   118349284.319       -1335.000          58.000  
> 2024 08 26 00 11 06.0000000  0  3                     
G06  23281149.504   122343166.1003       -231.000          57.000  
G11  23381128.302   122868320.906        1595.000          52.000  
G19  22521479.517   118350811.900       -1336.000          58.000  
> 2024 08 26 00 11 06.1000000  0  3                     
G06  23281419.694   122344583.2333       -232.000          57.000  
G11  23381363.610   122869555.471        1594.000          52.000  
G19  22521770.604   118352339.498       -1337.000          58.000  
> 2024 08 26 00 11 06.2000000  0  3                     
G06  23281689.876   122346000.4163       -231.000          57.000  
G11  23381598.925   122870790.102        1595.000          52.000  
G19  22522061.708   118353867.185       -1336.000          58.000  
> 2024 08 26 00 11 06.3000000  0  3                     
G06  23281694.762   122346023.5753       -231.582          57.000  
G11  23381568.963   122870630.679        1594.227          52.000  
G19  22522087.526   118354000.831       -1336.453          58.000  
> 2024 08 26 00 11 06.4000000  0  3                     
G06  22981907.211   120770626.9513       -232.000          57.000  
G11  23081746.245   121295049.692        1594.000          52.000  
G19  22222321.159   116778715.822       -1337.000          58.000  
> 2024 08 26 00 11 06.5000000  0  3                     
G06  22981912.058   120770650.1663       -232.148          57.000  
G11  23081716.296   121294890.335        1593.585          52.000  
G19  22222346.995   116778849.528       -1337.061          58.000  
> 2024 08 26 00 11 06.6000000  0  3                     
G06  22682124.463   119195253.5513       -231.000          56.000  
G11  22781893.587   119719309.344        1594.000          53.000  
G19  21922580.628   115203564.529       -1337.000          58.000  
> 2024 08 26 00 11 06.7000000  0  3                     
G06  22682129.271   119195276.7153       -231.645          56.000  
G11  22781863.643   119719149.950        1593.951          53.000  
G19  21922606.467   115203698.211       -1336.819          59.000  
> 2024 08 26 00 11 06.8000000  0  3                     
G06  22382341.671   117619880.1443       -232.000          56.000  
G11  22482040.934   118143568.981        1594.000          53.000  
G19  21622840.095   113628413.261       -1337.000          59.000  
> 2024 08 26 00 11 06.9000000  0  3                     
G06  22382346.470   117619903.2903       -231.463          56.000  
G11  22482010.981   118143409.575        1594.062          53.000  
G19  21622865.918   113628546.931       -1336.698          59.000  
> 2024 08 26 00 11 07.0000000  0  3                     
G06  22082558.853   116044506.7393       -232.000          57.000  
G11  22182188.276   116567828.635        1594.000          52.000  
G19  21323099.564   112053262.009       -1337.000          60.000  
> 2024 08 26 00 11 07.1000000  0  3                     
G06  22082563.643   116044529.9783       -232.391          57.000  
G11  22182158.340   116567669.315        1593.211          52.000  
G19  21323125.425   112053395.776       -1337.676          60.000  
> 2024 08 26 00 11 07.2000000  0  3                     
G06  21782775.996   114469133.4113       -232.000          58.000  
G11  21882335.639   114992088.368        1594.000          52.000  
G19  21023359.071   110478110.855       -1337.000          60.000  
> 2024 08 26 00 11 07.3000000  0  6                     
G05  23269389.536   122281455.4224       3366.813          52.000  
G06  21782780.742   114469156.627        -232.162          58.000  
G11  21882305.704   114991929.020        1593.472          52.000  
G12  23013260.811                4        282.379          51.000  
G19  21023384.911   110478244.600       -1337.450          60.000  
G25  24488905.171   128690052.9834       1763.864          50.000  
> 2024 08 26 00 11 07.4000000  0  6                     
G05  22969532.590   120705695.3663       3367.000          52.000  
G06  21482993.078   112893760.077        -232.000          59.000  
G11  21582483.003   113416348.073        1594.000          52.000  
G12  22713463.544   119360053.9283        282.000          51.000  
G19  20723618.562   108902959.685       -1337.000          59.000  
G25  24189079.256   127114454.9193       1764.000          50.000  
> 2024 08 26 00 11 07.5000000  0  6                     
G05  22969468.762   120705358.7063       3366.607          52.000  
G06  21482997.820   112893783.318        -232.419          59.000  
G11  21582453.072   113416188.761        1593.114          52.000  
G12  22713458.781   119360025.7333        281.944          51.000  
G19  20723644.415   108903093.488       -1338.026          59.000  
G25  24189046.104   127114278.5623       1763.559          49.000  
> 2024 08 26 00 11 07.6000000  0  6                     
G05  22969404.916   120705022.0103       3366.954          53.000  
G06  21483002.558   112893806.505        -231.863          59.000  
G11  21582423.132   113416029.380        1593.809          52.000  
G12  22713453.991   119359997.4793        282.546          51.000  
G19  20723670.254   108903227.212       -1337.233          59.000  
G25  24189012.935   127114102.1693       1763.929          49.000  
> 2024 08 26 00 11 07.7000000  0  6                     
G05  22969341.078   120704685.3723       3366.378          53.000  
G06  21483007.291   112893829.765        -232.602          59.000  
G11  21582393.209   113415870.083        1592.972          52.000  
G12  22713449.205   119359969.3113        281.677          51.000  
G19  20723696.111   108903361.030       -1338.190          59.000  
G25  24188979.772   127113925.9083       1762.616          49.000  
> 2024 08 26 00 11 07.8000000  0  6                     
G05  22969277.241   120704348.7483       3366.243          53.000  
G06  21483012.015   112893853.013        -232.482          59.000  
G11  21582363.287   113415710.780        1593.034          52.000  
G12  22713444.415   119359941.1523        281.602          51.000  
G19  20723721.968   108903494.837       -1338.066          59.000  
G25  24188946.576   127113749.5843       1763.237          49.000  
> 2024 08 26 00 11 07.9000000  0  6                     
G05  22969213.395   120704012.0793       3366.697          53.000  
G06  21483016.736   112893876.238        -232.246          59.000  
G11  21582333.355   113415551.441        1593.392          52.000  
G12  22713439.603   119359912.9503        282.009          51.000  
G19  20723747.824   108903628.623       -1337.861          59.000  
G25  24188913.369   127113573.2973       1762.880          49.000  
> 2024 08 26 00 11 08.0000000  0  6                     
G05  22969149.558   120703675.4193       3366.601          53.000  
G06  21483021.443   112893899.474        -232.365          59.000  
G11  21582303.428   113415392.104        1593.364          52.000  
G12  22713434.752   119359884.7623        281.886          52.000  
G19  20723773.677   108903762.420       -1337.967          59.000  
G25  24188880.140   127113396.9833       1763.141          49.000  
> 2024 08 26 00 11 08.1000000  0  6                     
G05  22969085.711   120703338.7783       3366.394          53.000  
G06  21483026.150   112893922.718        -232.435          59.000  
G11  21582273.500   113415232.795        1593.089          52.000  
G12  22713429.888   119359856.6043        281.574          52.000  
G19  20723799.538   108903896.236       -1338.162          59.000  
G25  24188846.906   127113220.6833       1762.999          49.000  
> 2024 08 26 00 11 08.2000000  0  6                     
G05  22968756.600   120701608.1673       3367.000          53.000  
G06  21482765.597   112892551.985        -232.000          58.000  
G11  21581978.308   113413679.498        1594.000          52.000  
G12  22713159.740   119358434.4723        282.000          52.000  
G19  20723560.130   108902636.077       -1338.000          59.000  
G25  24188548.385   127111650.4163       1764.000          49.000  
> 2024 08 26 00 11 08.3000000  0  6                     
G05  22968692.754   120701271.5463       3366.212          53.000  
G06  21482770.304   112892575.238        -232.533          58.000  
G11  21581948.376   113413520.189        1593.102          53.000  
G12  22713154.820   119358406.3193        281.531          53.000  
G19  20723585.982   108902769.908       -1338.308          59.000  
G25  24188515.129   127111474.1583       1762.577          49.000  
> 2024 08 26 00 11 08.4000000  0  6                     
G05  22968628.900   120700934.8693       3366.781          53.000  
G06  21482775.012   112892598.450        -232.110          58.000  
G11  21581918.450   113413360.841        1593.464          53.000  
G12  22713149.859   119358378.1363        281.830          52.000  
G19  20723611.844   108902903.695       -1337.867          59.000  
G25  24188481.860   127111297.8473       1763.110          49.000  
> 2024 08 26 00 11 08.5000000  0  6                     
G05  22968565.050   120700598.2473       3366.213          53.000  
G06  21482779.728   112892621.686        -232.360          58.000  
G11  21581888.527   113413201.531        1593.112          52.000  
G12  22713144.873   119358350.0123        281.239          52.000  
G19  20723637.696   108903037.533       -1338.384          59.000  
G25  24188448.582   127111121.5753       1762.707          49.000  
> 2024 08 26 00 11 08.6000000  0  6                     
G05  22968501.216   120700261.6163       3366.309          53.000  
G06  21482784.439   112892644.950        -232.640          58.000  
G11  21581858.600   113413042.210        1593.210          52.000  
G12  22713139.856   119358321.8603        281.525          52.000  
G19  20723663.553   108903171.370       -1338.373          59.000  
G25  24188415.314   127110945.2993       1762.761          49.000  
> 2024 08 26 00 11 08.7000000  0  6                     
G05  22968437.396   120699925.0623       3365.539          53.000  
G06  21482789.160   112892668.263        -233.132          58.000  
G11  21581828.690   113412882.970        1592.399          52.000  
G12  22713134.843   119358293.8093        280.510          52.000  
G19  20723689.432   108903305.285       -1339.142          58.000  
G25  24188382.053   127110769.1223       1761.771          49.000  
> 2024 08 26 00 11 08.8000000  0  6                     
G05  22968373.569   120699588.4643       3365.985          52.000  
G06  21482793.854   112892691.545        -232.822          58.000  
G11  21581798.767   113412723.694        1592.760          52.000  
G12  22713129.809   119358265.7213        280.882          52.000  
G19  20723715.302   108903439.165       -1338.802          58.000  
G25  24188348.749   127110592.9073       1762.147          48.000  
> 2024 08 26 00 11 08.9000000  0  6                     
G05  22968309.749   120699251.9233       3365.411          52.000  
G06  21482798.574   112892714.865        -233.196          58.000  
G11  21581768.854   113412564.450        1592.448          52.000  
G12  22713124.762   119358237.6783        280.431          52.000  
G19  20723741.175   108903573.088       -1339.227          58.000  
G25  24188315.447   127110416.7133       1761.959          48.000  
> 2024 08 26 00 11 09.0000000  0  6                     
G05  22968245.920   120698915.3323       3365.910          52.000  
G06  21482803.281   112892738.144        -232.794          58.000  
G11  21581738.931   113412405.172        1592.771          52.000  
G12  22713119.701   119358209.5903        280.876          52.000  
G19  20723767.050   108903706.973       -1338.852          58.000  
G25  24188282.134   127110240.4983       1762.150          48.000  
> 2024 08 26 00 11 09.1000000  0  6                     
G05  22968182.100   120698578.7973       3365.339          52.000  
G06  21482807.997   112892761.488        -233.435          58.000  
G11  21581709.030   113412245.952        1592.202          52.000  
G12  22713114.649   119358181.5743        280.161          52.000  
G19  20723792.942   108903840.925       -1339.522          58.000  
G25  24188248.848   127110064.3613       1761.363          48.000  
> 2024 08 26 00 11 09.2000000  0  6                     
G05  22967853.019   120696848.2563       3365.000          52.000  
G06  21482547.443   112891390.811        -233.000          58.000  
G11  21581413.846   113410692.704        1593.000          52.000  
G12  22712844.319   119356759.5353        280.000          52.000  
G19  20723553.555   108902580.852       -1339.000          58.000  
G25  24187950.266   127108494.1793       1762.000          48.000  
> 2024 08 26 00 11 09.3000000  0  6                     
G05  22967789.187   120696511.7013       3365.556          51.000  
G06  21482552.151   112891414.129        -233.184          58.000  
G11  21581383.927   113410533.455        1592.480          52.000  
G12  22712839.254   119356731.5043        280.306          52.000  
G19  20723579.425   108902714.800       -1339.485          57.000  
G25  24187916.953   127108318.0283       1761.506          48.000  
> 2024 08 26 00 11 09.4000000  0  6                     
G05  22967725.372   120696175.1543       3365.472          51.000  
G06  21482556.849   112891437.431        -233.017          58.000  
G11  21581354.009   113410374.199        1592.565          52.000  
G12  22712834.189   119356703.4623        280.422          52.000  
G19  20723605.300   108902848.716       -1339.156          57.000  
G25  24187883.658   127108141.8483       1761.793          48.000  
> 2024 08 26 00 11 09.5000000  0  6                     
G05  22967661.547   120695838.6313       3365.226          51.000  
G06  21482561.547   112891460.783        -233.523          57.000  
G11  21581324.091   113410214.998        1592.021          52.000  
G12  22712829.129   119356675.4823        279.792          52.000  
G19  20723631.192   108902982.704       -1339.880          57.000  
G25  24187850.380   127107965.7333       1761.154          48.000  
> 2024 08 26 00 11 09.6000000  0  6                     
G05  22967597.723   120695502.0483       3365.819          52.000  
G06  21482566.241   112891484.050        -232.666          57.000  
G11  21581294.163   113410055.696        1593.016          52.000  
G12  22712824.055   119356647.4093        280.737          52.000  
G19  20723657.066   108903116.590       -1338.857          57.000  
G25  24187817.076   127107789.4873       1762.456          48.000  
> 2024 08 26 00 11 09.7000000  0  6                     
G05  22967533.894   120695165.4703       3365.781          51.000  
G06  21482570.940   112891507.328        -232.785          57.000  
G11  21581264.245   113409896.424        1592.711          52.000  
G12  22712818.994   119356619.3743        280.351          51.000  
G19  20723682.945   108903250.512       -1339.223          57.000  
G25  24187783.807   127107613.3533       1761.337          48.000  
> 2024 08 26 00 11 09.8000000  0  6                     
G05  22967470.084   120694828.9633       3365.081          51.000  
G06  21482575.639   112891530.671        -233.428          57.000  
G11  21581234.323   113409737.199        1592.253          52.000  
G12  22712813.925   119356591.3853        279.891          51.000  
G19  20723708.832   108903384.492       -1339.800          57.000  
G25  24187750.530   127107437.2413       1761.132          48.000  
> 2024 08 26 00 11 09.9000000  0  6                     
G05  22967406.268   120694492.4343       3365.295          51.000  
G06  21482580.337   112891554.008        -233.371          57.000  
G11  21581204.409   113409577.960        1592.392          52.000  
G12  22712808.847   119356563.3983        279.867          51.000  
G19  20723734.729   108903518.452       -1339.600          57.000  
G25  24187717.244   127107261.0673       1761.742          48.000  
> 2024 08 26 00 11 10.0000000  0  6                     
G05  22967342.435   120694155.8983       3365.344          51.000  
G06  21482585.036   112891577.332        -233.243          57.000  
G11  21581174.491   113409418.722        1592.374          52.000  
G12  22712803.756   119356535.4053        279.932          51.000  
G19  20723760.615   108903652.430       -1339.779          57.000  
G25  24187683.949   127107084.9523       1761.147          48.000  
> 2024 08 26 00 11 10.1000000  0  6                     
G05  22967278.628   120693819.3973       3365.006          51.000  
G06  21482589.729   112891600.675        -233.424          57.000  
G11  21581144.576   113409259.513        1592.102          53.000  
G12  22712798.665   119356507.4523        279.541          51.000  
G19  20723786.511   108903786.426       -1339.957          57.000  
G25  24187650.680   127106908.8863       1760.667          47.000  
> 2024 08 26 00 11 10.2000000  0  6                     
G05  22966949.543   120692088.9053       3367.000          51.000  
G06  21482329.153   112890230.043        -232.000          57.000  
G11  21580849.402   113407706.303        1594.000          53.000  
G12  22712528.304   119355085.5053        281.000          51.000  
G19  20723547.138   108902526.448       -1338.000          57.000  
G25  24187352.142   127105338.7853       1762.000          47.000  
> 2024 08 26 00 11 10.3000000  0  6                     
G05  22966885.724   120691752.3613       3365.448          51.000  
G06  21482333.835   112890253.348        -233.051          57.000  
G11  21580819.479   113407547.043        1592.598          53.000  
G12  22712523.192   119355057.5063        279.991          51.000  
G19  20723573.012   108902660.398       -1339.503          56.000  
G25  24187318.851   127105162.6313       1761.552          47.000  
> 2024 08 26 00 11 10.4000000  0  6                     
G05  22966821.913   120691415.8633       3364.976          51.000  
G06  21482338.525   112890276.677        -233.289          57.000  
G11  21580789.569   113407387.822        1592.198          53.000  
G12  22712518.087   119355029.5553        279.513          51.000  
G19  20723598.904   108902794.396       -1339.977          56.000  
G25  24187285.565   127104986.5423       1760.873          47.000  
> 2024 08 26 00 11 10.5000000  0  6                     
G05  22966758.101   120691079.3583       3365.045          51.000  
G06  21482343.223   112890300.036        -233.588          57.000  
G11  21580759.650   113407228.601        1592.216          53.000  
G12  22712512.983   119355001.6113        279.430          51.000  
G19  20723624.796   108902928.418       -1340.218          56.000  
G25  24187252.270   127104810.4833       1760.596          47.000  
> 2024 08 26 00 11 10.6000000  0  6                     
G05  22966694.299   120690742.9063       3364.512          52.000  
G06  21482347.926   112890323.426        -233.906          57.000  
G11  21580729.749   113407069.434        1591.675          53.000  
G12  22712507.888   119354973.7293        278.830          52.000  
G19  20723650.706   108903062.480       -1340.616          56.000  
G25  24187218.983   127104634.4523       1760.308          47.000  
> 2024 08 26 00 11 10.7000000  0  6                     
G05  22966630.501   120690406.4453       3364.619          52.000  
G06  21482352.616   112890346.784        -233.576          56.000  
G11  21580699.840   113406910.244        1591.899          53.000  
G12  22712502.788   119354945.8203        279.089          52.000  
G19  20723676.602   108903196.519       -1340.391          56.000  
G25  24187185.684   127104458.3863       1760.660          47.000  
> 2024 08 26 00 11 10.8000000  0  6                     
G05  22966566.699   120690069.9803       3364.655          52.000  
G06  21482357.305   112890370.173        -233.887          56.000  
G11  21580669.934   113406751.061        1591.835          53.000  
G12  22712497.689   119354917.9223        278.981          52.000  
G19  20723702.506   108903330.583       -1340.639          56.000  
G25  24187152.394   127104282.3573       1760.297          47.000  
> 2024 08 26 00 11 10.9000000  0  6                     
G05  22966502.888   120689733.5383       3364.417          52.000  
G06  21482361.995   112890393.572        -233.993          56.000  
G11  21580640.038   113406591.893        1591.672          53.000  
G12  22712492.598   119354890.0483        278.739          51.000  
G19  20723728.420   108903464.655       -1340.719          56.000  
G25  24187119.103   127104106.3373       1760.197          47.000  
> 2024 08 26 00 11 11.0000000  0  6                     
G05  22966439.067   120689397.0493       3364.884          52.000  
G06  21482366.676   112890416.921        -233.499          56.000  
G11  21580610.128   113406432.675        1592.191          53.000  
G12  22712487.489   119354862.1363        279.117          51.000  
G19  20723754.307   108903598.697       -1340.427          56.000  
G25  24187085.795   127103930.2713       1760.663          47.000  
> 2024 08 26 00 11 11.1000000  0  6                     
G05  22966375.256   120689060.6203       3364.290          52.000  
G06  21482371.379   112890440.311        -233.896          56.000  
G11  21580580.223   113406273.508        1591.669          53.000  
G12  22712482.393   119354834.2793        278.573          51.000  
G19  20723780.220   108903732.783       -1340.859          56.000  
G25  24187052.504   127103754.2963       1759.752          47.000  
> 2024 08 26 00 11 11.2000000  0  6                     
G05  22966046.184   120687330.1713       3365.000          52.000  
G06  21482110.812   112889069.705        -233.000          56.000  
G11  21580285.057   113404720.329        1593.000          53.000  
G12  22712212.032   119353412.4083        279.000          51.000  
G19  20723540.865   108902472.865       -1340.000          56.000  
G25  24186753.936   127102184.2433       1761.000          47.000  
> 2024 08 26 00 11 11.3000000  0  6                     
G05  22965982.391   120686993.7593       3364.127          52.000  
G06  21482115.519   112889093.135        -234.290          56.000  
G11  21580255.161   113404561.196        1591.329          53.000  
G12  22712206.950   119353384.5893        278.196          51.000  
G19  20723566.774   108902606.984       -1341.196          56.000  
G25  24186720.648   127102008.3083       1759.340          47.000  
> 2024 08 26 00 11 11.4000000  0  6                     
G05  22965918.606   120686657.4013       3363.581          52.000  
G06  21482120.239   112889116.594        -234.597          56.000  
G11  21580225.272   113404402.086        1591.095          53.000  
G12  22712201.881   119353356.8013        277.873          51.000  
G19  20723592.722   108902741.141       -1341.567          56.000  
G25  24186687.362   127101832.3533       1759.555          47.000  
> 2024 08 26 00 11 11.5000000  0  6                     
G05  22965854.795   120686320.9083       3364.926          52.000  
G06  21482124.925   112889139.932        -233.383          56.000  
G11  21580195.363   113404242.868        1592.169          53.000  
G12  22712196.799   119353328.9023        278.989          51.000  
G19  20723618.645   108902875.204       -1340.621          56.000  
G25  24186654.050   127101656.3483       1760.048          47.000  
> 2024 08 26 00 11 11.6000000  0  6                     
G05  22965791.014   120685984.5263       3363.816          52.000  
G06  21482129.628   112889163.382        -234.489          56.000  
G11  21580165.474   113404083.732        1591.373          53.000  
G12  22712191.742   119353301.1013        278.014          51.000  
G19  20723644.559   108903009.342       -1341.385          56.000  
G25  24186620.772   127101480.3693       1759.786          47.000  
> 2024 08 26 00 11 11.7000000  0  6                     
G05  22965727.230   120685648.1503       3363.763          52.000  
G06  21482134.326   112889186.813        -234.317          56.000  
G11  21580135.587   113403924.621        1591.112          52.000  
G12  22712186.695   119353273.3333        277.680          51.000  
G19  20723670.507   108903143.505       -1341.631          56.000  
G25  24186587.512   127101304.4613       1759.091          47.000  
> 2024 08 26 00 11 11.8000000  0  6                     
G05  22965663.428   120685311.7333       3364.171          52.000  
G06  21482139.025   112889210.229        -234.153          56.000  
G11  21580105.690   113403765.469        1591.523          52.000  
G12  22712181.630   119353245.5143        278.187          51.000  
G19  20723696.434   108903277.625       -1341.199          56.000  
G25  24186554.226   127101128.4783       1759.826          47.000  
> 2024 08 26 00 11 11.9000000  0  6                     
G05  22965599.638   120684975.3623       3363.701          52.000  
G06  21482143.737   112889233.671        -234.427          56.000  
G11  21580075.803   113403606.350        1591.182          52.000  
G12  22712176.574   119353217.7513        277.630          51.000  
G19  20723722.378   108903411.804       -1341.788          56.000  
G25  24186520.975   127100952.5983       1758.808          47.000  
> 2024 08 26 00 11 12.0000000  0  6                     
G05  22965535.840   120684638.9923       3363.694          52.000  
G06  21482148.452   112889257.133        -234.617          56.000  
G11  21580045.902   113403447.225        1591.257          53.000  
G12  22712171.505   119353189.9763        277.751          51.000  
G19  20723748.321   108903545.976       -1341.721          56.000  
G25  24186487.689   127100776.6193       1759.789          47.000  
> 2024 08 26 00 11 12.1000000  0  6                     
G05  22965472.042   120684302.5903       3364.021          52.000  
G06  21482153.160   112889280.548        -234.139          56.000  
G11  21580016.010   113403288.095        1591.304          53.000  
G12  22712166.431   119353162.1913        277.852          50.000  
G19  20723774.270   108903680.129       -1341.531          56.000  
G25  24186454.429   127100600.7413       1758.775          47.000  
> 2024 08 26 00 11 12.2000000  0  6                     
G05  22965142.975   120682572.2143       3364.000          52.000  
G06  21481892.598   112887909.987        -234.000          56.000  
G11  21579720.852   113401734.965        1592.000          53.000  
G12  22711896.092   119351740.4283        278.000          50.000  
G19  20723534.936   108902420.306       -1341.000          57.000  
G25  24186155.895   127099030.8153       1759.000          46.000  
> 2024 08 26 00 11 12.3000000  0  6                     
G05  22965079.181   120682235.8423       3363.723          52.000  
G06  21481897.301   112887933.452        -234.654          55.000  
G11  21579690.965   113401575.846        1591.192          53.000  
G12  22711891.015   119351712.6803        277.481          50.000  
G19  20723560.876   108902554.494       -1341.883          57.000  
G25  24186122.625   127098854.8743       1759.400          46.000  
> 2024 08 26 00 11 12.4000000  0  6                     
G05  22965015.383   120681899.4273       3364.142          52.000  
G06  21481901.995   112887956.812        -233.597          55.000  
G11  21579661.059   113401416.661        1591.851          53.000  
G12  22711885.932   119351684.8713        278.093          50.000  
G19  20723586.789   108902688.616       -1341.222          57.000  
G25  24186089.365   127098678.9893       1758.845          46.000  
> 2024 08 26 00 11 12.5000000  0  6                     
G05  22964951.585   120681563.0603       3363.668          52.000  
G06  21481906.702   112887980.280        -234.681          55.000  
G11  21579631.171   113401257.558        1591.019          53.000  
G12  22711880.858   119351657.1473        277.238          50.000  
G19  20723612.716   108902822.820       -1342.036          57.000  
G25  24186056.092   127098503.0663       1759.242          46.000  
> 2024 08 26 00 11 12.6000000  0  6                     
G05  22964887.787   120681226.6713       3363.884          52.000  
G06  21481911.400   112888003.697        -234.171          55.000  
G11  21579601.279   113401098.412        1591.462          53.000  
G12  22711875.785   119351629.3733        277.742          50.000  
G19  20723638.643   108902956.991       -1341.708          57.000  
G25  24186022.827   127098327.1343       1759.321          46.000  
> 2024 08 26 00 11 12.7000000  0  6                     
G05  22964823.998   120680890.3203       3363.525          52.000  
G06  21481916.103   112888027.147        -234.503          55.000  
G11  21579571.395   113400939.295        1591.185          53.000  
G12  22711870.720   119351601.6513        277.218          50.000  
G19  20723664.574   108903091.191       -1341.997          57.000  
G25  24185989.585   127098151.2803       1758.550          46.000  
> 2024 08 26 00 11 12.8000000  0  6                     
G05  22964760.191   120680553.9323       3363.877          52.000  
G06  21481920.802   112888050.577        -234.297          55.000  
G11  21579541.503   113400780.160        1591.341          52.000  
G12  22711865.646   119351573.9073        277.438          50.000  
G19  20723690.501   108903225.375       -1341.846          57.000  
G25  24185956.321   127097975.3703       1759.087          46.000  
> 2024 08 26 00 11 12.9000000  0  6                     
G05  22964696.419   120680217.6833       3362.478          52.000  
G06  21481925.517   112888074.109        -235.319          55.000  
G11  21579511.637   113400621.138        1590.227          52.000  
G12  22711860.599   119351546.2793        276.287          50.000  
G19  20723716.466   108903359.690       -1343.150          57.000  
G25  24185923.087   127097799.6013       1757.700          46.000  
> 2024 08 26 00 11 13.0000000  0  6                     
G05  22964632.625   120679881.3103       3363.730          52.000  
G06  21481930.216   112888097.561        -234.520          55.000  
G11  21579481.741   113400462.002        1591.364          52.000  
G12  22711855.529   119351518.5583        277.212          50.000  
G19  20723742.406   108903493.893       -1342.024          57.000  
G25  24185889.818   127097623.7193       1758.824          46.000  
> 2024 08 26 00 11 13.1000000  0  6                     
G05  22964568.845   120679544.9843       3363.272          52.000  
G06  21481934.919   112888121.035        -234.746          56.000  
G11  21579451.857   113400302.919        1590.820          52.000  
G12  22711850.469   119351490.8733        276.848          50.000  
G19  20723768.354   108903628.132       -1342.395          57.000  
G25  24185856.576   127097447.8833       1758.357          46.000  
> 2024 08 26 00 11 13.2000000  0  6                     
G05  22964239.786   120677814.6603       3364.000          52.000  
G06  21481674.352   112886750.506        -234.000          56.000  
G11  21579156.709   113398749.828        1592.000          53.000  
G12  22711580.143   119350069.1943        278.000          50.000  
G19  20723529.055   108902368.390       -1342.000          57.000  
G25  24185558.068   127095878.0513       1760.000          46.000  
> 2024 08 26 00 11 13.3000000  0  8                     
G05  22964175.984   120677478.315        3363.455          52.000  
G06  21481679.059   112886773.967        -234.600          56.000  
G09  22443586.670   117941840.188        -144.138          52.000  
G11  21579126.830   113398590.715        1591.136          53.000  
G12  22711575.082   119350041.503         276.906          50.000  
G19  20723555.016   108902502.625       -1342.354          57.000  
G20  21048872.626   110612403.590        1800.462          54.000  
G25  24185524.829   127095702.212        1758.393          46.000  
> 2024 08 26 00 11 13.4000000  0  8                     
G05  22964112.199   120677142.001        3363.136          52.000  
G06  21481683.771   112886797.440        -234.736          57.000  
G09  22443589.641   117941854.616        -144.276          52.000  
G11  21579096.959   113398431.630        1590.844          53.000  
G12  22711570.035   119350013.832         276.709          50.000  
G19  20723580.965   108902636.880       -1342.543          57.000  
G20  21048838.941   110612223.571        1800.186          54.000  
G25  24185491.586   127095526.393        1758.179          46.000  
> 2024 08 26 00 11 13.5000000  0  8                     
G05  22964048.405   120676805.647        3363.534          52.000  
G06  21481688.474   112886820.888        -234.479          57.000  
G09  22443592.603   117941869.030        -144.145          52.000  
G11  21579067.076   113398272.504        1591.263          54.000  
G12  22711564.992   119349986.143         276.889          50.000  
G19  20723606.905   108902771.113       -1342.326          57.000  
G20  21048805.236   110612043.532        1800.392          54.000  
G25  24185458.326   127095350.519        1758.750          46.000  
> 2024 08 26 00 11 13.6000000  0  8                     
G05  22963984.616   120676469.298        3363.504          52.000  
G06  21481693.185   112886844.325        -234.373          57.000  
G09  22443595.566   117941883.434        -144.035          53.000  
G11  21579037.196   113398113.376        1591.271          54.000  
G12  22711559.948   119349958.455         276.882          50.000  
G19  20723632.871   108902905.347       -1342.334          57.000  
G20  21048771.523   110611863.477        1800.542          54.000  
G25  24185425.083   127095174.670        1758.479          46.000  
> 2024 08 26 00 11 13.7000000  0  8                     
G05  22963920.836   120676132.988        3363.094          52.000  
G06  21481697.906   112886867.812        -234.872          58.000  
G09  22443598.541   117941897.889        -144.547          53.000  
G11  21579007.317   113397954.296        1590.801          54.000  
G12  22711554.914   119349930.804         276.510          50.000  
G19  20723658.820   108903039.630       -1342.838          57.000  
G20  21048737.787   110611683.479        1799.994          54.000  
G25  24185391.859   127094998.891        1757.802          46.000  
> 2024 08 26 00 11 13.8000000  0  8                     
G05  22963857.047   120675796.653        3363.358          52.000  
G06  21481702.621   112886891.273        -234.612          58.000  
G09  22443601.494   117941912.316        -144.265          53.000  
G11  21578977.433   113397795.187        1591.102          54.000  
G12  22711549.880   119349903.141         276.632          50.000  
G19  20723684.781   108903173.874       -1342.433          57.000  
G20  21048704.030   110611503.447        1800.322          55.000  
G25  24185358.620   127094823.054        1758.375          46.000  
> 2024 08 26 00 11 13.9000000  0  8                     
G05  22963793.274   120675460.350        3363.012          52.000  
G06  21481707.338   112886914.753        -234.797          58.000  
G09  22443604.452   117941926.776        -144.608          53.000  
G11  21578947.567   113397636.108        1590.786          54.000  
G12  22711544.850   119349875.503         276.385          51.000  
G19  20723710.747   108903308.172       -1342.981          57.000  
G20  21048670.259   110611323.460        1799.862          55.000  
G25  24185325.395   127094647.261        1757.933          46.000  
> 2024 08 26 00 11 14.0000000  0  8                     
G05  22963729.489   120675124.006        3363.443          51.000  
G06  21481712.044   112886938.183        -234.296          58.000  
G09  22443607.406   117941941.206        -144.301          53.000  
G11  21578917.688   113397476.979        1591.296          54.000  
G12  22711539.802   119349847.829         276.739          51.000  
G19  20723736.709   108903442.414       -1342.425          57.000  
G20  21048636.467   110611143.415        1800.458          55.000  
G25  24185292.157   127094471.414        1758.472          46.000  
> 2024 08 26 00 11 14.1000000  0  8                     
G05  22963665.735   120674787.730        3362.768          51.000  
G06  21481716.782   112886961.698        -235.153          57.000  
G09  22443610.385   117941955.706        -145.000          53.000  
G11  21578887.827   113397317.917        1590.621          54.000  
G12  22711534.773   119349820.226         276.025          51.000  
G19  20723762.674   108903576.727       -1343.132          57.000  
G20  21048602.658   110610963.450        1799.649          55.000  
G25  24185258.936   127094295.676        1757.374          46.000  
> 2024 08 26 00 11 14.2000000  0  8                     
G05  22963336.703   120673057.471        3363.000          51.000  
G06  21481456.255   112885591.234        -234.000          57.000  
G09  22443348.104   117940576.225        -144.000          53.000  
G11  21578592.700   113395764.877        1591.000          54.000  
G12  22711264.473   119348398.665         276.000          51.000  
G19  20723523.393   108902317.076       -1343.000          58.000  
G20  21048303.569   110609389.496        1800.000          55.000  
G25  24184960.445   127092725.929        1757.000          46.000  
> 2024 08 26 00 11 14.3000000  0  8                     
G05  22963272.944   120672721.221        3362.501          52.000  
G06  21481460.992   112885614.770        -235.375          57.000  
G09  22443351.097   117940590.756        -145.316          53.000  
G11  21578562.834   113395605.834        1590.422          54.000  
G12  22711259.434   119348371.092         275.723          51.000  
G19  20723549.367   108902451.427       -1343.513          58.000  
G20  21048269.759   110609209.550        1799.448          55.000  
G25  24184927.225   127092550.200        1757.288          46.000  
> 2024 08 26 00 11 14.4000000  0  8                     
G05  22963209.189   120672384.960        3362.602          52.000  
G06  21481465.738   112885638.278        -235.076          57.000  
G09  22443354.089   117940605.270        -145.136          53.000  
G11  21578532.977   113395446.791        1590.439          54.000  
G12  22711254.404   119348343.506         275.861          51.000  
G19  20723575.350   108902585.762       -1343.347          58.000  
G20  21048235.932   110609029.603        1799.472          55.000  
G25  24184894.008   127092374.456        1757.440          45.000  
> 2024 08 26 00 11 14.5000000  0  8                     
G05  22963145.431   120672048.697        3362.629          52.000  
G06  21481470.472   112885661.781        -235.026          57.000  
G09  22443357.082   117940619.800        -145.300          52.000  
G11  21578503.115   113395287.737        1590.539          54.000  
G12  22711249.370   119348315.937         275.699          52.000  
G19  20723601.330   108902720.107       -1343.442          58.000  
G20  21048202.104   110608849.654        1799.490          55.000  
G25  24184860.787   127092198.725        1757.307          45.000  
> 2024 08 26 00 11 14.6000000  0  8                     
G05  22963081.686   120671712.421        3362.770          51.000  
G06  21481475.210   112885685.294        -235.136          57.000  
G09  22443360.066   117940634.310        -145.098          52.000  
G11  21578473.258   113395128.671        1590.659          55.000  
G12  22711244.331   119348288.358         275.783          52.000  
G19  20723627.313   108902854.438       -1343.311          58.000  
G20  21048168.247   110608669.685        1799.690          55.000  
G25  24184827.571   127092022.987        1757.392          45.000  
> 2024 08 26 00 11 14.7000000  0  8                     
G05  22963017.940   120671376.135        3362.854          51.000  
G06  21481479.948   112885708.788        -234.937          57.000  
G09  22443363.041   117940648.810        -144.999          52.000  
G11  21578443.395   113394969.584        1590.862          55.000  
G12  22711239.297   119348260.764         275.940          52.000  
G19  20723653.279   108902988.760       -1343.221          58.000  
G20  21048134.367   110608489.713        1799.724          55.000  
G25  24184794.346   127091847.216        1757.702          45.000  
> 2024 08 26 00 11 14.8000000  0  8                     
G05  22962954.189   120671039.866        3362.686          51.000  
G06  21481484.681   112885732.280        -234.927          57.000  
G09  22443366.016   117940663.345        -145.352          52.000  
G11  21578413.530   113394810.525        1590.600          55.000  
G12  22711234.254   119348233.195         275.692          52.000  
G19  20723679.259   108903123.097       -1343.369          58.000  
G20  21048100.501   110608309.760        1799.537          55.000  
G25  24184761.134   127091671.482        1757.347          45.000  
> 2024 08 26 00 11 14.9000000  0  8                     
G05  22962890.444   120670703.592        3362.744          51.000  
G06  21481489.427   112885755.769        -234.890          57.000  
G09  22443368.992   117940677.854        -145.094          52.000  
G11  21578383.668   113394651.445        1590.798          55.000  
G12  22711229.210   119348205.610         275.848          53.000  
G19  20723705.242   108903257.431       -1343.338          58.000  
G20  21048066.609   110608129.792        1799.672          55.000  
G25  24184727.926   127091495.766        1757.158          45.000  
> 2024 08 26 00 11 15.0000000  0  8                     
G05  22962826.685   120670367.286        3363.071          51.000  
G06  21481494.165   112885779.251        -234.821          57.000  
G09  22443371.967   117940692.362        -145.071          51.000  
G11  21578353.802   113394492.354        1590.908          56.000  
G12  22711224.167   119348178.022         275.879          53.000  
G19  20723731.186   108903391.754       -1343.235          58.000  
G20  21048032.707   110607949.803        1799.896          55.000  
G25  24184694.697   127091319.991        1757.750          45.000  
> 2024 08 26 00 11 15.1000000  0  8                     
G05  22962762.966   120670031.139        3361.464          51.000  
G06  21481498.942   112885802.851        -235.999          57.000  
G09  22443374.977   117940707.024        -146.624          51.000  
G11  21578323.966   113394333.391        1589.625          56.000  
G12  22711219.155   119348150.583         274.396          53.000  
G19  20723757.186   108903526.217       -1344.632          58.000  
G20  21047998.845   110607769.961        1798.424          56.000  
G25  24184661.505   127091144.393        1755.968          45.000  
> 2024 08 26 00 11 15.2000000  0  8                     
G05  22962433.959   120668300.890        3363.000          50.000  
G06  21481238.428   112884432.377        -235.000          57.000  
G09  22443112.696   117939327.567        -145.000          51.000  
G11  21578028.849   113392780.349        1591.000          56.000  
G12  22710948.855   119346729.037         276.000          53.000  
G19  20723517.904   108902266.593       -1343.000          58.000  
G20  21047699.687   110606196.038        1800.000          57.000  
G25  24184363.015   127089574.669        1757.000          45.000  
> 2024 08 26 00 11 15.3000000  0  8                     
G05  22962370.227   120667964.651        3362.389          50.000  
G06  21481243.179   112884455.912        -235.346          57.000  
G09  22443115.689   117939342.150        -145.828          51.000  
G11  21577998.992   113392621.312        1590.364          55.000  
G12  22710943.834   119346701.528         275.084          53.000  
G19  20723543.884   108902400.989       -1343.950          58.000  
G20  21047665.785   110606016.130        1799.070          57.000  
G25  24184329.803   127089399.000        1756.692          46.000  
> 2024 08 26 00 11 15.4000000  0  8                     
G05  22962306.498   120667628.416        3362.347          50.000  
G06  21481247.942   112884479.446        -235.339          57.000  
G09  22443118.677   117939356.737        -145.869          51.000  
G11  21577969.139   113392462.264        1590.482          55.000  
G12  22710938.817   119346674.019         275.086          53.000  
G19  20723569.867   108902535.376       -1343.878          57.000  
G20  21047631.888   110605836.203        1799.276          57.000  
G25  24184296.604   127089223.336        1756.639          46.000  
> 2024 08 26 00 11 15.5000000  0  8                     
G05  22962242.766   120667292.161        3362.560          50.000  
G06  21481252.702   112884502.955        -235.089          57.000  
G09  22443121.661   117939371.293        -145.559          51.000  
G11  21577939.272   113392303.215        1590.491          55.000  
G12  22710933.791   119346646.485         275.349          52.000  
G19  20723595.847   108902669.751       -1343.750          57.000  
G20  21047597.969   110605656.276        1799.267          57.000  
G25  24184263.383   127089047.607        1757.286          46.000  
> 2024 08 26 00 11 15.6000000  0  8                     
G05  22962179.051   120666955.926        3362.358          50.000  
G06  21481257.466   112884526.474        -235.193          57.000  
G09  22443124.646   117939385.873        -145.805          51.000  
G11  21577909.415   113392144.170        1590.456          55.000  
G12  22710928.770   119346618.969         275.158          52.000  
G19  20723621.830   108902804.157       -1344.047          57.000  
G20  21047564.059   110605476.357        1799.199          57.000  
G25  24184230.185   127088871.948        1756.592          46.000  
> 2024 08 26 00 11 15.7000000  0  8                     
G05  22962115.332   120666619.728        3361.972          50.000  
G06  21481262.239   112884550.030        -235.556          57.000  
G09  22443127.643   117939400.506        -146.323          51.000  
G11  21577879.562   113391985.145        1590.245          55.000  
G12  22710923.762   119346591.494         274.751          52.000  
G19  20723647.813   108902938.569       -1344.125          57.000  
G20  21047530.145   110605296.476        1798.813          57.000  
G25  24184196.986   127088696.282        1756.663          46.000  
> 2024 08 26 00 11 15.8000000  0  8                     
G05  22962051.616   120666283.533        3361.946          50.000  
G06  21481267.007   112884573.584        -235.543          57.000  
G09  22443130.635   117939415.129        -146.234          51.000  
G11  21577849.713   113391826.152        1589.923          56.000  
G12  22710918.749   119346564.041         274.526          52.000  
G19  20723673.810   108903073.022       -1344.528          57.000  
G20  21047496.226   110605116.610        1798.653          57.000  
G25  24184163.800   127088520.689        1755.933          46.000  
> 2024 08 26 00 11 15.9000000  0  8                     
G05  22961987.905   120665947.354        3361.785          50.000  
G06  21481271.780   112884597.182        -235.967          57.000  
G09  22443133.645   117939429.784        -146.552          51.000  
G11  21577819.873   113391667.166        1589.869          56.000  
G12  22710913.736   119346536.610         274.320          52.000  
G19  20723699.810   108903207.485       -1344.639          57.000  
G20  21047462.329   110604936.762        1798.478          57.000  
G25  24184130.610   127088345.067        1756.222          46.000  
> 2024 08 26 00 11 16.0000000  0  8                     
G05  22961924.200   120665611.187        3361.680          50.000  
G06  21481276.540   112884620.759        -235.769          56.000  
G09  22443136.655   117939444.454        -146.704          51.000  
G11  21577790.025   113391508.172        1589.941          56.000  
G12  22710908.720   119346509.169         274.409          52.000  
G19  20723725.807   108903341.959       -1344.738          57.000  
G20  21047428.432   110604756.909        1798.533          57.000  
G25  24184097.414   127088169.453        1756.136          46.000  
> 2024 08 26 00 11 16.1000000  0  8                     
G05  22961860.489   120665274.988        3361.990          51.000  
G06  21481281.303   112884644.318        -235.595          56.000  
G09  22443139.666   117939459.091        -146.364          51.000  
G11  21577760.176   113391349.156        1590.162          56.000  
G12  22710903.703   119346481.719         274.491          53.000  
G19  20723751.807   108903476.401       -1344.422          57.000  
G20  21047394.501   110604577.030        1798.790          57.000  
G25  24184064.224   127087993.868        1755.849          46.000  
> 2024 08 26 00 11 16.2000000  0  8                     
G05  22961531.522   120663544.844        3363.000          51.000  
G06  21481020.803   112883273.894        -235.000          56.000  
G09  22442877.406   117938079.769        -145.000          51.000  
G11  21577465.058   113389796.181        1591.000          56.000  
G12  22710633.430   119345060.312         275.000          52.000  
G19  20723512.543   108902216.891       -1343.000          57.000  
G20  21047095.320   110603003.208        1800.000          57.000  
G25  24183765.768   127086424.303        1755.000          46.000  
> 2024 08 26 00 11 16.3000000  0  8                     
G05  22961467.806   120663208.614        3362.293          52.000  
G06  21481025.571   112883297.445        -235.512          56.000  
G09  22442880.398   117938094.397        -146.284          51.000  
G11  21577435.201   113389637.154        1590.267          56.000  
G12  22710628.408   119345032.845         274.675          52.000  
G19  20723538.540   108902351.334       -1344.428          57.000  
G20  21047061.384   110602823.323        1798.841          57.000  
G25  24183732.565   127086248.615        1756.878          46.000  
> 2024 08 26 00 11 16.4000000  0  8                     
G05  22961404.095   120662872.393        3362.204          52.000  
G06  21481030.335   112883320.959        -235.138          56.000  
G09  22442883.391   117938109.017        -146.203          51.000  
G11  21577405.339   113389478.102        1590.520          56.000  
G12  22710623.400   119345005.381         274.642          52.000  
G19  20723564.523   108902485.753       -1344.201          57.000  
G20  21047027.452   110602643.421        1799.027          57.000  
G25  24183699.383   127086072.990        1756.250          46.000  
> 2024 08 26 00 11 16.5000000  0  8                     
G05  22961340.381   120662536.146        3362.478          52.000  
G06  21481035.094   112883344.459        -235.008          56.000  
G09  22442886.379   117938123.612        -145.951          52.000  
G11  21577375.473   113389319.032        1590.705          57.000  
G12  22710618.383   119344977.880         274.997          52.000  
G19  20723590.484   108902620.159       -1344.048          57.000  
G20  21046993.516   110602463.491        1799.308          57.000  
G25  24183666.189   127085897.316        1756.742          47.000  
> 2024 08 26 00 11 16.6000000  0  8                     
G05  22961276.692   120662199.973        3361.727          52.000  
G06  21481039.867   112883368.032        -235.732          56.000  
G09  22442889.385   117938138.292        -146.805          52.000  
G11  21577345.620   113389160.026        1590.056          57.000  
G12  22710613.388   119344950.469         274.115          52.000  
G19  20723616.468   108902754.641       -1344.819          58.000  
G20  21046959.601   110602283.663        1798.283          56.000  
G25  24183633.016   127085721.712        1756.041          47.000  
> 2024 08 26 00 11 16.7000000  0  8                     
G05  22961212.998   120661863.819        3361.548          52.000  
G06  21481044.639   112883391.618        -235.855          56.000  
G09  22442892.404   117938152.992        -146.993          52.000  
G11  21577315.772   113389001.049        1589.772          57.000  
G12  22710608.393   119344923.074         273.951          52.000  
G19  20723642.469   108902889.141       -1344.998          58.000  
G20  21046925.670   110602103.828        1798.344          56.000  
G25  24183599.857   127085546.158        1755.546          47.000  
> 2024 08 26 00 11 16.8000000  0  8                     
G05  22961149.309   120661527.686        3361.322          52.000  
G06  21481049.417   112883415.220        -236.015          57.000  
G09  22442895.432   117938167.714        -147.218          53.000  
G11  21577285.918   113388842.083        1589.651          57.000  
G12  22710603.406   119344895.709         273.653          52.000  
G19  20723668.483   108903023.664       -1345.230          58.000  
G20  21046891.733   110601924.025        1798.032          56.000  
G25  24183566.688   127085370.620        1755.373          47.000  
> 2024 08 26 00 11 16.9000000  0  8                     
G05  22961085.615   120661191.536        3361.499          52.000  
G06  21481054.189   112883438.808        -235.888          58.000  
G09  22442898.459   117938182.429        -147.153          53.000  
G11  21577256.070   113388683.106        1589.784          57.000  
G12  22710598.429   119344868.328         273.809          52.000  
G19  20723694.488   108903158.180       -1345.161          58.000  
G20  21046857.802   110601744.211        1798.141          57.000  
G25  24183533.524   127085195.065        1755.551          47.000  
> 2024 08 26 00 11 17.0000000  0  8                     
G05  22961021.940   120660855.459        3360.782          52.000  
G06  21481058.988   112883462.482        -236.738          58.000  
G09  22442901.500   117938197.214        -147.847          53.000  
G11  21577226.230   113388524.199        1589.070          58.000  
G12  22710593.459   119344841.028         272.990          52.000  
G19  20723720.502   108903292.772       -1345.913          59.000  
G20  21046823.887   110601564.467        1797.440          57.000  
G25  24183500.372   127085019.586        1754.786          47.000  
> 2024 08 26 00 11 17.1000000  0  8                     
G05  22960958.264   120660519.361        3360.975          52.000  
G06  21481063.778   112883486.112        -236.299          58.000  
G09  22442904.532   117938211.982        -147.685          53.000  
G11  21577196.390   113388365.262        1589.365          58.000  
G12  22710588.499   119344813.707         273.209          52.000  
G19  20723746.520   108903427.342       -1345.708          59.000  
G20  21046789.972   110601384.702        1797.639          57.000  
G25  24183467.222   127084844.089        1754.974          47.000  
> 2024 08 26 00 11 17.2000000  0  8                     
G05  22960629.324   120658789.300        3362.000          52.000  
G06  21480803.320   112882115.785        -235.000          58.000  
G09  22442642.295   117936832.793        -146.000          53.000  
G11  21576901.281   113386812.355        1591.000          57.000  
G12  22710318.283   119343392.414         274.000          52.000  
G19  20723507.273   108902167.942       -1344.000          59.000  
G20  21046490.792   110599810.966        1799.000          57.000  
G25  24183168.809   127083274.637        1757.000          48.000  
> 2024 08 26 00 11 17.3000000  0  8                     
G05  22960565.651   120658453.245        3360.538          52.000  
G06  21480808.115   112882139.460        -236.751          58.000  
G09  22442645.326   117936847.610        -148.166          53.000  
G11  21576871.441   113386653.469        1588.854          57.000  
G12  22710313.345   119343365.151         272.637          52.000  
G19  20723533.305   108902302.570       -1346.269          59.000  
G20  21046456.873   110599631.256        1797.106          57.000  
G25  24183135.658   127083099.195        1754.420          48.000  
> 2024 08 26 00 11 17.4000000  0  8                     
G05  22960501.988   120658117.167        3360.788          52.000  
G06  21480812.913   112882163.106        -236.455          59.000  
G09  22442648.358   117936862.402        -147.925          53.000  
G11  21576841.597   113386494.553        1589.158          57.000  
G12  22710308.402   119343337.858         272.927          52.000  
G19  20723559.322   108902437.158       -1345.880          59.000  
G20  21046422.959   110599451.506        1797.502          57.000  
G25  24183102.512   127082923.710        1754.851          48.000  
> 2024 08 26 00 11 17.5000000  0  8                     
G05  22960438.327   120657781.136        3360.311          52.000  
G06  21480817.717   112882186.800        -236.943          59.000  
G09  22442651.399   117936877.252        -148.497          52.000  
G11  21576811.762   113386335.670        1588.825          58.000  
G12  22710303.467   119343310.609         272.491          52.000  
G19  20723585.358   108902571.792       -1346.355          59.000  
G20  21046389.040   110599271.803        1797.037          57.000  
G25  24183069.382   127082748.286        1754.250          48.000  
> 2024 08 26 00 11 17.6000000  0  8                     
G05  22960374.664   120657445.063        3360.730          52.000  
G06  21480822.516   112882210.470        -236.700          59.000  
G09  22442654.444   117936892.070        -148.175          52.000  
G11  21576781.930   113386176.771        1589.000          57.000  
G12  22710298.533   119343283.352         272.570          52.000  
G19  20723611.394   108902706.423       -1346.299          59.000  
G20  21046355.130   110599092.081        1797.216          57.000  
G25  24183036.254   127082572.857        1754.293          48.000  
> 2024 08 26 00 11 17.7000000  0  8                     
G05  22960311.013   120657109.061        3360.010          52.000  
G06  21480827.336   112882234.188        -237.175          59.000  
G09  22442657.502   117936906.943        -148.735          52.000  
G11  21576752.099   113386017.909        1588.610          57.000  
G12  22710293.603   119343256.129         272.217          52.000  
G19  20723637.430   108902841.081       -1346.585          59.000  
G20  21046321.216   110598912.417        1796.644          57.000  
G25  24183003.129   127082397.441        1754.157          49.000  
> 2024 08 26 00 11 17.8000000  0  8                     
G05  22960247.359   120656773.067        3359.948          52.000  
G06  21480832.148   112882257.913        -237.252          59.000  
G09  22442660.556   117936921.845        -149.023          52.000  
G11  21576722.277   113385859.068        1588.419          57.000  
G12  22710288.674   119343228.942         271.880          51.000  
G19  20723663.462   108902975.775       -1346.930          59.000  
G20  21046287.297   110598732.752        1796.644          57.000  
G25  24182970.004   127082222.094        1753.466          49.000  
> 2024 08 26 00 11 17.9000000  0  8                     
G05  22960183.705   120656437.043        3360.241          52.000  
G06  21480836.972   112882281.609        -236.963          59.000  
G09  22442663.601   117936936.700        -148.551          52.000  
G11  21576692.441   113385700.194        1588.731          57.000  
G12  22710283.739   119343201.706         272.350          51.000  
G19  20723689.502   108903110.426       -1346.509          58.000  
G20  21046253.365   110598553.070        1796.826          57.000  
G25  24182936.879   127082046.681        1754.136          49.000  
> 2024 08 26 00 11 18.0000000  0  8                     
G05  22960120.052   120656101.038        3360.054          51.000  
G06  21480841.797   112882305.327        -237.174          59.000  
G09  22442666.646   117936951.599        -148.991          52.000  
G11  21576662.609   113385541.337        1588.575          57.000  
G12  22710278.805   119343174.517         271.905          51.000  
G19  20723715.533   108903245.123       -1346.968          58.000  
G20  21046219.446   110598373.404        1796.648          57.000  
G25  24182903.754   127081871.298        1753.819          49.000  
> 2024 08 26 00 11 18.1000000  0  8                     
G05  22960056.406   120655765.043        3359.952          51.000  
G06  21480846.623   112882329.059        -237.323          59.000  
G09  22442669.696   117936966.486        -148.863          52.000  
G11  21576632.783   113385382.490        1588.467          57.000  
G12  22710273.876   119343147.331         271.849          51.000  
G19  20723741.569   108903379.816       -1346.933          58.000  
G20  21046185.535   110598193.742        1796.628          57.000  
G25  24182870.637   127081695.921        1753.766          49.000  
> 2024 08 26 00 11 18.2000000  0  8                     
G05  22959727.500   120654035.077        3360.000          51.000  
G06  21480586.174   112880958.802        -237.000          59.000  
G09  22442407.485   117935587.418        -149.000          52.000  
G11  21576337.695   113383829.671        1589.000          57.000  
G12  22710003.677   119341726.176         272.000          51.000  
G19  20723502.339   108902120.537       -1347.000          58.000  
G20  21045886.356   110596620.106        1797.000          57.000  
G25  24182572.252   127080126.598        1754.000          49.000  
> 2024 08 26 00 11 18.3000000  0  8                     
G05  22959663.859   120653699.106        3359.713          51.000  
G06  21480590.994   112880982.547        -237.450          59.000  
G09  22442410.542   117935602.364        -149.466          52.000  
G11  21576307.873   113383670.846        1588.253          58.000  
G12  22709998.751   119341699.030         271.463          52.000  
G19  20723528.392   108902255.274       -1347.365          58.000  
G20  21045852.437   110596440.487        1796.202          57.000  
G25  24182539.136   127079951.265        1753.335          48.000  
> 2024 08 26 00 11 18.4000000  0  8                     
G05  22959600.201   120653363.042        3360.647          51.000  
G06  21480595.806   112881006.185        -236.386          59.000  
G09  22442413.584   117935617.207        -148.421          52.000  
G11  21576278.033   113383511.915        1589.307          58.000  
G12  22709993.813   119341671.779         272.518          52.000  
G19  20723554.428   108902389.900       -1346.259          58.000  
G20  21045818.505   110596260.763        1797.237          57.000  
G25  24182506.020   127079775.849        1754.166          48.000  
> 2024 08 26 00 11 18.5000000  0  8                     
G05  22959536.569   120653027.085        3359.572          51.000  
G06  21480600.635   112881029.935        -237.496          59.000  
G09  22442416.641   117935632.144        -149.374          52.000  
G11  21576248.220   113383353.096        1588.184          58.000  
G12  22709988.892   119341644.645         271.341          52.000  
G19  20723580.476   108902524.639       -1347.392          58.000  
G20  21045784.586   110596081.138        1796.256          57.000  
G25  24182472.913   127079600.526        1753.237          48.000  
> 2024 08 26 00 11 18.6000000  0  8                     
G05  22959472.919   120652691.052        3360.329          51.000  
G06  21480605.461   112881053.620        -236.851          59.000  
G09  22442419.691   117935647.026        -148.814          52.000  
G11  21576218.389   113383194.204        1588.924          58.000  
G12  22709983.967   119341617.437         272.075          52.000  
G19  20723606.517   108902659.307       -1346.677          58.000  
G20  21045750.655   110595901.452        1796.858          57.000  
G25  24182439.805   127079425.145        1753.804          48.000  
> 2024 08 26 00 11 18.7000000  0  8                     
G05  22959409.291   120652355.101        3359.505          51.000  
G06  21480610.307   112881077.376        -237.564          58.000  
G09  22442422.758   117935662.002        -149.760          52.000  
G11  21576188.570   113383035.395        1588.086          57.000  
G12  22709979.059   119341590.329         271.085          52.000  
G19  20723632.570   108902794.061       -1347.548          58.000  
G20  21045716.741   110595721.834        1796.178          57.000  
G25  24182406.702   127079249.828        1753.166          48.000  
> 2024 08 26 00 11 18.8000000  0  8                     
G05  22959345.637   120652019.057        3360.433          51.000  
G06  21480615.119   112881101.044        -236.678          58.000  
G09  22442425.795   117935676.871        -148.693          52.000  
G11  21576158.735   113382876.489        1589.064          57.000  
G12  22709974.129   119341563.103         272.253          52.000  
G19  20723658.602   108902928.723       -1346.616          58.000  
G20  21045682.804   110595542.136        1796.979          57.000  
G25  24182373.582   127079074.422        1754.069          48.000  
> 2024 08 26 00 11 18.9000000  0  8                     
G05  22959282.027   120651683.163        3358.945          51.000  
G06  21480619.961   112881124.858        -238.144          58.000  
G09  22442428.862   117935691.907        -150.351          52.000  
G11  21576128.926   113382717.724        1587.644          57.000  
G12  22709969.239   119341536.050         270.528          52.000  
G19  20723684.677   108903063.541       -1348.179          58.000  
G20  21045648.911   110595362.592        1795.444          57.000  
G25  24182340.500   127078899.167        1752.543          48.000  
> 2024 08 26 00 11 19.0000000  0  8                     
G05  22959218.391   120651347.176        3359.879          51.000  
G06  21480624.787   112881148.570        -237.107          58.000  
G09  22442431.915   117935706.831        -149.238          52.000  
G11  21576099.094   113382558.867        1588.572          57.000  
G12  22709964.322   119341508.900         271.501          52.000  
G19  20723710.725   108903198.266       -1347.251          58.000  
G20  21045614.992   110595182.945        1796.463          57.000  
G25  24182307.401   127078723.850        1753.158          48.000  
> 2024 08 26 00 11 19.1000000  0  8                     
G05  22959154.762   120651011.194        3359.818          51.000  
G06  21480629.612   112881172.303        -237.331          58.000  
G09  22442434.987   117935721.800        -149.697          52.000  
G11  21576069.272   113382400.024        1588.431          57.000  
G12  22709959.418   119341481.769         271.313          52.000  
G19  20723736.783   108903333.012       -1347.459          58.000  
G20  21045581.077   110595003.318        1796.268          57.000  
G25  24182274.311   127078548.537        1753.140          48.000  
> 2024 08 26 00 11 19.2000000  0  8                     
G05  22958825.856   120649281.184        3360.000          51.000  
G06  21480369.171   112879801.997        -237.000          58.000  
G09  22442172.779   117934342.700        -150.000          52.000  
G11  21575774.175   113380847.141        1588.000          57.000  
G12  22709689.245   119340060.601         271.000          52.000  
G19  20723497.553   108902073.710       -1348.000          58.000  
G20  21045281.881   110593429.652        1796.000          57.000  
G25  24181975.934   127076979.154        1754.000          48.000  
> 2024 08 26 00 11 19.3000000  0  8                     
G05  22958762.232   120648945.255        3359.297          51.000  
G06  21480374.014   112879825.757        -237.593          58.000  
G09  22442175.864   117934357.726        -150.258          52.000  
G11  21575744.353   113380688.332        1588.094          57.000  
G12  22709684.359   119340033.529         270.722          52.000  
G19  20723523.602   108902208.503       -1347.932          57.000  
G20  21045247.962   110593250.055        1795.976          57.000  
G25  24181942.849   127076803.898        1752.559          48.000  
> 2024 08 26 00 11 19.4000000  0  8                     
G05  22958698.610   120648609.308        3359.472          51.000  
G06  21480378.865   112879849.520        -237.637          58.000  
G09  22442178.944   117934372.706        -149.802          52.000  
G11  21575714.539   113380529.514        1588.182          57.000  
G12  22709679.478   119340006.431         270.979          52.000  
G19  20723549.655   108902343.284       -1347.805          57.000  
G20  21045214.069   110593070.478        1795.776          57.000  
G25  24181909.776   127076628.623        1752.752          48.000  
> 2024 08 26 00 11 19.5000000  0  8                     
G05  22958634.995   120648273.351        3359.569          51.000  
G06  21480383.699   112879873.244        -237.232          58.000  
G09  22442182.019   117934387.690        -149.844          52.000  
G11  21575684.718   113380370.677        1588.366          57.000  
G12  22709674.587   119339979.334         270.977          52.000  
G19  20723575.708   108902478.034       -1347.504          57.000  
G20  21045180.151   110592890.858        1796.195          57.000  
G25  24181876.687   127076453.327        1752.967          48.000  
> 2024 08 26 00 11 19.6000000  0  8                     
G05  22958571.393   120647937.443        3359.091          51.000  
G06  21480388.541   112879897.024        -237.798          58.000  
G09  22442185.108   117934402.723        -150.329          52.000  
G11  21575654.908   113380211.881        1587.962          57.000  
G12  22709669.710   119339952.275         270.583          52.000  
G19  20723601.780   108902612.858       -1348.234          57.000  
G20  21045146.254   110592711.288        1795.704          57.000  
G25  24181843.623   127076278.101        1752.260          49.000  
> 2024 08 26 00 11 19.7000000  0  8                     
G05  22958507.778   120647601.516        3359.251          51.000  
G06  21480393.384   112879920.796        -237.720          59.000  
G09  22442188.197   117934417.742        -150.189          52.000  
G11  21575625.099   113380053.082        1587.981          57.000  
G12  22709664.837   119339925.224         270.510          52.000  
G19  20723627.855   108902747.662       -1348.037          57.000  
G20  21045112.357   110592531.731        1795.570          57.000  
G25  24181810.559   127076102.849        1752.519          49.000  
> 2024 08 26 00 11 19.8000000  0  8                     
G05  22958444.172   120647265.615        3359.019          51.000  
G06  21480398.235   112879944.586        -237.898          59.000  
G09  22442191.290   117934432.802        -150.596          52.000  
G11  21575595.281   113379894.299        1587.839          57.000  
G12  22709659.960   119339898.184         270.402          52.000  
G19  20723653.921   108902882.489       -1348.279          57.000  
G20  21045078.460   110592352.175        1795.563          57.000  
G25  24181777.487   127075927.625        1752.242          49.000  
> 2024 08 26 00 11 19.9000000  0  8                     
G05  22958380.579   120646929.782        3358.330          52.000  
G06  21480403.095   112879968.440        -238.542          59.000  
G09  22442194.400   117934447.918        -151.168          52.000  
G11  21575565.480   113379735.585        1587.134          56.000  
G12  22709655.108   119339871.231         269.525          52.000  
G19  20723680.013   108903017.393       -1349.036          57.000  
G20  21045044.579   110592172.697        1794.773          57.000  
G25  24181744.440   127075752.487        1751.369          49.000  
> 2024 08 26 00 11 20.0000000  0  8                     
G05  22958316.978   120646593.932        3358.504          52.000  
G06  21480407.964   112879992.286        -238.455          58.000  
G09  22442197.511   117934463.012        -150.943          51.000  
G11  21575535.679   113379576.848        1587.364          56.000  
G12  22709650.249   119339844.247         269.845          52.000  
G19  20723706.080   108903152.280       -1348.867          57.000  
G20  21045010.695   110591993.202        1794.943          57.000  
G25  24181711.381   127075577.312        1751.757          49.000  
> 2024 08 26 00 11 20.1000000  0  8                     
G05  22958253.393   120646258.118        3358.131          52.000  
G06  21480412.833   112880016.140        -238.548          58.000  
G09  22442200.639   117934478.170        -151.583          51.000  
G11  21575505.892   113379418.145        1587.036          56.000  
G12  22709645.402   119339817.312         269.341          52.000  
G19  20723732.172   108903287.202       -1349.225          57.000  
G20  21044976.820   110591813.731        1794.711          57.000  
G25  24181678.343   127075402.178        1751.333          49.000  
> 2024 08 26 00 11 20.2000000  0  8                     
G05  22957924.526   120644528.246        3358.000          51.000  
G06  21480152.432   112878645.969        -239.000          58.000  
G09  22441938.484   117933099.252        -151.000          51.000  
G11  21575210.817   113377865.375        1587.000          56.000  
G12  22709375.277   119338396.318         270.000          52.000  
G19  20723492.977   108902028.067       -1349.000          56.000  
G20  21044677.658   110590240.222        1795.000          57.000  
G25  24181380.022   127073832.999        1752.000          49.000  
> 2024 08 26 00 11 20.3000000  0  8                     
G05  22957860.937   120644192.461        3357.854          51.000  
G06  21480157.296   112878669.862        -238.928          58.000  
G09  22441941.612   117933114.431        -151.789          51.000  
G11  21575181.029   113377706.703        1586.716          56.000  
G12  22709370.439   119338369.420         268.980          52.000  
G19  20723519.065   108902163.032       -1349.645          56.000  
G20  21044643.774   110590060.789        1794.340          57.000  
G25  24181346.989   127073657.896        1751.032          49.000  
> 2024 08 26 00 11 20.4000000  0  8                     
G05  22957797.341   120643856.595        3358.658          51.000  
G06  21480162.151   112878693.684        -238.219          58.000  
G09  22441944.732   117933129.550        -151.195          51.000  
G11  21575151.233   113377547.959        1587.436          56.000  
G12  22709365.588   119338342.445         269.738          52.000  
G19  20723545.135   108902297.914       -1348.827          56.000  
G20  21044609.882   110589881.288        1795.014          57.000  
G25  24181313.938   127073482.721        1751.757          49.000  
> 2024 08 26 00 11 20.5000000  0  8                     
G05  22957733.743   120643520.768        3358.276          51.000  
G06  21480167.016   112878717.532        -238.472          58.000  
G09  22441947.850   117933144.665        -151.154          51.000  
G11  21575121.424   113377389.220        1587.394          56.000  
G12  22709360.741   119338315.496         269.497          53.000  
G19  20723571.224   108902432.823       -1349.085          56.000  
G20  21044576.015   110589701.800        1794.876          57.000  
G25  24181280.897   127073307.580        1751.408          49.000  
> 2024 08 26 00 11 20.6000000  0  8                     
G05  22957670.141   120643184.854        3359.130          51.000  
G06  21480171.871   112878741.293        -237.611          58.000  
G09  22441950.966   117933159.745        -150.801          51.000  
G11  21575091.615   113377230.416        1588.040          56.000  
G12  22709355.885   119338288.475         270.209          53.000  
G19  20723597.295   108902567.659       -1348.365          56.000  
G20  21044542.140   110589522.254        1795.465          57.000  
G25  24181247.851   127073132.371        1752.088          49.000  
> 2024 08 26 00 11 20.7000000  0  8                     
G05  22957606.557   120642849.033        3358.203          51.000  
G06  21480176.753   112878765.147        -238.542          58.000  
G09  22441954.102   117933174.901        -151.558          51.000  
G11  21575061.827   113377071.691        1587.249          56.000  
G12  22709351.047   119338261.555         269.199          53.000  
G19  20723623.387   108902702.596       -1349.366          57.000  
G20  21044508.278   110589342.784        1794.694          57.000  
G25  24181214.822   127072957.251        1751.196          49.000  
> 2024 08 26 00 11 20.8000000  0  8                     
G05  22957542.965   120642513.176        3358.583          51.000  
G06  21480181.617   112878788.968        -238.213          58.000  
G09  22441957.234   117933190.015        -151.140          51.000  
G11  21575032.022   113376912.936        1587.546          56.000  
G12  22709346.209   119338234.594         269.613          53.000  
G19  20723649.471   108902837.493       -1348.978          57.000  
G20  21044474.394   110589163.302        1794.821          57.000  
G25  24181181.780   127072782.098        1751.541          49.000  
> 2024 08 26 00 11 20.9000000  0  8                     
G05  22957479.380   120642177.350        3358.261          51.000  
G06  21480186.498   112878812.813        -238.452          58.000  
G09  22441960.384   117933205.171        -151.562          51.000  
G11  21575002.226   113376754.212        1587.242          56.000  
G12  22709341.380   119338207.676         269.183          53.000  
G19  20723675.563   108902972.420       -1349.265          57.000  
G20  21044440.535   110588983.822        1794.791          57.000  
G25  24181148.750   127072606.975        1751.215          50.000  
> 2024 08 26 00 11 21.0000000  0  8                     
G05  22957415.783   120641841.474        3358.754          51.000  
G06  21480191.363   112878836.602        -237.885          58.000  
G09  22441963.516   117933220.289        -151.175          51.000  
G11  21574972.413   113376595.421        1587.911          56.000  
G12  22709336.542   119338180.703         269.722          53.000  
G19  20723701.630   108903107.290       -1348.703          57.000  
G20  21044406.652   110588804.301        1795.214          57.000  
G25  24181115.708   127072431.797        1751.786          50.000  
> 2024 08 26 00 11 21.1000000  0  8                     
G05  22957352.216   120641505.718        3357.557          51.000  
G06  21480196.253   112878860.514        -239.124          58.000  
G09  22441966.671   117933235.510        -152.209          51.000  
G11  21574942.638   113376436.759        1586.611          56.000  
G12  22709331.730   119338153.848         268.553          53.000  
G19  20723727.740   108903242.300       -1350.096          57.000  
G20  21044372.811   110588624.912        1793.896          57.000  
G25  24181082.706   127072256.753        1750.432          50.000  
> 2024 08 26 00 11 21.2000000  0  8                     
G05  22957023.353   120639775.855        3358.000          51.000  
G06  21479935.857   112877490.323        -239.000          58.000  
G09  22441704.546   117931856.662        -152.000          51.000  
G11  21574647.572   113374884.004        1587.000          56.000  
G12  22709061.640   119336732.909         268.999          53.000  
G19  20723488.544   108901983.204       -1350.000          57.000  
G20  21044073.667   110587051.425        1795.000          57.000  
G25  24180784.412   127070687.616        1752.000          50.000  
> 2024 08 26 00 11 21.3000000  0  8                     
G05  22956959.773   120639440.028        3358.269          51.000  
G06  21479940.734   112877514.155        -238.322          57.000  
G09  22441707.691   117931871.815        -151.537          51.000  
G11  21574617.771   113374725.254        1587.511          56.000  
G12  22709056.823   119336705.989         269.199          53.000  
G19  20723514.632   108902118.144       -1349.402          57.000  
G20  21044039.804   110586871.936        1794.884          57.000  
G25  24180751.387   127070512.482        1751.345          50.000  
> 2024 08 26 00 11 21.4000000  0  8                     
G05  22956896.190   120639104.170        3358.578          51.000  
G06  21479945.607   112877537.968        -238.127          57.000  
G09  22441710.837   117931886.947        -151.323          51.000  
G11  21574587.975   113374566.483        1587.704          56.000  
G12  22709051.990   119336679.057         269.320          53.000  
G19  20723540.721   108902253.059       -1349.148          57.000  
G20  21044005.943   110586692.465        1794.715          57.000  
G25  24180718.368   127070337.349        1751.333          50.000  
> 2024 08 26 00 11 21.5000000  0  8                     
G05  22956832.627   120638768.401        3357.690          51.000  
G06  21479950.498   112877561.847        -238.791          57.000  
G09  22441714.000   117931902.185        -152.375          51.000  
G11  21574558.187   113374407.798        1586.857          56.000  
G12  22709047.174   119336652.201         268.564          53.000  
G19  20723566.809   108902388.043       -1349.842          57.000  
G20  21043972.081   110586513.040        1794.244          57.000  
G25  24180685.360   127070162.299        1750.503          50.000  
> 2024 08 26 00 11 21.6000000  0  8                     
G05  22956769.051   120638432.554        3358.475          51.000  
G06  21479955.379   112877585.665        -238.182          57.000  
G09  22441717.162   117931917.347        -151.624          51.000  
G11  21574528.387   113374249.046        1587.509          56.000  
G12  22709042.348   119336625.297         269.035          52.000  
G19  20723592.902   108902522.986       -1349.426          56.000  
G20  21043938.219   110586333.562        1794.774          57.000  
G25  24180652.349   127069987.212        1750.867          50.000  
> 2024 08 26 00 11 21.7000000  0  8                     
G05  22956705.484   120638096.767        3357.865          51.000  
G06  21479960.269   112877609.547        -238.817          57.000  
G09  22441720.334   117931932.561        -152.145          51.000  
G11  21574498.604   113374090.346        1587.012          56.000  
G12  22709037.537   119336598.432         268.656          52.000  
G19  20723618.990   108902657.963       -1349.776          56.000  
G20  21043904.356   110586154.152        1794.113          57.000  
G25  24180619.347   127069812.153        1750.594          50.000  
> 2024 08 26 00 11 21.8000000  0  8                     
G05  22956641.901   120637760.943        3358.241          51.000  
G06  21479965.134   112877633.359        -238.127          57.000  
G09  22441723.501   117931947.757        -151.954          51.000  
G11  21574468.808   113373931.596        1587.500          56.000  
G12  22709032.707   119336571.534         268.983          52.000  
G19  20723645.078   108902792.922       -1349.588          57.000  
G20  21043870.494   110585974.688        1794.626          57.000  
G25  24180586.331   127069637.045        1751.081          50.000  
> 2024 08 26 00 11 21.9000000  0  8                     
G05  22956578.334   120637425.145        3357.984          51.000  
G06  21479970.024   112877657.234        -238.747          57.000  
G09  22441726.673   117931962.958        -152.013          51.000  
G11  21574439.025   113373772.880        1587.153          56.000  
G12  22709027.896   119336544.679         268.543          52.000  
G19  20723671.166   108902927.904       -1349.825          57.000  
G20  21043836.632   110585795.260        1794.284          57.000  
G25  24180553.336   127069461.997        1750.472          50.000  
> 2024 08 26 00 11 22.0000000  0  8                     
G05  22956514.762   120637089.330        3358.146          51.000  
G06  21479974.888   112877681.056        -238.215          57.000  
G09  22441729.840   117931978.165        -152.070          51.000  
G11  21574409.237   113373614.125        1587.552          56.000  
G12  22709023.066   119336517.796         268.842          52.000  
G19  20723697.254   108903062.847       -1349.427          58.000  
G20  21043802.769   110585615.805        1794.547          57.000  
G25  24180520.329   127069286.900        1750.971          50.000  
> 2024 08 26 00 11 22.1000000  0  8                     
G05  22956451.186   120636753.500        3358.297          51.000  
G06  21479979.778   112877704.895        -238.392          57.000  
G09  22441733.012   117931993.360        -151.950          51.000  
G11  21574379.446   113373455.392        1587.330          56.000  
G12  22709018.254   119336490.920         268.752          52.000  
G19  20723723.342   108903197.819       -1349.719          58.000  
G20  21043768.907   110585436.348        1794.576          57.000  
G25  24180487.326   127069111.814        1750.857          50.000  
> 2024 08 26 00 11 22.2000000  0  8                     
G05  22956122.363   120635023.765        3359.000          51.000  
G06  21479719.413   112876334.802        -238.000          57.000  
G09  22441470.931   117930614.646        -152.000          51.000  
G11  21574084.397   113371902.725        1588.000          56.000  
G12  22708748.182   119335070.123         268.999          52.000  
G19  20723484.186   108901938.867       -1350.000          59.000  
G20  21043469.802   110583862.991        1795.000          57.000  
G25  24180189.067   127067542.818        1751.000          50.000  
> 2024 08 26 00 11 22.3000000  0  8                     
G05  22956058.793   120634687.979        3357.869          51.000  
G06  21479724.294   112876358.658        -238.564          57.000  
G09  22441474.116   117930629.881        -152.349          51.000  
G11  21574054.609   113371744.015        1587.100          56.000  
G12  22708743.365   119335043.280         268.425          52.000  
G19  20723510.292   108902073.873       -1350.059          59.000  
G20  21043435.936   110583683.564        1794.267          57.000  
G25  24180156.073   127067367.787        1750.314          50.000  
> 2024 08 26 00 11 22.4000000  0  8                     
G05  22955995.226   120634352.194        3357.850          51.000  
G06  21479729.185   112876382.524        -238.662          57.000  
G09  22441477.309   117930645.133        -152.515          51.000  
G11  21574024.826   113371585.301        1587.138          56.000  
G12  22708738.562   119335016.457         268.240          52.000  
G19  20723536.398   108902208.876       -1350.031          59.000  
G20  21043402.078   110583504.157        1794.071          57.000  
G25  24180123.080   127067192.765        1750.223          50.000  
> 2024 08 26 00 11 22.5000000  0  8                     
G05  22955931.650   120634016.405        3357.879          51.000  
G06  21479734.058   112876406.388        -238.642          57.000  
G09  22441480.503   117930660.381        -152.480          51.000  
G11  21573995.038   113371426.579        1587.227          56.000  
G12  22708733.759   119334989.625         268.309          52.000  
G19  20723562.503   108902343.893       -1350.172          59.000  
G20  21043368.211   110583324.747        1794.098          57.000  
G25  24180090.081   127067017.725        1750.398          50.000  
> 2024 08 26 00 11 22.6000000  0  8                     
G05  22955868.101   120633680.677        3357.281          51.000  
G06  21479738.948   112876430.304        -239.165          57.000  
G09  22441483.705   117930675.681        -153.006          51.000  
G11  21573965.264   113371267.922        1586.567          56.000  
G12  22708728.973   119334962.855         267.709          52.000  
G19  20723588.612   108902478.962       -1350.708          59.000  
G20  21043334.371   110583145.392        1793.552          57.000  
G25  24180057.104   127066842.749        1749.755          50.000  
> 2024 08 26 00 11 22.7000000  0  8                     
G05  22955804.551   120633344.916        3357.611          51.000  
G06  21479743.839   112876454.192        -238.868          57.000  
G09  22441486.907   117930690.980        -152.984          51.000  
G11  21573935.485   113371109.238        1586.836          56.000  
G12  22708724.183   119334936.069         267.867          52.000  
G19  20723614.719   108902613.994       -1350.307          59.000  
G20  21043300.526   110582966.011        1793.812          57.000  
G25  24180024.119   127066667.734        1750.149          50.000  
> 2024 08 26 00 11 22.8000000  0  8                     
G05  22955740.998   120633009.181        3357.357          51.000  
G06  21479748.729   112876478.074        -238.827          57.000  
G09  22441490.100   117930706.266        -152.861          51.000  
G11  21573905.703   113370950.549        1586.896          56.000  
G12  22708719.393   119334909.279         267.891          52.000  
G19  20723640.824   108902749.058       -1350.638          59.000  
G20  21043266.681   110582786.635        1793.750          57.000  
G25  24179991.139   127066492.763        1749.709          49.000  
> 2024 08 26 00 11 22.9000000  0  8                     
G05  22955677.449   120632673.437        3357.434          51.000  
G06  21479753.628   112876501.964        -238.899          57.000  
G09  22441493.294   117930721.550        -152.834          51.000  
G11  21573875.924   113370791.868        1586.805          55.000  
G12  22708714.616   119334882.507         267.727          52.000  
G19  20723666.930   108902884.109       -1350.507          59.000  
G20  21043232.859   110582607.265        1793.705          56.000  
G25  24179958.166   127066317.772        1749.908          49.000  
> 2024 08 26 00 11 23.0000000  0  8                     
G05  22955613.903   120632337.744        3356.929          51.000  
G06  21479758.540   112876525.922        -239.584          57.000  
G09  22441496.504   117930736.920        -153.708          51.000  
G11  21573846.154   113370633.243        1586.247          55.000  
G12  22708709.852   119334855.787         267.198          52.000  
G19  20723693.053   108903019.224       -1351.158          59.000  
G20  21043199.027   110582427.952        1793.125          56.000  
G25  24179925.185   127066142.845        1749.268          49.000  
> 2024 08 26 00 11 23.1000000  0  8                     
G05  22955550.363   120632002.028        3357.158          51.000  
G06  21479763.448   112876549.845        -239.232          57.000  
G09  22441499.715   117930752.257        -153.364          50.000  
G11  21573816.379   113370474.585        1586.583          55.000  
G12  22708705.092   119334829.051         267.361          52.000  
G19  20723719.180   108903154.320       -1350.956          59.000  
G20  21043165.204   110582248.623        1793.299          56.000  
G25  24179892.217   127065967.913        1749.326          49.000  
> 2024 08 26 00 11 23.2000000  0  8                     
G05  22955221.557   120630272.335        3357.000          51.000  
G06  21479503.087   112875179.796        -239.000          57.000  
G09  22441237.674   117929373.626        -153.000          50.000  
G11  21573521.340   113368921.948        1587.000          55.000  
G12  22708435.063   119333408.352         268.000          52.000  
G19  20723480.042   108901895.448       -1351.000          58.000  
G20  21042866.116   110580675.323        1793.000          56.000  
G25  24179593.984   127064399.007        1750.000          49.000  
> 2024 08 26 00 11 23.3000000  0  8                     
G05  22955158.021   120629936.664        3356.705          51.000  
G06  21479507.990   112875203.749        -239.537          57.000  
G09  22441240.898   117929389.014        -153.881          50.000  
G11  21573491.574   113368763.344        1586.032          55.000  
G12  22708430.300   119333381.658         266.943          52.000  
G19  20723506.160   108902030.588       -1351.395          58.000  
G20  21042832.285   110580496.009        1793.139          56.000  
G25  24179561.025   127064224.094        1749.136          49.000  
> 2024 08 26 00 11 23.4000000  0  8                     
G05  22955094.481   120629600.972        3356.921          51.000  
G06  21479512.898   112875227.682        -239.334          57.000  
G09  22441244.117   117929404.370        -153.564          50.000  
G11  21573461.795   113368604.693        1586.515          55.000  
G12  22708425.540   119333354.945         267.124          52.000  
G19  20723532.288   108902165.704       -1351.163          58.000  
G20  21042798.479   110580316.703        1793.062          56.000  
G25  24179528.058   127064049.176        1749.186          49.000  
> 2024 08 26 00 11 23.5000000  0  8                     
G05  22955030.957   120629265.309        3356.625          51.000  
G06  21479517.802   112875251.646        -239.628          57.000  
G09  22441247.346   117929419.759        -153.887          50.000  
G11  21573432.020   113368446.083        1586.102          55.000  
G12  22708420.785   119333328.278         266.671          52.000  
G19  20723558.411   108902300.856       -1351.522          58.000  
G20  21042764.670   110580137.425        1792.777          56.000  
G25  24179495.094   127063874.302        1748.745          49.000  
> 2024 08 26 00 11 23.6000000  0  8                     
G05  22954967.425   120628929.616        3356.928          51.000  
G06  21479522.715   112875275.597        -239.506          57.000  
G09  22441250.574   117929435.154        -153.940          50.000  
G11  21573402.246   113368287.454        1586.292          55.000  
G12  22708416.025   119333301.581         266.967          52.000  
G19  20723584.538   108902435.992       -1351.354          58.000  
G20  21042730.842   110579958.109        1793.164          56.000  
G25  24179462.148   127063699.397        1749.050          49.000  
> 2024 08 26 00 11 23.7000000  0  8                     
G05  22954903.903   120628593.981        3356.355          51.000  
G06  21479527.640   112875299.584        -239.880          57.000  
G09  22441253.812   117929450.598        -154.445          50.000  
G11  21573372.480   113368128.860        1585.932          55.000  
G12  22708411.279   119333274.942         266.390          52.000  
G19  20723610.679   108902571.187       -1351.951          59.000  
G20  21042697.036   110579778.856        1792.524          56.000  
G25  24179429.207   127063524.529        1748.673          49.000  
> 2024 08 26 00 11 23.8000000  0  8                     
G05  22954840.375   120628258.331        3356.500          51.000  
G06  21479532.560   112875323.549        -239.642          57.000  
G09  22441257.031   117929465.992        -153.934          50.000  
G11  21573342.706   113367970.246        1586.147          55.000  
G12  22708406.524   119333248.290         266.523          52.000  
G19  20723636.802   108902706.348       -1351.617          59.000  
G20  21042663.227   110579599.582        1792.733          56.000  
G25  24179396.264   127063349.663        1748.651          49.000  
> 2024 08 26 00 11 23.9000000  0  8                     
G05  22954776.861   120627922.725        3356.065          51.000  
G06  21479537.494   112875347.569        -240.201          56.000  
G09  22441260.282   117929481.480        -154.875          50.000  
G11  21573312.954   113367811.697        1585.487          55.000  
G12  22708401.782   119333221.680         266.097          52.000  
G19  20723662.947   108902841.575       -1352.269          59.000  
G20  21042629.421   110579420.356        1792.257          56.000  
G25  24179363.331   127063174.855        1748.079          50.000  
> 2024 08 26 00 11 24.0000000  0  8                     
G05  22954713.341   120627587.135        3355.887          51.000  
G06  21479542.424   112875371.591        -240.217          56.000  
G09  22441263.532   117929496.965        -154.862          50.000  
G11  21573283.183   113367653.147        1585.497          55.000  
G12  22708397.044   119333195.104         265.763          52.000  
G19  20723689.087   108902976.806       -1352.302          59.000  
G20  21042595.629   110579241.145        1792.123          56.000  
G25  24179330.394   127063000.077        1747.783          50.000  
> 2024 08 26 00 11 24.1000000  0  8                     
G05  22954649.818   120627251.493        3356.425          51.000  
G06  21479547.350   112875395.576        -239.856          56.000  
G09  22441266.778   117929512.400        -154.340          50.000  
G11  21573253.409   113367494.541        1586.064          55.000  
G12  22708392.302   119333168.470         266.343          52.000  
G19  20723715.232   108903111.992       -1351.864          59.000  
G20  21042561.819   110579061.891        1792.539          56.000  
G25  24179297.465   127062825.222        1748.565          50.000  
> 2024 08 26 00 11 24.2000000  0  8                     
G05  22954321.030   120625521.859        3357.000          51.000  
G06  21479287.005   112874025.574        -240.000          56.000  
G09  22441004.762   117928133.870        -154.000          51.000  
G11  21572958.374   113365941.971        1587.000          55.000  
G12  22708122.295   119331747.855         267.000          52.000  
G19  20723476.107   108901853.213       -1351.000          59.000  
G20  21042262.749   110577488.643        1793.000          56.000  
G25  24178999.268   127061256.389        1750.000          50.000  
> 2024 08 26 00 11 24.3000000  0  8                     
G05  22954257.511   120625186.231        3356.280          51.000  
G06  21479291.927   112874049.548        -239.743          56.000  
G09  22441008.008   117928149.314        -154.440          51.000  
G11  21572928.591   113365783.353        1586.182          55.000  
G12  22708117.548   119331721.235         266.209          52.000  
G19  20723502.247   108901988.414       -1352.013          59.000  
G20  21042228.939   110577309.391        1792.523          56.000  
G25  24178966.344   127061081.529        1748.601          50.000  
> 2024 08 26 00 11 24.4000000  0  8                     
G05  22954194.002   120624850.571        3356.596          51.000  
G06  21479296.852   112874073.508        -239.594          56.000  
G09  22441011.249   117928164.745        -154.305          52.000  
G11  21572898.825   113365624.736        1586.157          55.000  
G12  22708112.815   119331694.599         266.354          51.000  
G19  20723528.374   108902123.586       -1351.719          59.000  
G20  21042195.134   110577130.114        1792.772          56.000  
G25  24178933.420   127060906.687        1748.419          50.000  
> 2024 08 26 00 11 24.5000000  0  8                     
G05  22954130.491   120624514.986        3355.849          51.000  
G06  21479301.790   112874097.529        -240.219          56.000  
G09  22441014.508   117928180.265        -155.196          52.000  
G11  21572869.054   113365466.186        1585.504          54.000  
G12  22708108.085   119331668.033         265.663          51.000  
G19  20723554.515   108902258.852       -1352.658          59.000  
G20  21042161.359   110576950.920        1791.942          56.000  
G25  24178900.504   127060731.928        1747.586          50.000  
> 2024 08 26 00 11 24.6000000  0  8                     
G05  22954066.985   120624179.360        3356.262          52.000  
G06  21479306.724   112874121.508        -239.789          56.000  
G09  22441017.767   117928195.726        -154.620          52.000  
G11  21572839.285   113365307.593        1585.939          54.000  
G12  22708103.362   119331641.432         266.013          51.000  
G19  20723580.660   108902394.062       -1352.109          58.000  
G20  21042127.566   110576771.670        1792.491          56.000  
G25  24178867.580   127060557.116        1748.121          50.000  
> 2024 08 26 00 11 24.7000000  0  8                     
G05  22954003.589   120623844.377        3349.837          52.000  
G06  21479311.575   112874145.141        -236.326          56.000  
G09  22441020.908   117928210.571        -148.453          52.000  
G11  21572809.567   113365149.325        1582.672          54.000  
G12  22708098.781   119331615.561         258.709          51.000  
G19  20723606.731   108902528.918       -1348.556          58.000  
G20  21042093.870   110576592.916        1787.540          55.000  
G25  24178834.796   127060382.965        1741.510          50.000  
> 2024 08 26 00 11 24.8000000  0  8                     
G05  22953940.275   120623509.814        3345.620          51.000  
G06  21479316.357   112874168.397        -232.558          56.000  
G09  22441023.936   117928224.794        -142.222          51.000  
G11  21572779.884   113364991.216        1581.098          54.000  
G12  22708094.292   119331590.219         253.417          50.000  
G19  20723632.727   108902663.375       -1344.569          57.000  
G20  21042060.217   110576414.442        1784.736          55.000  
G25  24178802.089   127060209.316        1736.490          49.000  
> 2024 08 26 00 11 24.9000000  0  8                     
G05  22953876.957   120623175.193        3346.204          51.000  
G06  21479321.173   112874191.771        -233.745          55.000  
G09  22441027.012   117928239.223        -144.294          51.000  
G11  21572750.206   113364833.109        1581.060          54.000  
G12  22708089.790   119331564.782         254.372          50.000  
G19  20723658.750   108902797.977       -1346.017          57.000  
G20  21042026.573   110576235.930        1785.126          55.000  
G25  24178769.374   127060035.556        1737.592          49.000  
> 2024 08 26 00 11 25.0000000  0  8                     
G05  22953813.665   120622840.705        3344.882          51.000  
G06  21479325.950   112874214.984        -232.119          56.000  
G09  22441030.035   117928253.397        -141.734          51.000  
G11  21572720.528   113364675.028        1580.819          54.000  
G12  22708085.309   119331539.493         252.883          50.000  
G19  20723684.725   108902932.391       -1344.148          57.000  
G20  21041992.942   110576057.510        1784.208          55.000  
G25  24178736.690   127059861.969        1735.876          49.000  
> 2024 08 26 00 11 25.1000000  0  8                     
G05  22953750.364   120622506.194        3345.125          51.000  
G06  21479330.740   112874238.247        -232.628          56.000  
G09  22441033.075   117928267.672        -142.757          52.000  
G11  21572690.858   113364516.967        1580.609          54.000  
G12  22708080.829   119331514.198         252.958          50.000  
G19  20723710.730   108903066.886       -1344.950          57.000  
G20  21041959.312   110575879.085        1784.242          55.000  
G25  24178704.001   127059688.363        1736.065          49.000  
> 2024 08 26 00 11 25.2000000  0  8                     
G05  22953421.799   120620777.679        3345.000          51.000  
G06  21479070.265   112872867.515        -233.000          57.000  
G09  22440770.846   117926887.931        -142.999          52.000  
G11  21572395.914   113362964.883        1580.000          54.000  
G12  22707811.079   119330094.904         252.999          50.000  
G19  20723471.465   108901807.3621      -1345.000          57.000  
G20  21041660.420   110574306.647        1784.000          55.000  
G25  24178406.043   127058120.740        1736.000          49.000  
> 2024 08 26 00 11 25.3000000  0  8                     
G05  22953358.507   120620443.177        3345.030          51.000  
G06  21479075.059   112872890.783        -232.680          57.000  
G09  22440773.878   117926902.196        -142.657          52.000  
G11  21572366.236   113362806.820        1580.631          54.000  
G12  22707806.599   119330069.621         252.831          50.000  
G19  20723497.461   108902713.870       -1345.097          57.000  
G20  21041626.789   110574128.233        1784.138          55.000  
G25  24178373.359   127057947.143        1735.957          49.000  
> 2024 08 26 00 11 25.4000000  0  8                     
G05  22953295.214   120620108.707        3344.686          51.000  
G06  21479079.858   112872914.080        -232.972          57.000  
G09  22440776.915   117926916.502        -143.049          52.000  
G11  21572336.570   113362648.778        1580.425          54.000  
G12  22707802.127   119330044.370         252.508          50.000  
G19  20723523.480   108902848.388       -1345.179          57.000  
G20  21041593.163   110573949.843        1783.901          55.000  
G25  24178340.679   127057773.575        1735.685          49.000  
> 2024 08 26 00 11 25.5000000  0  8                     
G05  22953231.900   120619774.147        3345.599          51.000  
G06  21479084.635   112872937.298        -232.177          57.000  
G09  22440779.942   117926930.728        -142.264          52.000  
G11  21572306.883   113362490.646        1581.312          54.000  
G12  22707797.638   119330019.042         253.273          50.000  
G19  20723549.477   108902982.848       -1344.602          56.000  
G20  21041559.510   110573771.379        1784.647          55.000  
G25  24178307.986   127057599.948        1736.267          49.000  
> 2024 08 26 00 11 25.6000000  0  8                     
G05  22953168.622   120619439.715        3344.335          51.000  
G06  21479089.438   112872960.616        -233.182          57.000  
G09  22440783.001   117926945.073        -143.448          52.000  
G11  21572277.226   113362332.633        1580.137          54.000  
G12  22707793.171   119329993.822         252.199          50.000  
G19  20723575.494   108903117.407       -1345.591          56.000  
G20  21041525.900   110573593.016        1783.623          55.000  
G25  24178275.311   127057426.407        1735.411          49.000  
> 2024 08 26 00 11 25.7000000  0  8                     
G05  22953105.330   120619105.220        3344.950          51.000  
G06  21479094.228   112872983.877        -232.606          57.000  
G09  22440786.050   117926959.351        -142.779          52.000  
G11  21572247.556   113362174.576        1580.570          54.000  
G12  22707788.700   119329968.557         252.659          50.000  
G19  20723601.496   108903251.912       -1345.035          56.000  
G20  21041492.273   110573414.592        1784.231          55.000  
G25  24178242.631   127057252.813        1735.946          50.000  
> 2024 08 26 00 11 25.8000000  0  8                     
G05  22953042.025   120618770.708        3345.112          51.000  
G06  21479099.014   112873007.138        -232.605          57.000  
G09  22440789.099   117926973.631        -142.802          52.000  
G11  21572217.878   113362016.496        1580.802          54.000  
G12  22707784.219   119329943.296         252.606          50.000  
G19  20723627.510   108903386.436       -1345.241          56.000  
G20  21041458.638   110573236.190        1784.031          55.000  
G25  24178209.946   127057079.227        1735.849          50.000  
> 2024 08 26 00 11 25.9000000  0  8                     
G05  22952978.737   120618436.242        3344.656          51.000  
G06  21479103.813   112873030.437        -232.997          57.000  
G09  22440792.157   117926987.964        -143.324          52.000  
G11  21572188.208   113361858.454        1580.418          54.000  
G12  22707779.752   119329918.087         252.089          50.000  
G19  20723653.528   108903520.978       -1345.420          56.000  
G20  21041425.029   110573057.803        1783.869          55.000  
G25  24178177.284   127056905.703        1735.238          50.000  
> 2024 08 26 00 11 26.0000000  0  8                     
G05  22952915.450   120618101.803        3344.394          51.000  
G06  21479108.607   112873053.746        -233.090          57.000  
G09  22440795.211   117927002.315        -143.520          52.000  
G11  21572158.539   113361700.421        1580.323          54.000  
G12  22707775.284   119329892.860         252.269          50.000  
G19  20723679.546   108903655.543       -1345.654          56.000  
G20  21041391.433   110572879.447        1783.559          55.000  
G25  24178144.608   127056732.169        1735.346          50.000  
> 2024 08 26 00 11 26.1000000  0  8                     
G05  22952852.189   120617767.415        3343.880          51.000  
G06  21479113.427   112873077.114        -233.678          58.000  
G09  22440798.274   117927016.715        -143.990          51.000  
G11  21572128.886   113361542.452        1579.699          54.000  
G12  22707770.834   119329867.712         251.490          50.000  
G19  20723705.582   108903790.173       -1346.298          56.000  
G20  21041357.842   110572701.133        1783.137          55.000  
G25  24178111.946   127056558.708        1734.617          50.000  
> 2024 08 26 00 11 26.2000000  0  8                     
G05  22952523.649   120616039.019        3345.000          51.000  
G06  21478852.970   112871706.476        -232.000          58.000  
G09  22440536.071   117925637.117        -142.999          51.000  
G11  21571833.965   113359990.470        1581.000          54.000  
G12  22707501.124   119328448.575         252.999          50.000  
G19  20723466.335   108902530.796       -1345.000          56.000  
G20  21041058.985   110571128.834        1784.000          55.000  
G25  24177814.018   127054991.257        1736.000          49.000  
> 2024 08 26 00 11 26.3000000  0  8                     
G05  22952460.384   120615704.620        3343.982          51.000  
G06  21478857.773   112871729.829        -233.520          58.000  
G09  22440539.133   117925651.529        -144.118          51.000  
G11  21571804.312   113359832.487        1579.826          54.000  
G12  22707496.670   119328423.425         251.495          50.000  
G19  20723492.366   108902665.419       -1346.239          56.000  
G20  21041025.389   110570950.523        1783.112          55.000  
G25  24177781.352   127054817.792        1734.656          49.000  
> 2024 08 26 00 11 26.4000000  0  8                     
G05  22952397.091   120615370.104        3345.162          51.000  
G06  21478862.563   112871753.064        -232.355          58.000  
G09  22440542.178   117925665.816        -142.875          51.000  
G11  21571774.639   113359674.389        1580.980          54.000  
G12  22707492.216   119328398.164         252.611          50.000  
G19  20723518.367   108902799.918       -1344.990          56.000  
G20  21040991.780   110570772.086        1784.366          55.000  
G25  24177748.668   127054644.193        1735.994          49.000  
> 2024 08 26 00 11 26.5000000  0  8                     
G05  22952333.812   120615035.689        3344.151          51.000  
G06  21478867.375   112871776.401        -233.373          58.000  
G09  22440545.245   117925680.202        -143.856          51.000  
G11  21571744.973   113359516.377        1580.121          55.000  
G12  22707487.770   119328373.003         251.614          50.000  
G19  20723544.403   108902934.536       -1346.179          57.000  
G20  21040958.184   110570593.758        1783.274          56.000  
G25  24177716.009   127054470.735        1734.579          49.000  
> 2024 08 26 00 11 26.6000000  0  8                     
G05  22952270.525   120614701.178        3345.113          51.000  
G06  21478872.174   112871799.629        -232.287          58.000  
G09  22440548.303   117925694.516        -143.142          51.000  
G11  21571715.298   113359358.2781       1580.988          55.000  
G12  22707483.316   119328347.760         252.429          50.000  
G19  20723570.421   108903069.059       -1345.223          57.000  
G20  21040924.570   110570415.347        1784.111          56.000  
G25  24177683.330   127054297.153        1735.821          49.000  
> 2024 08 26 00 11 26.7000000  0  8                     
G05  22952207.259   120614366.809        3343.694          51.000  
G06  21478877.003   112871823.016        -233.863          58.000  
G09  22440551.383   117925708.954        -144.386          51.000  
G11  21571685.650   113359972.311        1579.663          55.000  
G12  22707478.884   119328322.650         251.093          50.000  
G19  20723596.457   108903203.718       -1346.590          56.000  
G20  21040890.978   110570237.065        1782.821          56.000  
G25  24177650.676   127054123.735        1734.178          49.000  
> 2024 08 26 00 11 26.8000000  0  8                     
G05  22952143.976   120614032.327        3344.815          51.000  
G06  21478881.789   112871846.268        -232.531          58.000  
G09  22440554.433   117925723.286        -143.318          51.000  
G11  21571655.980   113359814.241        1580.695          55.000  
G12  22707474.434   119328297.442         252.088          50.000  
G19  20723622.471   108903338.276       -1345.577          56.000  
G20  21040857.365   110570058.676        1783.896          56.000  
G25  24177618.000   127053950.199        1735.355          49.000  
> 2024 08 26 00 11 26.9000000  0  8                     
G05  22952080.701   120613697.880        3344.469          51.000  
G06  21478886.588   112871869.563        -232.939          58.000  
G09  22440557.495   117925737.663        -143.768          51.000  
G11  21571626.315   113359656.189        1580.524          56.000  
G12  22707469.993   119328272.263         251.789          50.000  
G19  20723648.489   108903472.852       -1345.754          56.000  
G20  21040823.773   110569880.315        1783.611          56.000  
G25  24177585.346   127053776.697        1735.020          49.000  
> 2024 08 26 00 11 27.0000000  0  8                     
G05  22952017.427   120613363.462        3344.178          52.000  
G06  21478891.391   112871892.901        -233.386          58.000  
G09  22440560.562   117925752.067        -144.044          51.000  
G11  21571596.659   113359498.185        1580.045          56.000  
G12  22707465.561   119328247.129         251.333          50.000  
G19  20723674.542   108903607.488       -1346.364          56.000  
G20  21040790.178   110569701.999        1783.163          56.000  
G25  24177552.679   127053603.233        1734.641          49.000  
> 2024 08 26 00 11 27.1000000  0  8                     
G05  22951954.153   120613029.014        3344.485          52.000  
G06  21478896.199   112871916.173        -232.718          58.000  
G09  22440563.629   117925766.458        -143.906          51.000  
G11  21571566.989   113359340.131        1580.541          56.000  
G12  22707461.111   119328221.957         251.727          50.000  
G19  20723700.561   108903742.066       -1345.782          56.000  
G20  21040756.603   110569523.634        1783.642          56.000  
G25  24177520.017   127053429.767        1734.659          49.000  
> 2024 08 26 00 11 27.2000000  0  8                     
G05  22951625.613   120611300.621        3345.000          52.000  
G06  21478635.754   112870545.531        -233.000          57.000  
G09  22440301.444   117924386.886        -144.000          51.000  
G11  21571272.063   113357788.138        1580.000          56.000  
G12  22707191.409   119326802.839         252.001          50.000  
G19  20723461.331   108902482.724       -1346.000          56.000  
G20  21040457.764   110567951.345        1783.000          56.000  
G25  24177222.085   127051862.295        1735.000          49.000  
> 2024 08 26 00 11 27.3000000  0  8                     
G05  22951562.338   120610966.211        3344.109          52.000  
G06  21478640.567   112870568.844        -233.123          57.000  
G09  22440304.519   117924401.305        -144.189          51.000  
G11  21571242.398   113357630.112        1580.253          56.000  
G12  22707186.964   119326777.701         251.377          50.000  
G19  20723487.362   108902617.354       -1346.306          56.000  
G20  21040424.186   110567773.016        1783.281          56.000  
G25  24177189.428   127051688.840        1734.541          49.000  
> 2024 08 26 00 11 27.4000000  0  8                     
G05  22951499.081   120610631.879        3343.310          52.000  
G06  21478645.409   112870592.262        -234.174          57.000  
G09  22440307.617   117924415.816        -145.108          51.000  
G11  21571212.767   113357472.188        1579.240          56.000  
G12  22707182.544   119326752.679         250.227          50.000  
G19  20723513.420   108902752.079       -1347.249          56.000  
G20  21040390.629   110567594.790        1782.264          56.000  
G25  24177156.796   127051515.496        1733.437          49.000  
> 2024 08 26 00 11 27.5000000  0  8                     
G05  22951435.806   120610297.439        3344.404          52.000  
G06  21478650.217   112870615.543        -232.813          57.000  
G09  22440310.697   117924430.218        -144.028          51.000  
G11  21571183.102   113357314.141        1580.475          56.000  
G12  22707178.090   119326727.525         251.540          50.000  
G19  20723539.434   108902886.685       -1346.059          56.000  
G20  21040357.049   110567416.445        1783.444          56.000  
G25  24177124.124   127051342.012        1734.847          49.000  
> 2024 08 26 00 11 27.6000000  0  8                     
G05  22951372.572   120609963.189        3342.501          51.000  
G06  21478655.059   112870639.016        -234.735          57.000  
G09  22440313.807   117924444.800        -145.811          51.000  
G11  21571153.472   113357156.266        1578.751          56.000  
G12  22707173.680   119326702.558         249.666          50.000  
G19  20723565.487   108903021.473       -1347.879          55.000  
G20  21040323.510   110567238.290        1781.547          56.000  
G25  24177091.501   127051168.734        1732.775          49.000  
> 2024 08 26 00 11 27.7000000  0  8                     
G05  22951309.315   120609628.841        3343.476          51.000  
G06  21478659.884   112870662.414        -233.978          57.000  
G09  22440316.904   117924459.308        -145.088          51.000  
G11  21571123.828   113356998.320        1579.452          56.000  
G12  22707169.269   119326677.522         250.361          50.000  
G19  20723591.544   108903156.196       -1347.230          55.000  
G20  21040289.953   110567060.036        1782.550          56.000  
G25  24177058.855   127050995.335        1733.989          49.000  
> 2024 08 26 00 11 27.8000000  0  8                     
G05  22951246.066   120609294.552        3342.891          51.000  
G06  21478664.718   112870685.845        -234.313          57.000  
G09  22440320.002   117924473.869        -145.607          51.000  
G11  21571094.188   113356840.419        1579.013          56.000  
G12  22707164.863   119326652.526         249.961          50.000  
G19  20723617.594   108903290.961       -1347.642          55.000  
G20  21040256.392   110566881.850        1781.859          56.000  
G25  24177026.224   127050822.037        1732.975          49.000  
> 2024 08 26 00 11 27.9000000  0  8                     
G05  22951182.818   120608960.199        3343.521          51.000  
G06  21478669.551   112870709.217        -233.716          57.000  
G09  22440323.091   117924488.356        -144.865          51.000  
G11  21571064.540   113356682.445        1579.739          56.000  
G12  22707160.448   119326627.482         250.440          50.000  
G19  20723643.630   108903425.659       -1346.981          55.000  
G20  21040222.840   110566703.592        1782.572          56.000  
G25  24176993.588   127050648.665        1733.728          49.000  
> 2024 08 26 00 11 28.0000000  0  8                     
G05  22951119.569   120608625.903        3342.971          51.000  
G06  21478674.389   112870732.652        -234.351          57.000  
G09  22440326.197   117924502.928        -145.724          51.000  
G11  21571034.910   113356524.537        1579.077          56.000  
G12  22707156.050   119326602.499         249.829          50.000  
G19  20723669.683   108903560.434       -1347.754          55.000  
G20  21040189.279   110566525.410        1781.830          57.000  
G25  24176960.956   127050475.345        1733.204          49.000  
> 2024 08 26 00 11 28.1000000  0  8                     
G05  22951056.313   120608291.518        3343.844          51.000  
G06  21478679.218   112870755.980        -233.282          57.000  
G09  22440329.290   117924517.399        -144.716          51.000  
G11  21571005.267   113356366.540        1579.973          56.000  
G12  22707151.640   119326577.427         250.715          51.000  
G19  20723695.718   108903695.117       -1346.833          55.000  
G20  21040155.705   110566347.122        1782.877          57.000  
G25  24176928.319   127050301.946        1733.992          49.000  
> 2024 08 26 00 11 28.2000000  0  8                     
G05  22950727.821   120606563.288        3342.000          51.000  
G06  21478418.805   112869385.477        -235.000          56.000  
G09  22440067.149   117923138.030        -146.000          51.000  
G11  21570710.380   113354814.695        1579.000          56.000  
G12  22706881.986   119325158.517         249.000          51.000  
G19  20723456.524   108902435.949       -1348.000          56.000  
G20  21039856.900   110564774.997        1782.000          57.000  
G25  24176630.436   127048734.705        1732.000          49.000  
> 2024 08 26 00 11 28.3000000  0  8                     
G05  22950664.573   120606228.944        3343.442          51.000  
G06  21478423.626   112869408.852        -233.760          56.000  
G09  22440070.254   117923152.548        -145.182          51.000  
G11  21570680.728   113354656.723        1579.716          56.000  
G12  22706877.580   119325133.479         250.376          51.000  
G19  20723482.577   108902570.669       -1347.210          56.000  
G20  21039823.340   110564596.750        1782.474          57.000  
G25  24176597.795   127048561.348        1733.569          49.000  
> 2024 08 26 00 11 28.4000000  0  8                     
G05  22950601.341   120605894.720        3342.232          51.000  
G06  21478428.472   112869432.346        -234.931          56.000  
G09  22440073.387   117923167.186        -146.377          51.000  
G11  21570651.102   113354498.869        1578.542          56.000  
G12  22706873.204   119325108.575         249.033          51.000  
G19  20723508.647   108902705.524       -1348.547          56.000  
G20  21039789.800   110564418.636        1781.143          57.000  
G25  24176565.176   127048388.098        1732.506          49.000  
> 2024 08 26 00 11 28.5000000  0  8                     
G05  22950538.102   120605560.419        3343.011          51.000  
G06  21478433.302   112869455.763        -234.174          56.000  
G09  22440076.502   117923181.769        -145.835          51.000  
G11  21570621.467   113354340.960        1579.090          56.000  
G12  22706868.807   119325083.611         249.646          52.000  
G19  20723534.696   108902840.292       -1347.680          56.000  
G20  21039756.239   110564240.443        1781.922          57.000  
G25  24176532.545   127048214.808        1732.900          49.000  
> 2024 08 26 00 11 28.6000000  0  8                     
G05  22950474.876   120605226.191        3342.282          51.000  
G06  21478438.149   112869479.239        -234.760          56.000  
G09  22440079.629   117923196.400        -146.305          51.000  
G11  21570591.854   113354183.090        1578.703          56.000  
G12  22706864.422   119325058.702         249.091          53.000  
G19  20723560.771   108902975.128       -1348.367          56.000  
G20  21039722.699   110564062.310        1781.328          57.000  
G25  24176499.926   127048041.564        1732.440          49.000  
> 2024 08 26 00 11 28.7000000  0  8                     
G05  22950411.645   120604891.928        3342.623          51.000  
G06  21478442.991   112869502.683        -234.441          56.000  
G09  22440082.754   117923211.013        -146.132          52.000  
G11  21570562.236   113354025.202        1578.869          56.000  
G12  22706860.034   119325033.770         249.322          54.000  
G19  20723586.842   108903109.951       -1348.226          57.000  
G20  21039689.164   110563884.158        1781.534          58.000  
G25  24176467.311   127047868.308        1732.551          50.000  
> 2024 08 26 00 11 28.8000000  0  8                     
G05  22950348.414   120604557.702        3342.261          51.000  
G06  21478447.851   112869526.183        -235.003          56.000  
G09  22440085.895   117923225.679        -146.662          52.000  
G11  21570532.614   113353867.357        1578.448          56.000  
G12  22706855.653   119325008.894         248.759          55.000  
G19  20723612.913   108903244.818       -1348.655          57.000  
G20  21039655.620   110563706.048        1781.100          58.000  
G25  24176434.705   127047695.102        1732.059          50.000  
> 2024 08 26 00 11 28.9000000  0  8                     
G05  22950285.187   120604223.475        3342.275          51.000  
G06  21478452.702   112869549.651        -234.675          56.000  
G09  22440089.031   117923240.325        -146.454          53.000  
G11  21570502.992   113353709.486        1578.711          56.000  
G12  22706851.278   119324983.987         249.070          55.000  
G19  20723638.984   108903379.654       -1348.363          57.000  
G20  21039622.082   110563527.913        1781.350          58.000  
G25  24176402.095   127047521.859        1732.429          50.000  
> 2024 08 26 00 11 29.0000000  0  8                     
G05  22950221.957   120603889.243        3342.320          51.000  
G06  21478457.549   112869573.129        -234.790          56.000  
G09  22440092.168   117923254.988        -146.630          53.000  
G11  21570473.371   113353551.634        1578.521          56.000  
G12  22706846.898   119324959.102         248.850          55.000  
G19  20723665.054   108903514.516       -1348.623          57.000  
G20  21039588.538   110563349.804        1781.084          58.000  
G25  24176369.489   127047348.656        1732.038          50.000  
> 2024 08 26 00 11 29.1000000  0  8                     
G05  22950158.735   120603555.068        3341.753          51.000  
G06  21478462.413   112869596.664        -235.344          56.000  
G09  22440095.313   117923269.693        -147.057          53.000  
G11  21570443.762   113353393.813        1578.212          56.000  
G12  22706842.531   119324934.274         248.280          55.000  
G19  20723691.142   108903649.430       -1349.146          57.000  
G20  21039555.021   110563171.739        1780.655          57.000  
G25  24176336.897   127047175.482        1731.746          49.000  
> 2024 08 26 00 11 29.2000000  0  8                     
G05  22949830.252   120601826.870        3341.000          51.000  
G06  21478201.998   112868226.165        -236.000          56.000  
G09  22439833.194   117921890.387        -148.000          53.000  
G11  21570148.880   113351841.976        1578.000          56.000  
G12  22706572.890   119323515.423         247.000          55.000  
G19  20723451.951   108902390.314       -1350.000          57.000  
G20  21039256.216   110561599.645        1780.000          57.000  
G25  24176039.035   127045608.298        1731.000          49.000  
> 2024 08 26 00 11 29.3000000  0  8                     
G05  22949767.029   120601492.668        3342.012          51.000  
G06  21478206.858   112868249.667        -235.015          56.000  
G09  22439836.335   117921905.087        -146.994          53.000  
G11  21570119.267   113351684.146        1578.306          56.000  
G12  22706568.519   119323490.572         248.510          55.000  
G19  20723478.035   108902525.211       -1348.974          57.000  
G20  21039222.672   110561421.558        1780.875          57.000  
G25  24176006.429   127045435.110        1731.876          49.000  
> 2024 08 26 00 11 29.4000000  0  8                     
G05  22949703.815   120601158.515        3341.542          51.000  
G06  21478211.727   112868273.216        -235.488          57.000  
G09  22439839.489   117921919.825        -147.382          53.000  
G11  21570089.671   113351526.348        1577.977          56.000  
G12  22706564.169   119323465.782         247.903          55.000  
G19  20723504.128   108902660.159       -1349.492          57.000  
G20  21039189.150   110561243.518        1780.399          57.000  
G25  24175973.845   127045261.979        1731.305          49.000  
> 2024 08 26 00 11 29.5000000  0  8                     
G05  22949640.602   120600824.341        3341.743          52.000  
G06  21478216.587   112868296.745        -235.293          57.000  
G09  22439842.643   117921934.564        -147.389          53.000  
G11  21570060.058   113351368.532        1578.160          56.000  
G12  22706559.807   119323440.962         248.198          55.000  
G19  20723530.229   108902795.071       -1349.119          57.000  
G20  21039155.624   110561065.455        1780.628          58.000  
G25  24175941.253   127045088.829        1731.506          50.000  
> 2024 08 26 00 11 29.6000000  0  8                     
G05  22949577.394   120600490.196        3341.439          52.000  
G06  21478221.455   112868320.290        -235.450          57.000  
G09  22439845.802   117921949.317        -147.529          53.000  
G11  21570030.458   113351210.750        1577.820          57.000  
G12  22706555.458   119323416.186         247.765          55.000  
G19  20723556.321   108902930.030       -1349.581          57.000  
G20  21039122.106   110560887.432        1780.237          58.000  
G25  24175908.669   127044915.715        1731.138          50.000  
> 2024 08 26 00 11 29.7000000  0  8                     
G05  22949514.185   120600156.031        3341.656          52.000  
G06  21478226.320   112868343.828        -235.381          57.000  
G09  22439848.964   117921964.065        -147.479          53.000  
G11  21570000.850   113351052.934        1578.156          56.000  
G12  22706551.108   119323391.385         248.012          55.000  
G19  20723582.414   108903064.965       -1349.351          57.000  
G20  21039088.584   110560709.375        1780.570          58.000  
G25  24175876.084   127044742.572        1731.422          50.000  
> 2024 08 26 00 11 29.8000000  0  8                     
G05  22949450.979   120599821.909        3341.210          52.000  
G06  21478231.188   112868367.385        -235.572          57.000  
G09  22439852.136   117921978.844        -147.796          53.000  
G11  21569971.245   113350895.156        1577.777          57.000  
G12  22706546.763   119323366.632         247.527          55.000  
G19  20723608.515   108903199.949       -1349.834          58.000  
G20  21039055.058   110560531.369        1780.059          58.000  
G25  24175843.509   127044569.477        1730.951          50.000  
> 2024 08 26 00 11 29.9000000  0  8                     
G05  22949387.779   120599487.828        3340.822          52.000  
G06  21478236.066   112868391.006        -236.204          57.000  
G09  22439855.316   117921993.681        -148.361          53.000  
G11  21569941.663   113350737.438        1577.186          57.000  
G12  22706542.431   119323341.925         247.062          55.000  
G19  20723634.625   108903334.972       -1350.226          57.000  
G20  21039021.559   110560353.410        1779.591          58.000  
G25  24175810.943   127044396.440        1730.365          50.000  
> 2024 08 26 00 11 30.0000000  0  8                     
G05  22949324.571   120599153.703        3341.252          52.000  
G06  21478240.934   112868414.559        -235.535          57.000  
G09  22439858.484   117922008.469        -147.881          53.000  
G11  21569912.058   113350579.647        1577.900          57.000  
G12  22706538.086   119323317.153         247.718          55.000  
G19  20723660.709   108903469.953       -1349.816          57.000  
G20  21038988.033   110560175.387        1780.230          58.000  
G25  24175778.363   127044223.346        1730.955          50.000  
> 2024 08 26 00 11 30.1000000  0  8                     
G05  22949261.379   120598819.591        3341.116          52.000  
G06  21478245.811   112868438.143        -235.843          57.000  
G09  22439861.655   117922023.282        -148.133          53.000  
G11  21569882.467   113350421.900        1577.474          57.000  
G12  22706533.745   119323292.432         247.217          55.000  
G19  20723686.819   108903604.963       -1350.096          57.000  
G20  21038954.532   110559997.407        1779.805          58.000  
G25  24175745.801   127044050.267        1730.790          50.000  
> 2024 08 26 00 11 30.2000000  0  8                     
G05  22948932.922   120597091.518        3341.000          52.000  
G06  21477985.437   112867067.759        -236.000          57.000  
G09  22439599.561   117920644.129        -149.000          53.000  
G11  21569587.606   113348870.163        1577.000          56.000  
G12  22706264.148   119321873.741         247.000          55.000  
G19  20723447.663   108902345.987       -1351.000          57.000  
G20  21038655.763   110558425.435        1779.000          58.000  
G25  24175447.979   127042483.249        1730.000          50.000  
> 2024 08 26 00 11 30.3000000  0  8                     
G05  22948869.726   120596757.431        3340.868          52.000  
G06  21477990.323   112867091.359        -236.005          57.000  
G09  22439602.738   117920658.980        -148.514          53.000  
G11  21569558.011   113348712.434        1577.275          56.000  
G12  22706259.811   119321849.044         246.960          55.000  
G19  20723473.764   108902481.033       -1350.474          57.000  
G20  21038622.254   110558247.484        1779.510          58.000  
G25  24175415.421   127042310.224        1730.254          50.000  
> 2024 08 26 00 11 30.4000000  0  8                     
G05  22948806.543   120596423.385        3340.459          52.000  
G06  21477995.209   112867114.985        -236.262          57.000  
G09  22439605.922   117920673.854        -148.738          53.000  
G11  21569528.429   113348554.713        1577.225          56.000  
G12  22706255.488   119321824.379         246.658          55.000  
G19  20723499.874   108902616.102       -1350.680          57.000  
G20  21038588.753   110558069.536        1779.475          58.000  
G25  24175382.863   127042137.205        1730.182          50.000  
> 2024 08 26 00 11 30.5000000  0  8                     
G05  22948743.348   120596089.293        3340.922          52.000  
G06  21478000.095   112867138.581        -235.953          57.000  
G09  22439609.098   117920688.698        -148.436          53.000  
G11  21569498.829   113348396.961        1577.516          56.000  
G12  22706251.156   119321799.684         246.952          55.000  
G19  20723525.979   108902751.116       -1350.146          57.000  
G20  21038555.245   110557891.571        1779.652          58.000  
G25  24175350.288   127041964.159        1730.466          50.000  
> 2024 08 26 00 11 30.6000000  0  8                     
G05  22948680.164   120595755.222        3340.711          52.000  
G06  21478004.981   112867162.189        -236.089          58.000  
G09  22439612.279   117920703.556        -148.585          54.000  
G11  21569469.238   113348239.228        1577.332          56.000  
G12  22706246.824   119321775.005         246.792          55.000  
G19  20723552.085   108902886.179       -1350.625          57.000  
G20  21038521.740   110557713.612        1779.600          58.000  
G25  24175317.730   127041791.140        1730.190          50.000  
> 2024 08 26 00 11 30.7000000  0  8                     
G05  22948616.973   120595421.124        3340.981          52.000  
G06  21478009.863   112867185.767        -235.778          58.000  
G09  22439615.459   117920718.401        -148.442          54.000  
G11  21569439.638   113348081.459        1577.686          56.000  
G12  22706242.492   119321750.296         247.077          55.000  
G19  20723578.195   108903021.195       -1350.160          57.000  
G20  21038488.240   110557535.635        1779.765          58.000  
G25  24175285.176   127041618.104        1730.345          50.000  
> 2024 08 26 00 11 30.8000000  0  8                     
G05  22948553.776   120595087.027        3340.969          52.000  
G06  21478014.749   112867209.353        -235.870          58.000  
G09  22439618.635   117920733.251        -148.497          54.000  
G11  21569410.029   113347923.700        1577.590          56.000  
G12  22706238.156   119321725.611         246.856          55.000  
G19  20723604.301   108903156.241       -1350.456          57.000  
G20  21038454.732   110557357.658        1779.768          58.000  
G25  24175252.614   127041445.070        1730.353          50.000  
> 2024 08 26 00 11 30.9000000  0  8                     
G05  22948490.581   120594752.946        3340.816          52.000  
G06  21478019.626   112867232.924        -235.707          58.000  
G09  22439621.815   117920748.094        -148.435          54.000  
G11  21569380.424   113347765.949        1577.504          56.000  
G12  22706233.824   119321700.921         246.899          55.000  
G19  20723630.406   108903291.271       -1350.302          57.000  
G20  21038421.232   110557179.694        1779.644          58.000  
G25  24175220.052   127041272.021        1730.489          50.000  
> 2024 08 26 00 11 31.0000000  0  8                     
G05  22948427.385   120594418.849        3340.963          52.000  
G06  21478024.504   112867256.510        -235.857          58.000  
G09  22439624.987   117920762.947        -148.534          54.000  
G11  21569350.820   113347608.175        1577.738          56.000  
G12  22706229.488   119321676.233         246.885          55.000  
G19  20723656.512   108903426.311       -1350.401          57.000  
G20  21038387.723   110557001.707        1779.866          58.000  
G25  24175187.490   127041099.011        1730.096          51.000  
> 2024 08 26 00 11 31.1000000  0  8                     
G05  22948364.194   120594084.751        3340.978          52.000  
G06  21478029.385   112867280.094        -235.840          58.000  
G09  22439628.171   117920777.808        -148.611          54.000  
G11  21569321.220   113347450.414        1577.610          56.000  
G12  22706225.164   119321651.566         246.665          55.000  
G19  20723682.622   108903561.361       -1350.493          57.000  
G20  21038354.219   110556823.758        1779.490          58.000  
G25  24175154.933   127040925.981        1730.307          51.000  
> 2024 08 26 00 11 31.2000000  0  5                     
G05  22948035.737   120592356.663        3342.000          23.000  
G11  21569026.311   113345898.4624       1581.000          56.000  
G19  20723443.480   108902302.5131      -1351.000          31.000  
G20  21038055.489   110555251.974        1781.000          29.000  
G25  24174857.141   127039359.099        1730.000          50.000  
> 2024 08 26 00 11 32.2000000  0  1                     
G06  21477552.114   112865277.9104       -234.000          31.000  
> 2024 08 26 00 11 32.3000000  0  1                     
G06  21477556.960   112865301.2214       -233.109          31.000  
> 2024 08 26 00 11 32.4000000  0  1                     
G06  21477561.842   112865324.6274       -234.065          31.000  
> 2024 08 26 00 11 32.8000000  0  1                     
G06  21477581.390   112865418.2504       -235.078          30.000  
> 2024 08 26 00 11 49.3000000  0  3                     
G17  26288040.323                4      -2040.000          53.000  
G19  24586518.356                4      -1366.000          30.000  
G25  27908346.887                1       1713.000          49.000  
> 2024 08 26 00 11 49.4000000  0  3                     
G17  26287814.103   138143394.7353      -2040.000          53.000  
G19  24586279.554   129201769.3503      -1367.000          30.000  
G25  27908049.675   146657788.2051       1713.000          49.000  
> 2024 08 26 00 11 49.5000000  0  3                     
G17  26287587.869   138142204.7713      -2039.000          53.000  
G19  24586040.713   129200512.0093      -1366.000          30.000  
G25  27907752.419   146656222.941        1714.000          49.000  
> 2024 08 26 00 11 49.6000000  0  3                     
G17  26287361.632   138141014.7313      -2039.000          53.000  
G19  24585801.864   129199254.6563      -1366.000          30.000  
G25  27907455.116   146654657.590        1714.000          49.000  
> 2024 08 26 00 11 49.8000000  0  3                     
G17  26286909.161   138138634.7483      -2040.000          53.000  
G19  24585324.098   129196740.0273      -1369.000          30.000  
G25  27906860.451   146651527.010        1713.000          49.000  
> 2024 08 26 00 11 49.9000000  0  3                     
G17  26286682.931   138137444.7293      -2040.000          53.000  
G19  24585085.169   129195482.6793      -1364.000          30.000  
G25  27906563.078   146649961.681        1713.000          49.000  
> 2024 08 26 00 11 50.0000000  0  3                     
G17  26286456.707   138136254.7553      -2040.000          53.000  
G19  24584846.276   129194225.4043      -1368.000          30.000  
G25  27906265.717   146648396.409        1713.000          48.000  
> 2024 08 26 00 11 50.1000000  0  3                     
G17  26286230.487   138135064.8233      -2040.000          53.000  
G19  24584607.352   129192968.1463      -1367.000          30.000  
G25  27905968.344   146646831.203        1713.000          48.000  
> 2024 08 26 00 11 50.2000000  0  3                     
G17  26286004.266   138133874.8803      -2040.000          52.000  
G19  24584368.411   129191710.8853      -1366.000          30.000  
G25  27905670.913   146645265.956        1713.000          48.000  
> 2024 08 26 00 11 50.3000000  0  3                     
G17  26285778.033   138132684.9043      -2040.000          52.000  
G19  24584129.517   129190453.6223      -1368.000          31.000  
G25  27905373.466   146643700.692        1712.000          48.000  
> 2024 08 26 00 11 50.4000000  0  3                     
G17  26285551.821   138131494.9893      -2040.000          52.000  
G19  24583890.627   129189196.3693      -1367.000          31.000  
G25  27905076.018   146642135.494        1713.000          48.000  
> 2024 08 26 00 11 50.5000000  0  3                     
G17  26285325.606   138130305.0463      -2040.000          52.000  
G19  24583651.717   129187939.1153      -1366.000          31.000  
G25  27904778.549   146640570.255        1712.000          48.000  
> 2024 08 26 00 11 50.6000000  0  3                     
G17  26285099.399   138129115.1183      -2041.000          52.000  
G19  24583412.828   129186681.8863      -1367.000          31.000  
G25  27904481.088   146639005.053        1712.000          48.000  
> 2024 08 26 00 11 50.7000000  0  3                     
G17  26284873.195   138127925.2013      -2040.000          53.000  
G19  24583173.939   129185424.6653      -1367.000          31.000  
G25  27904183.605   146637439.855        1712.000          48.000  
> 2024 08 26 00 11 50.8000000  0  3                     
G17  26284646.989   138126735.3073      -2040.000          53.000  
G19  24582935.002   129184167.4803      -1368.000          30.000  
G25  27903886.101   146635874.678        1713.000          48.000  
> 2024 08 26 00 11 50.9000000  0  3                     
G17  26284420.777   138125545.3943      -2040.000          52.000  
G19  24582696.060   129182910.2513      -1366.000          30.000  
G25  27903588.601   146634309.493        1713.000          48.000  
> 2024 08 26 00 11 51.0000000  0  3                     
G17  26284194.570   138124355.5213      -2040.000          52.000  
G19  24582457.114   129181653.0803      -1369.000          30.000  
G25  27903291.079   146632744.342        1712.000          48.000  
> 2024 08 26 00 11 51.1000000  0  3                     
G17  26283968.358   138123165.6113      -2040.000          53.000  
G19  24582218.151   129180395.9063      -1368.000          30.000  
G25  27902993.561   146631179.182        1714.000          48.000  
> 2024 08 26 00 11 51.2000000  0  3                     
G17  26283742.138   138121975.6723      -2041.000          53.000  
G19  24581979.179   129179138.6503      -1367.000          30.000  
G25  27902696.009   146629613.958        1712.000          47.000  
> 2024 08 26 00 11 51.3000000  0  3                     
G17  26283515.922   138120785.8063      -2040.000          53.000  
G19  24581740.225   129177881.4883      -1368.000          30.000  
G25  27902398.452   146628048.832        1712.000          47.000  
> 2024 08 26 00 11 51.4000000  0  3                     
G17  26283289.702   138119595.8853      -2041.000          52.000  
G19  24581501.244   129176624.2773      -1367.000          30.000  
G25  27902100.896   146626483.636        1711.000          48.000  
> 2024 08 26 00 11 51.5000000  0  3                     
G17  26283063.495   138118406.0303      -2041.000          52.000  
G19  24581262.289   129175367.1083      -1367.000          30.000  
G25  27901803.356   146624918.527        1713.000          48.000  
> 2024 08 26 00 11 51.6000000  0  3                     
G17  26282837.287   138117216.1333      -2041.000          52.000  
G19  24581023.343   129174109.9493      -1368.000          30.000  
G25  27901505.804   146623353.374        1711.000          48.000  
> 2024 08 26 00 11 51.7000000  0  3                     
G17  26282611.084   138116026.2873      -2041.000          52.000  
G19  24580784.389   129172852.8043      -1368.000          30.000  
G25  27901208.269   146621788.288        1712.000          48.000  
> 2024 08 26 00 11 51.8000000  0  3                     
G17  26282384.869   138114836.3923      -2040.000          52.000  
G19  24580545.435   129171595.6513      -1367.000          30.000  
G25  27900910.695   146620223.115        1712.000          48.000  
> 2024 08 26 00 11 51.9000000  0  3                     
G17  26282158.666   138113646.5753      -2041.000          52.000  
G19  24580306.493   129170338.5323      -1368.000          30.000  
G25  27900613.138   146618658.070        1711.000          48.000  
> 2024 08 26 00 11 52.0000000  0  3                     
G17  26281932.441   138112456.7033      -2040.000          52.000  
G19  24580067.538   129169081.4013      -1368.000          30.000  
G25  27900315.546   146617092.913        1711.000          48.000  
> 2024 08 26 00 11 52.1000000  0  3                     
G17  26281706.230   138111266.8733      -2042.000          52.000  
G19  24579828.579   129167824.2793      -1368.000          30.000  
G25  27900017.995   146615527.858        1711.000          48.000  
> 2024 08 26 00 11 52.2000000  0  3                     
G17  26281480.028   138110077.0253      -2040.000          52.000  
G19  24579589.611   129166567.1373      -1367.000          30.000  
G25  27899720.425   146613962.765        1712.000          48.000  
> 2024 08 26 00 11 52.3000000  0  4                     
G05  26784602.934   140754133.689        3328.000          26.000  
G17  26281253.820   138108887.1983      -2041.000          52.000  
G19  24579350.640   129165310.0313      -1369.000          30.000  
G25  27899422.846   146612397.696        1711.000          48.000  
> 2024 08 26 00 11 52.4000000  0  4                     
G05  26784273.557   140752406.942        3328.000          26.000  
G17  26281027.617   138107697.3483      -2040.000          52.000  
G19  24579111.659   129164052.9293      -1367.000          30.000  
G25  27899125.276   146610832.605        1712.000          49.000  
> 2024 08 26 00 11 52.5000000  0  4                     
G05  26783944.158   140750680.137        3328.000          26.000  
G17  26280801.405   138106507.4603      -2041.000          52.000  
G19  24578872.674   129162795.7773      -1368.000          30.000  
G25  27898827.667   146609267.477        1711.000          50.000  
> 2024 08 26 00 11 52.6000000  0  4                     
G05  26783614.759   140748953.375        3329.000          26.000  
G17  26280575.194   138105317.5983      -2040.000          52.000  
G19  24578633.666   129161538.6343      -1367.000          30.000  
G25  27898530.093   146607702.381        1713.000          51.000  
> 2024 08 26 00 11 52.7000000  0  4                     
G05  26783285.364   140747226.581        3328.000          26.000  
G17  26280349.001   138104127.7743      -2041.000          52.000  
G19  24578394.668   129160281.5343      -1368.000          30.000  
G25  27898232.506   146606137.345        1711.000          51.000  
> 2024 08 26 00 11 52.8000000  0  4                     
G05  26782955.947   140745499.848        3328.000          26.000  
G17  26280122.793   138102937.8923      -2041.000          52.000  
G19  24578155.662   129159024.4283      -1367.000          30.000  
G25  27897934.892   146604572.195        1711.000          51.000  
> 2024 08 26 00 11 52.9000000  0  4                     
G05  26782626.530   140743773.095        3328.000          26.000  
G17  26279896.598   138101748.0583      -2042.000          52.000  
G19  24577916.638   129157767.2973      -1369.000          30.000  
G25  27897637.305   146603007.151        1711.000          51.000  
> 2024 08 26 00 11 53.0000000  0  4                     
G05  26782297.114   140742046.362        3328.000          26.000  
G17  26279670.400   138100558.2373      -2041.000          52.000  
G19  24577677.609   129156510.2353      -1366.000          30.000  
G25  27897339.713   146601442.110        1712.000          51.000  
> 2024 08 26 00 11 53.1000000  0  4                     
G05  26781967.702   140740319.606        3328.000          26.000  
G17  26279444.219   138099368.4293      -2042.000          52.000  
G19  24577438.606   129155253.1223      -1369.000          30.000  
G25  27897042.122   146599877.057        1710.000          51.000  
> 2024 08 26 00 11 53.2000000  0  4                     
G05  26781638.304   140738592.895        3328.000          26.000  
G17  26279218.034   138098178.6293      -2042.000          52.000  
G19  24577199.625   129153996.1123      -1370.000          30.000  
G25  27896744.552   146598312.044        1711.000          50.000  
> 2024 08 26 00 11 53.3000000  0  4                     
G05  26781308.904   140736866.201        3327.000          26.000  
G17  26278991.844   138096988.8383      -2042.000          52.000  
G19  24576960.662   129152739.0683      -1369.000          30.000  
G25  27896446.978   146596747.042        1710.000          50.000  
> 2024 08 26 00 11 53.4000000  0  4                     
G05  26780979.510   140735139.536        3328.000          26.000  
G17  26278765.659   138095799.0583      -2041.000          52.000  
G19  24576721.712   129151482.0003      -1370.000          30.000  
G25  27896149.403   146595182.025        1712.000          50.000  
> 2024 08 26 00 11 53.5000000  0  4                     
G05  26780650.111   140733412.852        3328.000          26.000  
G17  26278539.469   138094609.2833      -2042.000          52.000  
G19  24576482.753   129150224.9843      -1368.000          30.000  
G25  27895851.829   146593617.075        1711.000          50.000  
> 2024 08 26 00 11 53.6000000  0  4                     
G05  26780320.711   140731686.148        3328.000          26.000  
G17  26278313.280   138093419.4823      -2042.000          52.000  
G19  24576243.768   129148967.9243      -1369.000          30.000  
G25  27895554.242   146592052.028        1709.000          50.000  
> 2024 08 26 00 11 53.7000000  0  4                     
G05  26779991.299   140729959.420        3328.000          26.000  
G17  26278087.085   138092229.6923      -2042.000          52.000  
G19  24576004.796   129147710.9023      -1369.000          30.000  
G25  27895256.668   146590487.038        1711.000          50.000  
> 2024 08 26 00 11 53.8000000  0  4                     
G05  26779661.900   140728232.715        3327.000          26.000  
G17  26277860.895   138091039.9253      -2042.000          52.000  
G19  24575765.819   129146453.8763      -1368.000          30.000  
G25  27894959.093   146588922.100        1710.000          50.000  
> 2024 08 26 00 11 53.9000000  0  4                     
G05  26779332.523   140726506.048        3328.000          26.000  
G17  26277634.693   138089850.0853      -2040.000          52.000  
G19  24575526.839   129145196.8093      -1369.000          30.000  
G25  27894661.506   146587357.006        1710.000          50.000  
> 2024 08 26 00 11 54.0000000  0  4                     
G05  26779003.138   140724779.354        3327.000          26.000  
G17  26277408.512   138088660.3713      -2041.000          52.000  
G19  24575287.889   129143939.8513      -1370.000          30.000  
G25  27894363.949   146585792.115        1711.000          50.000  
> 2024 08 26 00 11 54.1000000  0  4                     
G05  26778673.760   140723052.671        3328.000          26.000  
G17  26277182.322   138087470.5843      -2043.000          52.000  
G19  24575048.948   129142682.7863      -1369.000          31.000  
G25  27894066.375   146584227.132        1710.000          50.000  
> 2024 08 26 00 11 54.2000000  0  4                     
G05  26778344.383   140721325.974        3328.000          26.000  
G17  26276956.137   138086280.8633      -2042.000          52.000  
G19  24574809.988   129141425.8543      -1369.000          30.000  
G25  27893768.823   146582662.219        1710.000          50.000  
> 2024 08 26 00 11 54.3000000  0  4                     
G05  26778015.001   140719599.338        3326.000          26.000  
G17  26276729.947   138085091.1083      -2042.000          53.000  
G19  24574571.021   129140168.8753      -1370.000          30.000  
G25  27893471.249   146581097.248        1709.000          50.000  
> 2024 08 26 00 11 54.4000000  0  4                     
G05  26777685.624   140717872.666        3328.000          26.000  
G17  26276503.753   138083901.3383      -2042.000          53.000  
G19  24574332.053   129138911.8413      -1371.000          30.000  
G25  27893173.674   146579532.280        1710.000          49.000  
> 2024 08 26 00 11 54.5000000  0  4                     
G05  26777356.242   140716146.001        3327.000          26.000  
G17  26276277.568   138082711.6013      -2042.000          53.000  
G19  24574093.077   129137654.8863      -1370.000          30.000  
G25  27892876.118   146577967.375        1710.000          49.000  
> 2024 08 26 00 11 54.6000000  0  4                     
G05  26777026.860   140714419.317        3328.000          26.000  
G17  26276051.364   138081521.8093      -2042.000          53.000  
G19  24573854.105   129136397.8813      -1369.000          30.000  
G25  27892578.548   146576402.371        1710.000          49.000  
> 2024 08 26 00 11 54.7000000  0  4                     
G05  26776697.501   140712692.609        3327.000          26.000  
G17  26275825.179   138080332.0593      -2041.000          53.000  
G19  24573615.137   129135140.8643      -1368.000          30.000  
G25  27892280.995   146574837.448        1711.000          49.000  
> 2024 08 26 00 11 54.8000000  0  4                     
G05  26776368.137   140710965.956        3327.000          26.000  
G17  26275598.989   138079142.3363      -2043.000          53.000  
G19  24573376.178   129133883.9354      -1371.000          30.000  
G25  27891983.439   146573272.550        1709.000          49.000  
> 2024 08 26 00 11 55.1000000  0  3                     
G05  26775380.198   140705786.113        3326.000          26.000  
G17  26274920.459   138075573.2283      -2042.000          53.000  
G25  27891090.789   146568577.919        1709.000          50.000  
> 2024 08 26 00 11 55.2000000  0  3                     
G05  26775050.872   140704059.480        3328.000          26.000  
G17  26274694.274   138074383.4683      -2043.000          53.000  
G25  27890793.220   146567012.957        1709.000          50.000  
> 2024 08 26 00 11 55.3000000  0  5                     
G05  26774721.543   140702332.799        3327.000          26.000  
G11  25285349.006   132875359.081        1568.000          55.000  
G12  26428398.488   138882133.382         225.000          51.000  
G17  26274468.093   138073193.796       -2042.000          52.000  
G25  27890495.663   146565448.117        1710.000          50.000  
> 2024 08 26 00 11 55.6000000  0  5                     
G05  26773733.656   140697153.081        3327.000          26.000  
G11  25284464.345   132870707.008        1568.000          55.000  
G12  26427590.596   138877884.312         225.000          51.000  
G17  26273789.611   138069624.827       -2042.000          52.000  
G25  27889603.032   146560753.643        1709.000          50.000  
> 2024 08 26 00 11 56.0000000  0  5                     
G05  26772416.600   140690246.793        3326.000          26.000  
G11  25283284.771   132864504.233        1568.000          55.000  
G12  26426513.450   138872218.946         224.000          52.000  
G17  26272884.970   138064866.216       -2043.000          52.000  
G25  27888412.866   146554494.383        1709.000          50.000  
> 2024 08 26 00 11 56.2000000  0  5                     
G05  26771758.129   140686793.640        3326.000          26.000  
G11  25282694.993   132861402.866        1568.000          55.000  
G12  26425974.845   138869386.316         224.000          53.000  
G17  26272432.683   138062486.943       -2043.000          51.000  
G25  27887817.796   146551364.804        1709.000          50.000  
> 2024 08 26 00 11 56.6000000  0  5                     
G05  26770441.306   140679887.449        3326.000          26.000  
G11  25281515.472   132855200.203        1566.000          55.000  
G12  26424897.643   138863721.185         223.000          53.000  
G17  26271528.125   138057728.500       -2044.000          51.000  
G25  27886627.678   146545105.800        1708.000          49.000  
> 2024 08 26 00 11 56.8000000  0  5                     
G05  26769782.974   140676434.481        3325.000          26.000  
G11  25280925.707   132852098.891        1567.000          55.000  
G12  26424359.073   138860888.665         224.000          53.000  
G17  26271075.858   138055349.324       -2044.000          51.000  
G25  27886032.622   146541976.337        1709.000          49.000  
> 2024 08 26 00 11 57.2000000  0  5                     
G05  26768466.726   140669528.358        3326.000          25.000  
G11  25279746.230   132845896.252        1567.000          56.000  
G12  26423281.875   138855223.678         221.999          54.000  
G17  26270171.348   138050590.951       -2044.000          50.000  
G25  27884842.547   146535717.458        1706.000          49.000  
> 2024 08 26 00 11 57.5000000  0  5                     
G05  26767479.585   140664349.106        3325.000          25.000  
G11  25278861.656   132841244.568        1567.000          56.000  
G12  26422474.082   138850975.290         221.999          54.000  
G17  26269493.063   138047022.499       -2044.000          50.000  
G25  27883949.986   146531023.623        1708.000          49.000  
> 2024 08 26 00 11 57.8000000  0  4                     
G11  25277977.122   132836592.910        1567.000          57.000  
G12  26421666.299   138846726.968         221.999          54.000  
G17  26268814.794   138043454.090       -2044.000          49.000  
G25  27883057.430   146526329.864        1707.000          49.000  
> 2024 08 26 00 11 58.1000000  0  5                     
G11  25277092.553   132831941.044        1569.000          57.000  
G12  26420858.459   138842478.503         224.000          54.000  
G17  26268136.522   138039885.511       -2042.000          49.000  
G19  24565492.597   129092489.638       -1372.000          29.000  
G25  27882164.855   146521635.970        1708.000          48.000  
> 2024 08 26 00 11 58.5000000  0  5                     
G11  25276693.000   132829836.788        1567.118          58.000  
G12  26420561.207   138840912.152         222.158          53.000  
G17  26268012.037   138039225.629       -2043.973          49.000  
G19  24565317.258   129091561.101       -1372.564          30.000  
G25  27881754.619   146519475.670        1707.287          48.000  
> 2024 08 26 00 11 59.2000000  0  5                     
G11  25276485.791   132828740.018        1567.225          57.000  
G12  26420533.174   138840756.913         222.035          53.000  
G17  26268286.293   138040656.609       -2043.967          50.000  
G19  24565502.644   129092522.002       -1372.595          30.000  
G25  27881528.756   146518281.071        1706.719          48.000  
> 2024 08 26 00 12 00.2000000  0  5                     
G11  25276189.954   132827173.919        1565.608          58.000  
G12  26420493.360   138840536.313         220.011          53.000  
G17  26268678.373   138042701.774       -2045.782          50.000  
G19  24565767.102   129093895.821       -1374.917          30.000  
G25  27881206.577   146516575.607        1704.696          50.000  
> 2024 08 26 00 12 00.4000000  0  5                     
G11  25276130.803   132826860.757                          58.000  
G12  26420485.423   138840492.321                          53.000  
G17  26268756.815   138043110.902                          50.000  
G19  24565819.968   129094170.680                          30.000  
G25  27881142.210   146516234.626                          50.000  
> 2024 08 26 00 12 00.8000000  0  5                     
G11  25276012.545   132826234.740        1564.438          58.000  
G12  26420469.698   138840404.685         218.422          54.000  
G17  26268913.777   138043929.469       -2046.982          54.000  
G19  24565925.908   129094720.769       -1375.332          31.000  
G25  27881013.481   146515553.018        1703.434          50.000  
> 2024 08 26 00 12 01.1000000  0  5                     
G11  25275923.864   132825765.360        1564.447          59.000  
G12  26420457.998   138840339.156         218.208          54.000  
G17  26269031.543   138044543.565       -2047.170          56.000  
G19  24566005.432   129095229.5103      -1375.694          31.000  
G25  27880916.990   146515042.018        1702.971          50.000  
> 2024 08 26 00 12 01.7000000  0  5                     
G11  25275746.621   132824826.672        1565.535          59.000  
G12  26420434.588   138840208.287         219.104          53.000  
G17  26269267.131   138045771.868       -2046.198          55.000  
G19  24566164.436   129096055.189       -1374.860          31.000  
G25  27880724.113   146514020.152        1704.244          49.000  
> 2024 08 26 00 12 02.2000000  0  5                     
G11  25275598.971   132824044.524        1563.757          59.000  
G12  26420415.201   138840099.463         217.018          53.000  
G17  26269463.528   138046795.615       -2048.155          54.000  
G19  24566296.961   129096743.4953      -1377.476          31.000  
G25  27880563.441   146513168.848        1701.933          50.000  
> 2024 08 26 00 12 02.7000000  0  5                     
G11  25275451.783   132823265.007        1558.394          57.000  
G12  26420394.832   138839985.021         231.116          52.000  
G17  26269661.662   138048001.3703      -2070.264          50.000  
G19  24566432.082   129097445.3954      -1419.165          31.000  
G25  27880401.720   146512311.823        1716.483          50.000  
> 2024 08 26 00 12 02.8000000  0  5                     
G11  25275422.366   132823109.240        1557.667          57.000  
G12  26420390.719   138839961.966         230.554          52.000  
G17  26269701.383   138048208.4443      -2070.737          50.000  
G19  24566459.506   129097587.8344      -1424.381          31.000  
G25  27880369.337   146512140.200        1716.226          50.000  
> 2024 08 26 00 12 03.1000000  0  4                     
G11  25275334.169   132822641.947        1558.046          57.000  
G12  26420378.373   138839892.789         230.823          52.000  
G17  26269820.551   138048829.6413      -2070.275          50.000  
G25  27880272.231   146511625.479        1716.130          51.000  
> 2024 08 26 00 12 03.2000000  0  4                     
G11  25275304.774   132822486.164        1557.831          57.000  
G12  26420374.246   138839869.720         230.693          52.000  
G17  26269860.277   138049036.6863      -2070.460          50.000  
G25  27880239.865   146511453.924        1715.546          51.000  
> 2024 08 26 00 12 03.7000000  0  4                     
G11  25275157.764   132821707.057        1558.295          58.000  
G12  26420353.698   138839754.300         230.635          53.000  
G17  26270058.873   138050071.8093      -2070.278          51.000  
G25  27880078.015   146510595.834        1715.824          51.000  
> 2024 08 26 00 12 03.8000000  0  4                     
G11  25275128.352   132821551.213        1558.446          58.000  
G12  26420349.585   138839731.194         231.067          53.000  
G17  26270098.594   138050278.8033      -2069.936          51.000  
G25  27880045.649   146510424.204        1716.312          51.000  
> 2024 08 26 00 12 04.3000000  0  4                     
G11  25274981.378   132820772.312        1557.423          58.000  
G12  26420329.107   138839616.102         229.803          53.000  
G17  26270297.286   138051314.1753      -2071.097          51.000  
G25  27879883.907   146509566.453        1715.228          50.000  
> 2024 08 26 00 12 04.9000000  0  4                     
G11  43262370.470   227345131.548        1556.048          59.000  
G12  44407854.860   233364692.420         228.010          54.000  
G17  44258059.687   232577632.9083      -2072.700          52.000  
G25  45867257.033   241033840.696        1713.407          50.000  
> 2024 08 26 00 12 05.2000000  0  4                     
G11  21377411.640   112338890.998        1556.798          59.000  
G12  22522990.431   118358947.258         228.628          53.000  
G17  22373358.697   117572745.8803      -2071.920          53.000  
G25  23982287.186   126027541.448        1714.401          50.000  
> 2024 08 26 00 12 05.5000000  0  4                     
G11  21377323.633   112338424.206        1556.130          58.000  
G12  22522978.333   118358878.949         227.887          53.000  
G17  22373478.047   117573367.7333      -2072.632          54.000  
G25  23982190.351   126027027.588        1713.430          50.000  
> 2024 08 26 00 12 05.9000000  0  4                     
G11  21377206.337   112337801.802        1556.078          58.000  
G12  22522962.301   118358787.941         227.514          53.000  
G17  22373637.184   117574196.9043      -2072.888          55.000  
G25  23982061.258   126026342.407        1712.832          49.000  
> 2024 08 26 00 12 06.0000000  0  4                     
G11  21377177.017   112337646.195        1556.068          58.000  
G12  22522958.301   118358765.180         227.611          53.000  
G17  22373676.980   117574404.1883      -2072.839          55.000  
G25  23982028.992   126026171.120        1712.872          49.000  
> 2024 08 26 00 12 06.5000000  0  4                     
G11  21377295.669   112338262.169        1556.112          58.000  
G12  22523203.519   118360045.540         227.171          53.000  
G17  22374141.220   117576834.6843      -2073.088          54.000  
G25  23982132.962   126026708.749        1713.094          49.000  
> 2024 08 26 00 12 06.9000000  0  4                     
G11  21377178.409   112337639.838        1555.995          57.000  
G12  22523187.470   118359954.794         226.987          52.000  
G17  22374300.450   117577663.4913      -2073.062          53.000  
G25  23982003.947   126026023.836        1712.977          48.000  
> 2024 08 26 00 12 07.1000000  0  4                     
G11  21377385.067   112338722.583        1557.000          57.000  
G12  22523444.734   118361303.360         228.000          52.000  
G17  22374645.323   117579472.0793      -2072.000          53.000  
G25  23982204.717   126027075.335        1714.000          48.000  
> 2024 08 26 00 12 07.5000000  0  8                     
G06  21298581.602   111924799.4303       -278.823          55.000  
G09  22259638.502   116975186.6333       -214.010          53.000  
G11  21377267.775   112338099.865        1556.661          57.000  
G12  22523428.723   118361212.346         227.381          52.000  
G17  22374804.508   117580301.057       -2072.437          52.000  
G19  20552006.097   108001517.3303      -1404.381          57.000  
G20  20844945.345   109540925.5453       1757.622          58.000  
G25  23982075.676   126026390.140        1712.870          49.000  
> 2024 08 26 00 12 07.6000000  0  8                     
G06  21298587.200   111924827.3243       -278.928          55.000  
G09  22259642.899   116975208.0453       -214.120          53.000  
G11  21377238.454   112337944.164        1557.015          57.000  
G12  22523424.740   118361189.591         227.543          52.000  
G17  22374844.303   117580508.308       -2072.507          52.000  
G19  20552033.172   108001657.7643      -1404.341          57.000  
G20  20844912.155   109540749.7813       1757.642          58.000  
G25  23982043.419   126026218.851        1712.889          50.000  
> 2024 08 26 00 12 07.8000000  0  8                     
G06  21298598.098   111924881.8094       -268.921          49.000  
G09  22259651.476   116975249.9364       -205.831          48.000  
G11  21377179.469   112337836.0134       1569.897          53.000  
G12  22523416.216   118361350.1953        247.181          51.000  
G17  22374923.545   117580920.940       -2059.290          28.000  
G19  20552086.813   108001936.1524      -1385.035          50.000  
G20  20844845.522   109540396.9984       1767.887          50.000  
G25  23981978.950   126025876.450        1711.708          51.000  
> 2024 08 26 00 12 08.1000000  0  8                     
G06  21298878.409   111926350.6663       -240.000          48.000  
G09  22259928.481   116976701.1284       -176.000          47.000  
G11  21377354.512   112338750.8904       1612.000          48.000  
G12  22523668.524   118362670.7453        245.000          52.000  
G17  22375306.860   117583027.6563      -2032.000          34.000  
G19  20552430.246   108003735.9704      -1332.000          47.000  
G20  20845009.667   109541256.0544       1794.000          46.000  
G25  23982147.567   126026757.142        1711.000          53.000  
> 2024 08 26 00 12 08.6000000  0  8                     
G06  21298901.945   111926468.9174       -235.783          48.000  
G09  22259947.104   116976792.4543       -183.362          52.000  
G11  21377202.804   112337945.2084       1605.786          44.000  
G12  22523646.886   118362548.1443        244.708          52.000  
G17  22375502.285   117584045.2234      -2036.073          42.000  
G19  20552557.820   108004400.1904      -1331.603          37.000  
G20  20844841.146   109540365.7214       1778.825          44.000  
G25  23981986.488   126025901.674        1710.459          53.000  
> 2024 08 26 00 12 08.7000000  0  8                     
G06  21298906.678   111926492.5474       -236.294          48.000  
G09  22259950.800   116976810.7383       -182.838          53.000  
G11  21377172.585   112337784.6434       1605.663          44.000  
G12  22523642.559   118362523.6053        245.382          52.000  
G17  22375541.426   117584248.7584      -2035.362          43.000  
G19  20552583.489   108004533.7574      -1335.673          37.000  
G20  20844807.441   109540187.7054       1780.157          43.000  
G25  23981954.266   126025730.550        1711.243          53.000  
> 2024 08 26 00 12 08.8000000  0  8                     
G06  21298911.451   111926516.2714       -237.238          48.000  
G09  22259954.482   116976828.9943       -182.553          54.000  
G11  21377142.370   112337624.0314       1606.115          44.000  
G12  22523638.218   118362499.0363        245.687          52.000  
G17  22375580.623   117584452.2684      -2035.100          44.000  
G19  20552609.238   108004667.6784      -1339.209          37.000  
G20  20844773.705   109540009.4744       1782.310          43.000  
G25  23981922.049   126025559.435        1711.156          52.000  
> 2024 08 26 00 12 08.9000000  0  8                     
G06  21298916.307   111926540.4554       -241.846          48.000  
G09  22259958.159   116976847.2773       -182.833          54.000  
G11  21377112.189   112337463.6294       1604.024          43.000  
G12  22523633.890   118362474.5113        245.257          52.000  
G17  22375619.869   117584655.8124      -2035.440          45.000  
G19  20552635.056   108004801.9244      -1342.455          37.000  
G20  20844739.913   109539830.9724       1785.018          43.000  
G25  23981889.832   126025388.337        1710.972          52.000  
> 2024 08 26 00 12 09.0000000  0  8                     
G06  21298921.114   111926564.4414       -239.855          49.000  
G09  22259961.841   116976865.5933       -183.164          54.000  
G11  21377082.027   112337303.1824       1604.466          43.000  
G12  22523629.572   118362449.9943        245.174          52.000  
G17  22375659.167   117584859.3574      -2035.449          46.000  
G19  20552660.978   108004936.5134      -1345.887          38.000  
G20  20844706.072   109539652.2024       1787.706          43.000  
G25  23981857.619   126025217.233        1711.042          52.000  
> 2024 08 26 00 12 09.1000000  0  8                     
G06  21299191.209   111927982.4254       -240.000          51.000  
G09  22260230.793   116978277.8553       -183.000          54.000  
G11  21377317.185   112338536.7234       1605.000          43.000  
G12  22523890.513   118363819.4383        246.000          52.000  
G17  22375963.760   117586456.8704      -2035.000          46.000  
G19  20552952.192   108006465.1344      -1352.000          38.000  
G20  20844937.458   109540867.1704       1792.000          43.000  
G25  23982090.658   126026440.085        1711.000          52.000  
> 2024 08 26 00 12 09.5000000  0  8                     
G06  21299210.718   111928078.7214       -241.073          55.000  
G09  22260245.512   116978351.2633       -183.993          54.000  
G11  21377197.390   112337895.7294       1599.977          42.000  
G12  22523873.286   118363721.5853        244.156          54.000  
G17  22376121.589   117587271.2533      -2036.351          46.000  
G19  20553055.902   108007002.6434      -1344.163          38.000  
G20  20844801.687   109540149.8524       1792.496          46.000  
G25  23981961.827   126025755.916        1710.347          51.000  
> 2024 08 26 00 12 09.9000000  0  8                     
G06  21299230.267   111928175.0224       -240.955          55.000  
G09  22260260.201   116978424.7693       -184.173          55.000  
G11  21377078.951   112337301.0034       1591.431          44.000  
G12  22523856.075   118363623.8183        244.184          55.000  
G17  22376279.309   117588085.6683      -2036.225          50.000  
G19  20553160.228   108007542.0114      -1351.167          40.000  
G20  20844665.792   109539431.6224       1795.141          51.000  
G25  23981833.027   126025071.859        1709.933          51.000  
> 2024 08 26 00 12 10.4000000  0  8                     
G06  21299520.298   111929689.3733       -241.060          55.000  
G09  22260543.872   116979910.7153       -184.301          55.000  
G11  21377197.477   112337900.2744       1589.209          49.000  
G12  22524099.811   118364895.6983        243.910          55.000  
G17  22376741.303   117590497.7203      -2036.442          53.000  
G19  20553557.313   108009658.8544      -1367.210          45.000  
G20  20844761.402   109539928.0264       1794.886          55.000  
G25  23981937.305   126025610.837        1709.748          52.000  
> 2024 08 26 00 12 10.7000000  0  8                     
G06  21299535.078   111929761.6003       -241.068          56.000  
G09  22260554.970   116979965.9543       -184.480          55.000  
G11  21377109.668   112337423.6664       1588.588          53.000  
G12  22524086.928   118364822.4923        243.774          55.000  
G17  22376859.184   117591108.5843      -2036.451          53.000  
G19  20553637.671   108010072.4804      -1380.819          43.000  
G20  20844659.715   109539389.5024       1794.891          57.000  
G25  23981840.749   126025097.885        1709.604          52.000  
> 2024 08 26 00 12 11.0000000  0  8                     
G06  21299549.820   111929833.9063       -241.012          55.000  
G09  22260566.103   116980021.3373       -184.733          55.000  
G11  21377021.897   112336994.1304       1588.372          54.000  
G12  22524074.098   118364749.4383        243.486          55.000  
G17  22376977.008   117591719.5693      -2036.605          54.000  
G19  20553717.806   108010485.3574      -1372.719          43.000  
G20  20844558.134   109538851.1094       1794.607          58.000  
G25  23981744.227   126024585.080        1709.358          52.000  
> 2024 08 26 00 12 11.1000000  0  8                     
G06  21299819.984   111931251.9333       -241.000          55.000  
G09  22260835.068   116981433.7213       -184.000          55.000  
G11  21377257.911   112338229.1984       1589.000          54.000  
G12  22524335.074   118366118.9993        244.000          55.000  
G17  22377281.523   117593317.1533      -2036.000          54.000  
G19  20554009.670   108012016.5344      -1368.000          42.000  
G20  20844789.602   109540065.5533       1795.000          58.000  
G25  23981977.314   126025808.059        1710.000          52.000  
> 2024 08 26 00 12 11.5000000  0  8                     
G06  21299839.528   111931348.4003       -241.937          55.000  
G09  22260850.005   116981507.6913       -185.813          55.000  
G11  21377140.851   112337593.8594       1587.527          55.000  
G12  22524318.008   118366021.7293        242.439          54.000  
G17  22377438.483   117594131.8753      -2037.557          54.000  
G19  20554115.580   108012563.5684      -1366.574          42.000  
G20  20844654.332   109539347.7853       1793.651          58.000  
G25  23981848.649   126025124.426        1708.326          52.000  
> 2024 08 26 00 12 11.6000000  0  8                     
G06  21299844.445   111931372.5933       -241.930          55.000  
G09  22260853.757   116981526.2743       -185.826          55.000  
G11  21377111.583   112337435.0954       1587.645          55.000  
G12  22524313.759   118365997.4923        242.367          54.000  
G17  22377477.716   117594335.6333      -2037.579          54.000  
G19  20554141.982   108012743.1124      -1365.436          42.000  
G20  20844620.536   109539168.4173       1793.669          58.000  
G25  23981816.510   126024953.620        1708.061          52.000  
> 2024 08 26 00 12 12.2000000  0  8                     
G06  21300139.087   111932911.6793       -242.128          56.000  
G09  22261141.467   116983031.7773       -186.248          55.000  
G11  21377201.176   112337922.4603       1587.228          55.000  
G12  22524553.486   118367246.1273        241.860          53.000  
G17  22377978.231   117596952.2003      -2038.123          54.000  
G19  20554564.992   108014954.0354      -1359.827          48.000  
G20  20844682.850   109539486.2283       1793.103          59.000  
G25  23981888.872   126025322.711        1707.534          51.000  
> 2024 08 26 00 12 12.7000000  0  8                     
G06  21300163.513   111933033.4433       -242.760          56.000  
G09  22261160.244   116983125.1783       -186.926          54.000  
G11  21377053.827   112337128.4543       1586.710          56.000  
G12  22524532.293   118367125.4883        240.952          53.000  
G17  22378174.192   117597971.8873      -2038.576          54.000  
G19  20554696.232   108015634.0854      -1360.115          53.000  
G20  20844513.728   109538589.8123       1792.508          58.000  
G25  23981728.212   126024469.089        1707.046          53.000  
> 2024 08 26 00 12 13.5000000  0  8                     
G06  21300467.644   111934621.284        -242.472          55.000  
G09  22261455.659   116984668.730        -187.324          54.000  
G11  21377081.992   112337252.644        1587.205          55.000  
G12  22524763.805   118368326.545         240.818          51.000  
G17  22378752.776   117600996.572       -2038.555          52.000  
G19  20555171.370   108018116.0051      -1360.245          54.000  
G20  20844508.270   109538549.481        1792.673          57.000  
G25  23981736.536   126024497.373        1707.004          52.000  
> 2024 08 26 00 12 14.1000000  0  8                     
G06  21300762.056   111936160.785        -241.000          55.000  
G09  22261743.600   116986175.218        -186.000          53.000  
G11  21377168.855   112337694.407        1588.000          55.000  
G12  22525003.824   118369576.159         242.000          51.000  
G17  22379252.948   117603613.772       -2037.000          51.000  
G19  20555594.276   108020369.220       -1359.000          55.000  
G20  20844570.428   109538867.953        1794.000          58.000  
G25  23981809.195   126024867.373        1708.000          51.000  
> 2024 08 26 00 12 14.2000000  0  8                     
G06  21300766.894   111936185.012        -242.261          55.000  
G09  22261747.352   116986193.947        -187.294          52.000  
G11  21377139.080   112337535.691        1587.169          55.000  
G12  22524999.623   118369552.095         240.640          51.000  
G17  22379292.080   117603817.634       -2038.626          51.000  
G19  20555620.552   108020505.259       -1360.393          55.000  
G20  20844536.565   109538688.700        1792.533          58.000  
G25  23981777.095   126024696.727        1706.454          51.000  
> 2024 08 26 00 12 14.3000000  0  8                     
G06  21300771.740   111936209.233        -242.217          55.000  
G09  22261751.121   116986212.669        -187.219          52.000  
G11  21377109.315   112337376.954        1587.370          55.000  
G12  22524995.426   118369528.011         240.848          51.000  
G17  22379331.217   117604021.484       -2038.495          51.000  
G19  20555646.810   108020641.294       -1360.345          55.000  
G20  20844502.703   109538509.422        1792.764          58.000  
G25  23981744.994   126024526.030        1706.969          51.000  
> 2024 08 26 00 12 14.4000000  0  8                     
G06  21300776.578   111936233.475        -242.421          55.000  
G09  22261754.908   116986231.466        -187.969          52.000  
G11  21377079.523   112337218.241        1587.123          56.000  
G12  22524991.225   118369503.973         240.379          51.000  
G17  22379370.335   117604225.360       -2038.763          52.000  
G19  20555673.069   108020777.346       -1360.520          56.000  
G20  20844468.832   109538330.177        1792.455          58.000  
G25  23981712.899   126024355.408        1706.229          51.000  
> 2024 08 26 00 12 14.8000000  0  8                     
G06  21300796.004   111936330.491        -242.611          54.000  
G09  22261770.064   116986306.596        -188.063          52.000  
G11  21376960.302   112336583.428        1586.913          56.000  
G12  22524974.446   118369407.896         240.064          51.000  
G17  22379526.856   117605040.919       -2038.943          54.000  
G19  20555778.022   108021321.623       -1360.823          57.000  
G20  20844333.388   109537613.262        1792.105          58.000  
G25  23981584.545   126023672.875        1706.437          50.000  
> 2024 08 26 00 12 15.3000000  0  5                     
G11  21377078.205   112337299.1384       1548.886          48.000  
G12  22525219.342   118370684.845         231.318          50.000  
G17  22379988.662   117607631.3173      -2052.454          30.000  
G20  20844430.389   109538218.9074       1774.370          48.000  
G25  23981689.341   126024213.491        1706.517          50.000  
> 2024 08 26 00 12 15.6000000  0  5                     
G11  21376991.377   112336837.0963       1537.573          49.000  
G12  22525207.262   118370615.502         230.978          50.000  
G17  22380106.944   117608247.7763      -2054.965          30.000  
G20  20844329.601   109537685.5504       1777.986          45.000  
G25  23981593.108   126023701.660        1705.798          50.000  
> 2024 08 26 00 12 16.0000000  0  5                     
G11  21376875.835   112336222.1364       1538.139          48.000  
G12  22525191.178   118370523.089         230.363          50.000  
G17  22380264.680   117609069.6383      -2055.311          30.000  
G20  20844195.775   109536976.6044       1768.200          44.000  
G25  23981464.805   126023019.229        1705.324          50.000  
> 2024 08 26 00 12 16.7000000  0  5                     
G11  21376939.323   112336537.1594       1541.822          52.000  
G12  22525428.370   118371755.631         230.026          51.000  
G17  22380806.139   117611902.1163      -2055.698          30.000  
G20  20844229.415   109537137.9234       1757.963          50.000  
G25  23981505.595   126023219.236        1704.807          50.000  
> 2024 08 26 00 12 16.8000000  0  5                     
G11  21376910.591   112336383.0284       1541.312          52.000  
G12  22525424.404   118371732.705         229.252          51.000  
G17  22380845.633   117612107.7313      -2056.145          30.000  
G20  20844196.473   109536962.1574       1757.655          51.000  
G25  23981473.556   126023048.800        1704.357          49.000  
