     3.03           OBSERVATION DATA    M: Mixed            RINEX VERSION / TYPE
RTKCONV 2.4.3 b34                       20240826 053039 UTC PGM / RUN BY / DATE 
format: RTCM 3                                              COMMENT             
log: E:\Seafile\SAIC\proj\Satrack_client_V1.30.016\logs\COM1COMMENT             
0666                                                        MARKER NAME         
                                                            MARKER NUMBER       
                                                            MARKER TYPE         
                                                            OBSERVER / AGENCY   
                                                            REC # / TYPE / VERS 
                                                            ANT # / TYPE        
 -2825299.7908  4667344.8749  3292690.5684                  APPROX POSITION XYZ 
        0.0000        0.0000        0.0000                  ANTENNA: DELTA H/E/N
G    8 C1C L1C D1C S1C C5Q L5Q D5Q S5Q                      SYS / # / OBS TYPES 
R    4 C1C L1C D1C S1C                                      SYS / # / OBS TYPES 
E    8 C1X L1X D1X S1X C5Q L5Q D5Q S5Q                      SYS / # / OBS TYPES 
J    8 C1C L1C D1C S1C C5Q L5Q D5Q S5Q                      SYS / # / OBS TYPES 
C    4 C2I L2I D2I S2I                                      SYS / # / OBS TYPES 
  2024    08    26    05    22   51.0000000     GPS         TIME OF FIRST OBS   
  2024    08    26    05    24   51.8000000     GPS         TIME OF LAST OBS    
G L1C                                                       SYS / PHASE SHIFT   
G L5Q  0.00000                                              SYS / PHASE SHIFT   
R L1C                                                       SYS / PHASE SHIFT   
E L1X  0.00000                                              SYS / PHASE SHIFT   
E L5Q  0.00000                                              SYS / PHASE SHIFT   
J L1C                                                       SYS / PHASE SHIFT   
J L5Q  0.00000                                              SYS / PHASE SHIFT   
C L2I                                                       SYS / PHASE SHIFT   
  3 R11  0 R12 -1 R24  2                                    GLONASS SLOT / FRQ #
 C1C    0.000 C1P    0.000 C2C    0.000 C2P    0.000        GLONASS COD/PHS/BIS 
                                                            END OF HEADER       
> 2024 08 26 05 22 51.0000000  0 14                     
R11  22005157.981   117588917.8891        116.568          35.000  
R12  21807298.150   116490587.1511       3635.998          35.000  
E10  25989295.999   136574585.2781      -2358.440          24.000    25989329.254   101987683.0551      -1760.333          38.000  
E31  27878917.126   146504699.3051       2687.400          29.000    27878951.651   109403070.0831       2006.648          34.000  
J02  37798244.720   198631071.7811        677.725          27.000    37798278.727   148328566.1381        505.652          33.000  
J03  36558372.369   192115558.7941        489.119          25.000    36558384.933   143462950.2351        365.654          38.000  
C01  36991434.890   192624073.9611        463.117          37.000  
C04  38340718.601   199650238.4231        443.888          35.000  
C06  37243836.912   193938365.4081       1546.511          26.000  
C23  23636634.094   123082097.9741       1306.909          31.000  
C37  24566071.896   127921872.8521       3363.511          31.000  
C39  36549938.146   190325046.5861       1242.274          26.000  
C41  25019188.273   130281500.5861      -1203.935          28.000  
C59  37035562.372   192853901.4611        480.828          40.000  
> 2024 08 26 05 22 51.1000000  0 17                     
G18                              3        868.798          60.000                                                                  
G23                              3       3033.452          52.000                                                                  
G24  20419735.942   107306407.281        2192.082          26.000    20419744.017    80131469.614        1637.209          38.000  
R11  22005155.835   117588906.347         115.417          35.000  
R12  21807230.025   116490223.628        3635.244          35.000  
E10  25989340.654   136574821.045       -2357.681          24.000    25989374.119   101987859.108       -1760.531          37.000  
E31  27878865.770   146504430.544        2687.607          30.000    27878900.509   109402869.429        2006.537          34.000  
J02  37798231.851   198631004.041         677.396          27.000    37798265.805   148328515.497         506.409          32.000  
J03  36558363.046   192115509.862         489.316          25.000    36558375.632   143462913.756         364.782          38.000  
C01  36991425.990   192624027.652         463.079          37.000  
C04  38340710.068   199650194.035         443.874          35.000  
C06  37243807.194   193938210.719        1546.888          26.000  
C23  23636609.030   123081967.174        1307.983          31.000  
C37  24566007.374   127921536.587        3362.649          31.000  
C39  36549914.284   190324922.407        1241.787          26.000  
C41  25019211.389   130281620.949       -1203.641          28.000  
C59  37035553.167   192853853.512         479.481          40.000  
> 2024 08 26 05 22 51.2000000  0 14                     
R11  22005153.693   117588894.715         116.325          34.000  
R12  21807161.917   116489860.079        3635.488          35.000  
E10  25989385.282   136575056.793       -2357.473          24.000    25989419.001   101988035.153       -1760.451          38.000  
E31  27878814.553   146504161.883        2686.615          30.000    27878849.353   109402668.698        2007.313          34.000  
J02  37798218.973   198630936.268         677.738          27.000    37798252.887   148328464.889         506.076          32.000  
J03  36558353.749   192115461.015         488.467          25.000    36558366.318   143462877.216         365.401          39.000  
C01  36991417.090   192623981.343         463.096          37.000  
C04  38340701.548   199650149.639         443.963          35.000  
C06  37243777.498   193938056.098        1546.208          26.000  
C23  23636584.015   123081836.632        1305.425          31.000  
C37  24565942.870   127921200.403        3361.853          31.000  
C39  36549890.412   190324798.191        1242.164          26.000  
C41  25019234.515   130281741.361       -1204.121          28.000  
C59  37035543.949   192853805.458         480.543          40.000  
> 2024 08 26 05 22 51.3000000  0 17                     
G18                              3        869.713          60.000                                                                  
G23                              3       3034.389          52.000                                                                  
G24  20419652.564   107305968.691        2193.045          26.000    20419660.591    80131142.178        1637.400          38.000  
R11  22005151.498   117588883.077         116.383          34.000  
R12  21807093.839   116489496.495        3635.834          35.000  
E10  25989429.884   136575292.571       -2357.782          24.000    25989463.886   101988211.216       -1760.632          38.000  
E31  27878763.315   146503893.077        2682.794          30.000    27878798.202   109402467.992        2003.133          33.000  
J02  37798206.090   198630868.489         677.782          27.000    37798239.987   148328414.304         505.855          32.000  
J03  36558344.436   192115412.096         489.187          26.000    36558357.004   143462840.671         365.455          38.000  
C01  36991408.195   192623935.023         463.190          36.000  
C04  38340693.019   199650105.217         444.222          35.000  
C06  37243747.802   193937901.446        1546.519          26.000  
C23  23636558.957   123081705.873        1307.590          31.000  
C37  24565878.335   127920864.062        3363.407          31.000  
C39  36549866.522   190324673.901        1242.892          26.000  
C41  25019257.637   130281861.770       -1204.094          28.000  
C59  37035534.735   192853757.426         480.323          40.000  
> 2024 08 26 05 22 51.4000000  0 17                     
G18                              3        869.103          60.000                                                                  
G23                              3       3033.954          52.000                                                                  
G24  20419610.893   107305749.481        2192.110          25.000    20419618.881    80130978.512        1636.659          38.000  
R11  22005149.295   117588871.455         116.215          34.000  
R12  21807025.800   116489132.982        3635.134          35.000  
E10  25989474.597   136575528.302       -2357.316          25.000    25989508.773   101988387.301       -1760.860          38.000  
E31  27878711.684   146503624.240        2683.116          29.000    27878747.055   109402267.349        2002.511          33.000  
J02  37798193.203   198630800.694         677.951          27.000    37798227.065   148328363.655         506.482          32.000  
J03  36558335.113   192115363.159         489.378          26.000    36558347.686   143462804.153         365.175          39.000  
C01  36991399.295   192623888.707         463.156          36.000  
C04  38340684.482   199650060.840         443.775          35.000  
C06  37243718.079   193937746.698        1547.480          26.000  
C23  23636533.920   123081575.231        1306.428          31.000  
C37  24565813.803   127920527.798        3362.635          31.000  
C39  36549842.620   190324549.613        1242.890          26.000  
C41  25019280.758   130281982.156       -1203.848          28.000  
C59  37035525.512   192853709.383         480.429          40.000  
> 2024 08 26 05 22 51.6000000  0 17                     
G18                              3        869.588          59.000                                                                  
G23                              3       3034.446          52.000                                                                  
G24  20419617.716   107305785.032        2191.869          26.000    20419625.617    80131004.990        1637.030          38.000  
R11  22005235.102   117589330.197         116.315          34.000  
R12  21806979.936   116488887.638        3635.945          35.000  
E10  25989654.369   136576473.890       -2358.523          25.000    25989688.716   101989093.279       -1760.043          38.000  
E31  27878698.073   146503560.703        2693.119          29.000    27878734.915   109402219.826        2011.251          33.000  
J02  37798257.614   198631139.0891                         28.000    37798291.422   148328616.3471                         32.000  
J03  36558406.646   192115739.2321                         26.000    36558419.244   143463085.0181                         38.000  
C01  36991471.662   192624265.699         463.344          36.000  
C04  38340757.603   199650441.685         444.241          35.000  
C06  37243748.905   193937907.135        1545.910          26.000  
C23  23636574.038   123081783.536        1306.652          31.000  
C37  24565774.942   127920324.938        3362.824          30.000  
C39  36549885.037   190324770.817        1242.507          25.000  
C41  25019417.172   130282692.547       -1203.515          28.000  
C59  37035597.277   192854083.027         479.423          40.000  
> 2024 08 26 05 22 51.7000000  0 17                     
G18                              4                         59.000                                                                  
G23                              4                         52.000                                                                  
G24  20419576.024   107305565.8521                         26.000    20419583.886    80130841.2711                         38.000  
R11  22005232.942   117589318.641         115.565          34.000  
R12  21806911.955   116488524.099        3635.390          35.000  
E10  25989698.972   136576709.524       -2361.597          24.000    25989733.592   101989269.361       -1764.752          38.000  
E31  27878646.237   146503292.025        2686.771          28.000    27878683.768   109402019.161        2006.646          33.000  
J02  37798244.730   198631071.298                          28.000    37798278.521   148328565.769                          32.000  
J03  36558397.336   192115690.309                          26.000    36558409.898   143463048.450                          39.000  
C01  36991462.749   192624219.341         463.586          37.000  
C04  38340749.070   199650397.305         443.801          35.000  
C06  37243719.192   193937752.389        1547.455          26.000  
C23  23636548.984   123081652.785        1307.513          31.000  
C37  24565710.402   127919988.603        3363.361          30.000  
C39  36549861.152   190324646.602        1242.156          26.000  
C41  25019440.293   130282812.965       -1204.178          28.000  
C59  37035588.067   192854034.992         480.344          40.000  
> 2024 08 26 05 22 51.8000000  0 17                     
G18                              3        869.272          59.000                                                                  
G23                              3       3034.351          53.000                                                                  
G24  20419534.344   107305346.668        2191.877          26.000    20419542.188    80130677.605        1636.681          38.000  
R11  22005230.783   117589307.064         115.763          34.000  
R12  21806843.991   116488160.597        3635.026          35.000  
E10  25989743.487   136576945.420       -2358.964          24.000    25989778.483   101989445.428       -1760.663          38.000  
E31  27878594.546   146503023.211        2682.894          28.000    27878632.604   109401818.471        2002.984          33.000  
J02  37798231.855   198631003.508         677.920          28.000    37798265.613   148328515.125         506.464          32.000  
J03  36558388.031   192115641.421         488.882          26.000    36558400.608   143463011.969         364.820          38.000  
C01  36991453.850   192624173.064         462.777          37.000  
C04  38340740.532   199650352.885         444.191          35.000  
C06  37243689.492   193937597.742        1546.476          26.000  
C23  23636523.965   123081522.212        1305.726          31.000  
C37  24565645.893   127919652.378        3362.253          30.000  
C39  36549837.262   190324522.349        1242.525          26.000  
C41  25019463.419   130282933.370       -1204.048          28.000  
C59  37035578.845   192853986.923         480.693          40.000  
> 2024 08 26 05 22 51.9000000  0 17                     
G18                              3        868.909          59.000                                                                  
G23                              3       3034.060          53.000                                                                  
G24  20419492.638   107305127.368        2192.990          26.000    20419500.447    80130513.905        1637.000          38.000  
R11  22005228.597   117589295.536         115.291          34.000  
R12  21806776.053   116487797.055        3635.407          35.000  
E10  25989787.924   136577181.204       -2357.840          25.000    25989823.356   101989621.518       -1760.900          38.000  
E31  27878543.084   146502754.429        2693.083          28.000    27878581.431   109401617.691        2011.727          33.000  
J02  37798218.968   198630935.740         677.676          28.000    37798252.691   148328464.525         505.998          32.000  
J03  36558378.716   192115592.540         488.818          26.000    36558391.285   143462975.435         365.339          39.000  
C01  36991444.932   192624126.728         463.347          37.000  
C04  38340731.998   199650308.534         443.518          36.000  
C06  37243659.774   193937443.100        1546.430          26.000  
C23  23636498.920   123081391.534        1306.783          31.000  
C37  24565581.367   127919316.134        3362.434          30.000  
C39  36549813.386   190324398.201        1246.690          26.000  
C41  25019486.541   130283053.761       -1203.915          28.000  
C59  37035569.631   192853938.923         479.997          40.000  
> 2024 08 26 05 22 52.0000000  0 17                     
G18                              3        869.125          59.000                                                                  
G23                              3       3034.439          53.000                                                                  
G24  20419450.932   107304908.152        2192.164          26.000    20419458.724    80130350.231        1636.737          38.000  
R11  22005226.420   117589283.991         115.447          34.000  
R12  21806708.158   116487433.595        3634.599          35.000  
E10  25989832.238   136577416.901       -2356.975          24.000    25989868.238   101989797.561       -1760.431          38.000  
E31  27878491.886   146502485.669        2687.591          28.000    27878530.298   109401417.101        2005.895          33.000  
J02  37798206.108   198630868.010         677.306          28.000    37798239.769   148328413.891         506.336          32.000  
J03  36558369.398   192115543.643         488.967          26.000    36558381.971   143462938.931         365.038          39.000  
C01  36991436.016   192624080.391         463.370          37.000  
C04  38340723.465   199650264.103         444.305          36.000  
C06  37243630.061   193937288.420        1546.797          26.000  
C23  23636473.874   123081260.853        1306.816          31.000  
C37  24565516.818   127918979.769        3363.641          30.000  
C39  36549789.493   190324273.937        1242.646          26.000  
C41  25019509.662   130283174.202       -1204.410          28.000  
C59  37035560.413   192853890.845         480.777          40.000  
> 2024 08 26 05 22 52.1000000  0 18                     
G18                              3        869.261          59.000                                                                  
G23                              3       3034.475          53.000                                                                  
G24  20419409.239   107304689.018        2191.336          26.000    20419416.979    80130186.526        1637.052          38.000  
R11  22005224.222   117589272.378         116.128          34.000  
R12  21806640.230   116487070.022        3635.731          35.000  
E10  25989876.489   136577652.724       -2358.226          25.000    25989913.104   101989973.610       -1760.486          38.000  
E31  27878440.892   146502216.857        2688.121          28.000    27878479.138   109401216.360        2007.402          33.000  
J02  37798193.221   198630800.202         678.085          29.000    37798226.869   148328363.322         505.690          32.000  
J03  36558360.062   192115494.702         489.414          26.000    36558372.639   143462902.384         365.473          39.000  
C01  36991427.133   192624034.102         462.887          36.000  
C04  38340714.928   199650219.703         444.006          35.000  
C06  37243600.344   193937133.772        1546.475          26.000  
C16  37371474.832   194603061.027        1412.498          25.000  
C23  23636448.820   123081130.176        1306.767          31.000  
C37  24565452.309   127918643.572        3361.972          30.000  
C39  36549765.621   190324149.779        1241.580          26.000  
C41  25019532.766   130283294.527       -1203.248          28.000  
C59  37035551.199   192853842.870         479.759          39.000  
> 2024 08 26 05 22 52.2000000  0 18                     
G18                              3        868.487          59.000                                                                  
G23                              3       3033.823          53.000                                                                  
G24  20419367.554   107304469.854        2191.631          26.000    20419375.254    80130022.859        1636.662          38.000  
R11  22005222.058   117589260.838         115.403          34.000  
R12  21806572.309   116486706.505        3635.178          36.000  
E10  25989920.825   136577888.432       -2357.084          25.000    25989957.994   101990149.706       -1760.962          38.000  
E31  27878389.710   146501948.161        2686.957          28.000    27878427.982   109401015.646        2007.147          33.000  
J02  37798180.338   198630732.411         677.902          29.000    37798213.930   148328312.628         506.936          32.000  
J03  36558350.731   192115445.779         489.219          26.000    36558363.304   143462865.845         365.391          39.000  
C01  36991418.233   192623987.722         463.798          37.000  
C04  38340706.399   199650175.298         444.051          35.000  
C06  37243570.626   193936979.166        1546.066          26.000  
C16  37371447.728   194602919.822        1412.049          25.000  
C23  23636423.793   123080999.632        1305.435          31.000  
C37  24565387.791   127918307.288        3362.844          31.000  
C39  36549741.740   190324025.553        1242.255          26.000  
C41  25019555.887   130283414.923       -1203.967          28.000  
C59  37035541.981   192853794.828         480.414          40.000  
> 2024 08 26 05 22 52.7000000  0 18                     
G18                              3        868.988          60.000                                                                  
G23                              3       3034.511          54.000                                                                  
G24  20419254.622   107303875.904        2190.674          26.000    20419262.182    80129579.297        1636.697          38.000  
R11  22005306.866   117589713.547         115.000          34.000  
R12  21806328.202   116485399.106        3634.969          36.000  
E10  25990238.672   136579569.227       -2358.206          25.000    25990277.813   101991404.714       -1759.828          37.000  
E31  27878229.775   146501106.153        2687.493          27.000    27878267.786   109400386.934        2007.253          33.000  
J02  37798211.430   198630895.342         677.766          29.000    37798244.847   148328434.322         506.130          32.000  
J03  36558399.565   192115703.065         488.862          26.000    36558412.138   143463057.950         365.411          39.000  
C01  36991469.179   192624253.391         463.056          36.000  
C04  38340759.252   199650450.558         444.629          36.000  
C06  37243517.538   193936703.138        1546.863          26.000  
C16  37371407.683   194602711.378        1411.447          25.000  
C23  23636394.018   123080843.659        1305.896          31.000  
C37  24565160.716   127917123.205        3363.307          30.000  
C39  36549717.825   190323901.660        1236.734          26.000  
C41  25019766.975   130284514.140       -1203.521          28.000  
C59  37035591.353   192854051.960         479.974          40.000  
> 2024 08 26 05 22 52.8000000  0 18                     
G18                              3        869.335          60.000                                                                  
G23                              3       3035.147          54.000                                                                  
G24  20419212.937   107303656.722        2191.830          26.000    20419220.458    80129415.625        1636.718          38.000  
R11  22005304.741   117589702.025         115.216          34.000  
R12  21806260.246   116485035.559        3635.480          36.000  
E10  25990283.122   136579804.861       -2361.593          25.000    25990322.699   101991580.837       -1765.162          37.000  
E31  27878178.924   146500837.377        2693.012          28.000    27878216.630   109400186.153        2011.734          33.000  
J02  37798198.547   198630827.519         678.230          29.000    37798231.908   148328383.658         506.644          32.000  
J03  36558390.225   192115654.133         489.319          26.000    36558402.815   143463021.424         365.260          39.000  
C01  36991460.285   192624207.034         463.564          36.000  
C04  38340750.727   199650406.145         444.135          36.000  
C06  37243487.824   193936548.493        1546.438          26.000  
C16  37371380.565   194602570.169        1412.087          25.000  
C23  23636368.964   123080713.053        1306.059          31.000  
C37  24565096.203   127916786.893        3363.128          31.000  
C39  36549693.936   190323777.349        1243.101          26.000  
C41  25019790.100   130284634.517       -1203.768          28.000  
C59  37035582.108   192854003.838         481.226          40.000  
> 2024 08 26 05 22 52.9000000  0 18                     
G18                              3        868.853          60.000                                                                  
G23                              3       3034.551          54.000                                                                  
G24  20419171.227   107303437.494        2192.274          26.000    20419178.748    80129251.957        1636.677          38.000  
R11  22005302.613   117589690.485         115.409          34.000  
R12  21806192.308   116484672.051        3635.070          36.000  
E10  25990327.882   136580040.778       -2359.174          26.000    25990367.559   101991756.850       -1760.123          37.000  
E31  27878128.035   146500568.609        2687.686          28.000    27878165.496   109399985.479        2006.734          33.000  
J02  37798185.643   198630759.666         678.535          30.000    37798218.986   148328333.019         506.381          32.000  
J03  36558380.876   192115605.169         489.637          26.000    36558393.492   143462984.904         365.195          39.000  
C01  36991451.380   192624160.675         463.594          37.000  
C04  38340742.185   199650361.708         444.366          36.000  
C06  37243458.089   193936393.778        1547.154          26.000  
C16  37371353.448   194602428.983        1411.860          25.000  
C23  23636343.888   123080582.395        1306.578          31.000  
C37  24565031.694   127916450.646        3362.475          31.000  
C39  36549670.064   190323653.170        1247.001          26.000  
C41  25019813.221   130284754.887       -1203.703          28.000  
C59  37035572.877   192853955.803         480.350          40.000  
> 2024 08 26 05 22 53.1000000  0 12                     
G18                              3        868.782          60.000                                                                  
G23                              3       3034.616          53.000                                                                  
G24  20419087.814   107302999.195        2191.571          26.000    20419095.353    80128924.650        1636.778          38.000  
C01  36991433.585   192624067.983         463.523          37.000  
C04  38340725.132   199650272.895         444.050          35.000  
C06  37243398.601   193936084.447        1547.124          26.000  
C16  37371299.234   194602146.736        1410.536          25.000  
C23  23636293.740   123080321.071        1307.315          31.000  
C37  24564902.662   127915778.127        3362.641          30.000  
C39  36549622.298   190323404.628        1243.030          26.000  
C41  25019859.447   130284995.621       -1203.959          28.000  
C59  37035554.406   192853859.752         480.383          40.000  
> 2024 08 26 05 22 53.2000000  0 12                     
G18                              4                         60.000                                                                  
G23                              4                         54.000                                                                  
G24  20419046.100   107302780.0051                         26.000    20419053.623    80128760.9871                         38.000  
C01  36991424.686   192624021.627         463.559          37.000  
C04  38340716.603   199650228.444         444.505          35.000  
C06  37243368.887   193935929.848        1545.995          26.000  
C16  37371272.100   194602005.482        1412.543          25.000  
C23  23636268.686   123080190.527        1305.449          31.000  
C37  24564838.140   127915441.829        3362.994          30.000  
C39  36549598.430   190323280.421        1242.066          26.000  
C41  25019882.551   130285115.954       -1203.329          28.000  
C59  37035545.170   192853811.682         480.703          40.000  
> 2024 08 26 05 22 53.3000000  0 18                     
G18                              3        868.480          60.000                                                                  
G23                              3       3034.606          54.000                                                                  
G24  20419004.420   107302560.900        2191.065          26.000    20419011.928    80128597.370        1636.164          38.000  
R11  22005294.145   117589644.543         114.227          34.000  
R12  21805920.538   116483218.070        3634.506          36.000  
E10  25990507.833   136580983.725       -2357.470          26.000    25990547.022   101992461.091       -1760.174          37.000  
E31  27877923.868   146499493.372        2693.021          28.000    27877960.923   109399182.592        2011.353          33.000  
J02  37798134.103   198630488.3671                         31.000    37798167.286   148328130.4831                         32.000  
J03  36558343.533   192115409.4321                         26.000    36558356.202   143462838.7171                         39.000  
C01  36991415.773   192623975.240         463.866          37.000  
C04  38340708.070   199650183.994         444.504          35.000  
C06  37243339.118   193935775.047        1548.007          26.000  
C16  37371244.969   194601864.264        1412.177          25.000  
C23  23636243.627   123080059.913        1306.139          31.000  
C37  24564773.614   127915105.533        3362.959          30.000  
C39  36549574.549   190323156.103        1243.187          26.000  
C41  25019905.677   130285236.319       -1203.648          28.000  
C59  37035535.917   192853763.595         480.864          40.000  
> 2024 08 26 05 22 53.4000000  0 18                     
G18                              3        868.849          60.000                                                                  
G23                              3       3034.823          54.000                                                                  
G24  20418962.714   107302341.759        2191.417          26.000    20418970.200    80128433.732        1636.384          38.000  
R11  22005292.016   117589633.031         115.124          34.000  
R12  21805852.591   116482854.494        3635.751          36.000  
E10  25990553.103   136581219.595       -2358.706          26.000    25990591.886   101992637.147       -1760.566          37.000  
E31  27877872.965   146499224.539        2688.320          28.000    27877909.777   109398981.879        2007.121          33.000  
J02  37798121.226   198630420.642         677.250          31.000    37798154.372   148328079.824         506.588          32.000  
J03  36558334.201   192115360.534         488.987          26.000    36558346.896   143462802.190         365.271          39.000  
C01  36991406.868   192623928.928         463.113          36.000  
C04  38340699.546   199650139.572         444.220          36.000  
C06  37243309.383   193935620.428        1546.191          25.000  
C16  37371217.838   194601723.110        1411.535          25.000  
C23  23636218.555   123079929.251        1306.614          31.000  
C37  24564709.083   127914769.251        3362.814          31.000  
C39  36549550.695   190323031.968        1241.347          26.000  
C41  25019928.777   130285356.669       -1203.500          28.000  
C59  37035526.669   192853715.558         480.378          40.000  
> 2024 08 26 05 22 53.5000000  0 18                     
G18                              3        869.000          60.000                                                                  
G23                              3       3035.000          54.000                                                                  
G24  20419016.500   107302624.440        2191.000          26.000    20419024.004    80128644.852        1637.000          38.000  
R11  22005385.401   117590131.927         116.000          34.000  
R12  21805880.180   116483001.221        3633.000          36.000  
E10  25990693.751   136581957.119       -2358.000          26.000    25990732.269   101993188.002       -1760.000          37.000  
E31  27877917.682   146499457.592        2692.254          28.000    27877954.140   109399155.928        2011.924          33.000  
J02  37798203.857   198630854.654         678.999          31.000    37798236.947   148328403.918         507.000          32.000  
J03  36558420.370   192115813.429         489.999          27.000    36558433.074   143463140.388         365.000          39.000  
C01  36991493.466   192624379.834         463.000          36.000  
C04  38340786.513   199650592.433         446.000          36.000  
C06  37243375.161   193935963.101        1548.000          26.000  
C16  37371286.208   194602079.235        1412.000          25.000  
C23  23636288.993   123080295.927        1306.000          31.000  
C37  24564740.044   127914930.260        3362.000          30.000  
C39  36549622.306   190323404.953        1237.793          26.000  
C41  25020047.395   130285974.305       -1204.000          28.000  
C59  37035612.912   192854164.749         481.000          40.000  
> 2024 08 26 05 22 53.7000000  0 15                     
R11  22005381.113   117590108.912         114.495          34.000  
R12  21805744.331   116482274.135        3635.072          36.000  
E10  25990783.809   136582428.607       -2362.106          26.000    25990821.994   101993540.098       -1764.929          37.000  
E31  27877816.016   146498919.939        2688.759          29.000    27877851.829   109398754.423        2007.134          33.000  
J02  37798178.087   198630718.919         678.728          30.000    37798211.107   148328302.659         505.667          32.000  
J03  36558401.703   192115715.521         489.742          27.000    36558414.433   143463067.279         366.021          39.000  
C01  36991475.649   192624287.088         463.427          36.000  
C04  38340769.451   199650503.579         444.079          35.000  
C06  37243315.673   193935653.656        1547.518          25.000  
C16  37371231.903   194601796.824        1412.241          25.000  
C23  23636238.845   123080034.624        1307.088          31.000  
C37  24564610.977   127914257.689        3362.503          30.000  
C39  36549574.549   190323156.459        1241.963          26.000  
C41  25020093.620   130286215.010       -1203.269          28.000  
C59  37035594.419   192854068.623         481.149          40.000  
> 2024 08 26 05 22 53.9000000  0 18                     
G18                              3        869.332          59.000                                                                  
G23                              3       3035.730          54.000                                                                  
G24  20418849.654   107301747.872        2191.504          26.000    20418857.197    80127990.237        1636.176          38.000  
R11  22005376.859   117590085.985         114.445          33.000  
R12  21805608.445   116481547.119        3634.894          36.000  
E10  25990873.393   136582900.210       -2359.077          26.000    25990911.696   101993892.114       -1760.329          37.000  
E31  27877713.842   146498382.263        2688.796          29.000    27877749.514   109398352.897        2007.772          33.000  
J02  37798152.352   198630583.270         678.173          30.000    37798185.215   148328201.216         506.813          32.000  
J03  36558383.036   192115617.588         489.816          27.000    36558395.787   143462994.144         365.627          39.000  
C01  36991457.815   192624194.287         464.111          36.000  
C04  38340752.363   199650414.613         444.357          35.000  
C06  37243256.168   193935344.206        1548.425          26.000  
C16  37371177.598   194601514.446        1412.260          25.000  
C23  23636188.707   123079773.357        1307.077          31.000  
C37  24564481.872   127913584.984        3363.691          30.000  
C39  36549526.788   190322907.929        1243.141          26.000  
C41  25020139.846   130286455.687       -1202.954          28.000  
C59  37035575.896   192853972.359         481.585          40.000  
> 2024 08 26 05 22 54.1000000  0 18                     
G18                              3        868.511          59.000                                                                  
G23                              3       3034.928          54.000                                                                  
G24  20418766.224   107301309.563        2191.084          25.000    20418773.780    80127662.921        1636.825          38.000  
R11  22005372.536   117590063.022         114.558          33.000  
R12  21805472.496   116480820.043        3635.272          36.000  
E10  25990962.773   136583371.603       -2358.044          26.000    25991001.416   101994244.214       -1760.092          37.000  
E31  27877612.233   146497844.565        2688.439          30.000    27877647.190   109397951.368        2008.066          33.000  
J02  37798126.588   198630447.478         678.775          30.000    37798159.376   148328099.866         507.037          32.000  
J03  36558364.359   192115519.625         489.836          28.000    36558377.142   143462920.986         365.961          38.000  
C01  36991439.981   192624101.441         464.195          36.000  
C04  38340735.271   199650325.614         445.259          35.000  
C06  37243196.697   193935034.842        1547.753          26.000  
C16  37371123.310   194601232.076        1411.213          25.000  
C23  23636138.577   123079512.109        1306.883          31.000  
C37  24564352.771   127912912.367        3363.246          30.000  
C39  36549479.049   190322659.456        1242.179          25.000  
C41  25020186.054   130286696.326       -1202.968          28.000  
C59  37035557.390   192853876.201         480.706          40.000  
> 2024 08 26 05 22 54.3000000  0 18                     
G18                              3        868.850          59.000                                                                  
G23                              3       3035.379          54.000                                                                  
G24  20418682.777   107300871.324        2190.844          25.000    20418690.373    80127335.661        1636.300          38.000  
R11  22005368.178   117590040.103         114.024          33.000  
R12  21805336.545   116480093.040        3634.745          36.000  
E10  25991052.140   136583843.086       -2357.732          25.000    25991091.124   101994596.238       -1759.639          37.000  
E31  27877510.516   146497306.952        2687.480          30.000    27877544.875   109397549.855        2007.517          33.000  
J02  37798100.805   198630311.723         678.285          30.000    37798133.524   148327998.479         507.266          32.000  
J03  36558345.697   192115421.663         490.101          28.000    36558358.500   143462847.836         365.973          39.000  
C01  36991422.168   192624008.656         464.202          36.000  
C04  38340718.196   199650236.673         444.803          35.000  
C06  37243137.214   193934725.412        1546.902          26.000  
C16  37371069.000   194600949.562        1412.024          25.000  
C23  23636088.447   123079250.841        1306.680          31.000  
C37  24564223.666   127912239.730        3362.853          30.000  
C39  36549431.301   190322410.816        1242.246          25.000  
C41  25020232.249   130286936.980       -1203.492          27.000  
C59  37035538.875   192853779.949         481.162          40.000  
> 2024 08 26 05 22 54.4000000  0 18                     
G18                              3        868.307          59.000                                                                  
G23                              3       3035.042          54.000                                                                  
G24  20418641.032   107300652.149        2191.749          25.000    20418648.663    80127172.029        1636.324          38.000  
R11  22005365.996   117590028.620         114.826          33.000  
R12  21805268.541   116479729.495        3635.444          36.000  
E10  25991096.756   136584078.768       -2362.085          26.000    25991135.980   101994772.293       -1764.471          38.000  
E31  27877459.570   146497037.944        2690.077          30.000    27877493.702   109397349.069        2007.855          33.000  
J02  37798087.901   198630243.846         678.772          30.000    37798120.602   148327947.822         506.571          32.000  
J03  36558336.373   192115372.732         489.318          28.000    36558349.178   143462811.243         365.931          38.000  
C01  36991413.268   192623962.233         464.222          36.000  
C04  38340709.649   199650192.197         444.764          35.000  
C06  37243107.461   193934570.666        1547.454          26.000  
C16  37371041.848   194600808.328        1412.350          25.000  
C23  23636063.363   123079120.193        1306.479          32.000  
C37  24564159.091   127911903.283        3364.465          30.000  
C39  36549407.429   190322286.548        1242.677          25.000  
C41  25020255.336   130287057.271       -1202.918          27.000  
C59  37035529.613   192853731.830         481.192          40.000  
> 2024 08 26 05 22 54.5000000  0 11                     
J02  37798165.187   198630649.894         675.745          30.000    37798197.849   148328250.999         501.076          32.000  
J03  36558417.234   192115797.703         491.000          27.000    36558430.072   143463128.649         365.000          39.000  
C01  36991494.557   192624385.451         465.000          36.000  
C04  38340791.282   199650617.320         445.000          35.000  
C06  37243167.931   193934885.637        1548.000          26.000  
C16  37371104.900   194601136.774        1414.000          25.000  
C23  23636128.482   123079459.256        1305.000          32.000  
C37  24564184.756   127912036.790        3362.000          30.000  
C39  36549473.753   190322631.941        1244.000          25.000  
C41  25020368.610   130287647.241       -1202.000          27.000  
C59  37035610.548   192854153.346         478.000          40.000  
> 2024 08 26 05 22 54.6000000  0 15                     
R11  22005451.799   117590487.659         114.505          33.000  
R12  21805222.778   116479484.209        3635.458          36.000  
E10  25991276.418   136585024.187       -2357.234          26.000    25991315.891   101995478.288       -1760.354          37.000  
E31  27877448.036   146496974.206        2689.847          31.000    27877481.527   109397301.414        2008.665          33.000  
J02  37798152.282   198630582.040         678.548          30.000    37798184.927   148328200.373         506.263          32.000  
J03  36558407.893   192115748.700         490.041          27.000    36558420.750   143463092.055         365.944          39.000  
C01  36991485.670   192624339.073         463.772          36.000  
C04  38340782.735   199650572.866         444.531          35.000  
C06  37243138.195   193934730.890        1547.474          26.000  
C16  37371077.739   194600995.478        1412.956          25.000  
C23  23636103.402   123079328.668        1305.887          32.000  
C37  24564120.168   127911700.334        3364.564          30.000  
C39  36549449.851   190322507.521        1244.206          26.000  
C41  25020391.674   130287767.494       -1202.528          27.000  
C59  37035601.294   192854105.286         480.594          40.000  
> 2024 08 26 05 22 54.8000000  0 18                     
G18                              3        867.999          59.000                                                                  
G23                              3       3034.873          52.000                                                                  
G24  20418564.395   107300249.706        2190.881          24.000    20418572.135    80126871.450        1636.199          38.000  
R11  22005447.410   117590464.848         114.100          33.000  
R12  21805086.876   116478757.237        3635.404          36.000  
E10  25991366.602   136585495.612       -2355.940          26.000    25991405.608   101995830.366       -1760.556          37.000  
E31  27877346.519   146496436.561        2688.719          30.000    27877379.195   109396899.973        2007.666          33.000  
J02  37798126.483   198630446.251         679.013          30.000    37798159.057   148328098.988         507.390          32.000  
J03  36558389.248   192115650.732         489.931          27.000    36558402.126   143463018.919         365.583          38.000  
C01  36991467.879   192624246.242         464.228          36.000  
C04  38340765.643   199650483.939         444.294          35.000  
C06  37243078.747   193934421.505        1546.781          26.000  
C16  37371023.482   194600713.182        1410.584          25.000  
C23  23636053.237   123079067.460        1306.030          32.000  
C37  24563991.058   127911027.728        3363.246          30.000  
C39  36549402.133   190322259.050        1242.948          26.000  
C41  25020437.852   130288008.198       -1203.549          27.000  
C59  37035582.789   192854009.037         481.264          40.000  
> 2024 08 26 05 22 55.1000000  0 18                     
G18                              3        867.164          59.000                                                                  
G23                              3       3034.616          52.000                                                                  
G24  20418439.434   107299593.521        2186.735          24.000    20418447.117    80126380.640        1635.883          38.000  
R11  22005440.793   117590430.724         113.239          33.000  
R12  21804882.997   116477666.831        3634.558          36.000  
E10  25991502.320   136586202.945       -2357.543          25.000    25991540.214   101996358.519       -1760.402          37.000  
E31  27877193.419   146495629.984        2689.508          30.000    27877225.649   109396297.652        2007.950          33.000  
J02  37798087.813   198630242.727         678.234          30.000    37798120.262   148327946.986         507.070          32.000  
J03  36558361.288   192115503.865         489.537          27.000    36558374.179   143462909.226         365.586          38.000  
C01  36991441.176   192624107.065         464.071          37.000  
C04  38340739.978   199650350.500         444.761          35.000  
C06  37242989.616   193933957.383        1547.246          25.000  
C16  37370942.103   194600289.595        1410.401          24.000  
C23  23635977.965   123078675.713        1305.882          31.000  
C37  24563797.378   127910018.802        3363.391          30.000  
C39  36549330.561   190321886.232        1243.127          26.000  
C41  25020507.107   130288369.185       -1203.325          27.000  
C59  37035555.060   192853864.759         480.805          40.000  
> 2024 08 26 05 22 55.2000000  0 19                     
G15                              3       -861.053          31.000                                                                  
G18                                       867.965          60.000                                                                  
G23                                      3035.021          52.000                                                                  
R11  22005438.581   117590419.355         113.696          33.000  
R12  21804815.007   116477303.364        3634.668          36.000  
E10  25991547.469   136586438.846       -2359.016          25.000    25991585.091   101996534.588       -1760.693          37.000  
E31  27877142.255   146495361.113        2688.715          29.000    27877174.477   109396096.912        2007.401          33.000  
J02  37798074.913   198630174.816         679.109          30.000    37798107.327   148327896.218         507.674          32.000  
J03  36558351.974   192115454.930         489.352          27.000    36558364.874   143462872.669         365.572          38.000  
J06                              3       -861.218          30.000                                                                  
C01  36991432.263   192624060.669         463.947          37.000  
C04  38340731.436   199650306.051         444.488          35.000  
C06  37242959.916   193933802.759        1546.248          26.000  
C16  37370914.999   194600148.439        1411.552          24.000  
C23  23635952.876   123078545.152        1305.613          31.000  
C37  24563732.830   127909682.523        3362.793          30.000  
C39  36549306.728   190321762.068        1241.630          26.000  
C41  25020530.199   130288489.488       -1203.029          27.000  
C59  37035545.824   192853816.698         480.606          39.000  
> 2024 08 26 05 22 55.3000000  0 17                     
G15                              3       -860.987          31.000                                                                  
R11  22005436.347   117590407.936         114.185          33.000  
R12  21804747.037   116476939.904        3634.597          36.000  
E10  25991592.447   136586674.511       -2361.908          26.000    25991629.982   101996710.650       -1764.534          38.000  
E31  27877090.991   146495092.364        2687.486          29.000    27877123.300   109395896.156        2007.568          33.000  
J02  37798062.038   198630106.9881                         30.000    37798094.452   148327845.6481                         32.000  
J03  36558342.639   192115406.0131                         27.000    36558355.559   143462836.1401                         38.000  
J06                              4                         30.000                                                                  
C01  36991423.363   192624014.292         463.771          37.000  
C04  38340722.885   199650261.583         444.682          35.000  
C06  37242930.220   193933648.098        1546.607          26.000  
C16  37370887.855   194600007.156        1412.834          24.000  
C23  23635927.778   123078414.567        1305.842          31.000  
C37  24563668.273   127909346.229        3362.945          30.000  
C39  36549282.856   190321637.696        1243.725          26.000  
C41  25020553.303   130288609.877       -1203.887          27.000  
C59  37035536.576   192853768.575         481.231          39.000  
> 2024 08 26 05 22 55.7000000  0 13                     
E10  25991862.938   136588091.657       -2358.704          26.000    25991899.684   101997768.866       -1761.153          38.000  
E31  27876975.789   146494490.859        2688.663          30.000    27877008.783   109395447.073        2007.201          33.000  
J02  37798100.626   198630309.507         677.736          31.000    37798132.931   148327996.783         506.624          32.000  
J03  36558395.573   192115684.184         489.011          27.000    36558408.513   143463043.845         365.342          38.000  
J06                              3       -861.264          31.000                                                                  
C01  36991477.953   192624298.374         464.000          36.000  
C06  37242901.592   193933499.034        1547.006          26.000  
C16  37370869.558   194599912.238        1409.839          24.000  
C23  23635917.653   123078362.081        1304.431          31.000  
C37  24563500.254   127908470.696        3363.070          30.000  
C39  36549277.686   190321610.462        1246.843          26.000  
C41  25020735.797   130289560.857       -1203.233          27.000  
C59  37035589.817   192854045.872         480.730          40.000  
> 2024 08 26 05 22 55.9000000  0 16                     
G15                              3       -860.812          31.000                                                                  
R11  22005513.359   117590821.975         113.165          33.000  
R12  21804429.020   116475241.039        3634.598          36.000  
E10  25991952.755   136588563.220       -2357.884          25.000    25991989.457   101998121.019       -1761.141          38.000  
E31  27876874.032   146493953.269        2688.792          30.000    27876906.437   109395045.601        2006.912          33.000  
J02  37798074.804   198630173.773         678.398          30.000    37798107.074   148327895.494         506.853          32.000  
J03  36558376.937   192115586.310         489.204          27.000    36558389.889   143462970.749         365.661          38.000  
J06                              3       -860.504          30.000                                                                  
C01  36991460.136   192624205.612         463.935          36.000  
C06  37242842.179   193933189.712        1546.230          25.000  
C16  37370815.270   194599629.827        1411.963          24.000  
C23  23635867.510   123078101.046        1309.601          32.000  
C37  24563371.161   127907798.149        3363.485          30.000  
C39  36549229.999   190321362.002        1242.330          26.000  
C41  25020782.005   130289801.619       -1203.606          27.000  
C59  37035571.341   192853949.739         480.763          40.000  
> 2024 08 26 05 22 56.0000000  0 16                     
G15                              3       -860.569          31.000                                                                  
R11  22005511.147   117590810.701         112.746          33.000  
R12  21804360.964   116474877.634        3634.058          35.000  
E10  25991997.432   136588798.897       -2362.019          25.000    25992034.339   101998297.070       -1764.438          38.000  
E31  27876822.882   146493684.406        2688.642          30.000    27876855.256   109394844.832        2007.695          33.000  
J02  37798061.887   198630105.886         678.867          30.000    37798094.139   148327844.803         506.911          32.000  
J03  36558367.614   192115537.360         489.502          27.000    36558380.593   143462934.249         364.997          38.000  
J06                              3       -860.938          30.000                                                                  
C01  36991451.223   192624159.226         463.853          37.000  
C06  37242812.483   193933035.022        1546.896          26.000  
C16  37370788.118   194599488.614        1412.123          24.000  
C23  23635842.425   123077970.423        1306.232          32.000  
C37  24563306.609   127907461.859        3362.900          30.000  
C39  36549206.141   190321237.721        1242.816          26.000  
C41  25020805.097   130289921.935       -1203.155          27.000  
C59  37035562.101   192853901.627         481.126          40.000  
> 2024 08 26 05 22 56.1000000  0 16                     
G15                              3       -861.088          31.000                                                                  
R11  22005508.926   117590799.402         112.989          33.000  
R12  21804292.892   116474514.186        3634.483          35.000  
E10  25992042.170   136589034.880       -2359.834          25.000    25992079.221   101998473.163       -1760.935          37.000  
E31  27876771.443   146493415.681        2687.247          30.000    27876804.075   109394644.081        2007.511          33.000  
J02  37798048.982   198630038.085         678.015          30.000    37798081.217   148327794.149         506.533          32.000  
J03  36558358.291   192115488.409         489.511          27.000    36558371.265   143462897.654         365.957          38.000  
J06                              3       -860.947          30.000                                                                  
C01  36991442.320   192624112.873         463.537          36.000  
C06  37242782.761   193932880.312        1547.109          26.000  
C16  37370760.974   194599347.514        1411.004          24.000  
C23  23635817.363   123077839.968        1304.546          31.000  
C37  24563242.082   127907125.749        3366.302          30.000  
C39  36549182.300   190321113.541        1247.011          26.000  
C41  25020828.179   130290042.260       -1203.255          27.000  
C59  37035552.862   192853853.518         481.086          40.000  
> 2024 08 26 05 22 56.3000000  0 16                     
G15                              3       -860.651          32.000                                                                  
R11  22005504.498   117590776.853         112.831          33.000  
R12  21804156.705   116473787.312        3634.327          36.000  
E10  25992131.414   136589506.407       -2359.124          25.000    25992168.988   101998825.275       -1760.325          37.000  
E31  27876668.468   146492877.915        2686.648          30.000    27876701.702   109394242.531        2008.000          33.000  
J02  37798023.147   198629902.255         679.178          30.000    37798055.312   148327692.737         507.129          31.000  
J03  36558339.646   192115390.522         489.603          27.000    36558352.654   143462824.567         365.682          39.000  
J06                              3       -861.215          30.000                                                                  
C01  36991424.489   192624020.020         464.245          36.000  
C04  38340727.632   199650286.590         444.971          36.000  
C06  37242723.369   193932570.977        1547.372          26.000  
C23  23635767.219   123077578.899        1305.121          32.000  
C37  24563112.946   127906453.041        3362.685          29.000  
C39  36549134.599   190320864.997        1242.639          25.000  
C41  25020874.374   130290282.945       -1203.173          27.000  
C59  37035534.399   192853757.343         480.872          40.000  
> 2024 08 26 05 22 56.5000000  0 16                     
G15                              3       -859.000          32.000                                                                  
R11  22005600.884   117591292.896         111.000          33.000  
R12  21804121.386   116473598.887        3633.000          36.000  
E10  25992321.138   136590507.631       -2356.000          25.000    25992359.536   101999572.960       -1760.000          37.000  
E31  27876666.414   146492869.776        2688.000          30.000    27876700.114   109394236.541        2010.000          33.000  
J02  37798098.126   198630296.176         677.000          30.000    37798130.200   148327986.922         508.000          32.000  
J03  36558421.797   192115822.327         495.255          27.000    36558434.823   143463147.011         371.924          39.000  
J06                              3       -860.000          30.000                                                                  
C01  36991507.474   192624452.095         466.000          36.000  
C04  38340811.354   199650722.517         445.000          36.000  
C06  37242764.770   193932786.577        1547.000          26.000  
C23  23635817.860   123077842.690        1305.000          31.000  
C37  24563084.633   127906305.370        3364.000          29.000  
C39  36549187.696   190321141.463        1242.000          26.000  
C41  25021021.366   130291048.482       -1202.000          27.000  
C59  37035616.712   192854185.984         481.000          40.000  
> 2024 08 26 05 22 56.7000000  0 16                     
G15                              3       -861.045          31.000                                                                  
R11  22005596.487   117591270.373         112.408          33.000  
R12  21803985.296   116472872.041        3634.461          36.000  
E10  25992409.828   136590979.102       -2362.020          25.000    25992449.265   101999925.103       -1764.811          37.000  
E31  27876563.973   146492332.084        2689.426          30.000    27876597.734   109393834.985        2007.852          32.000  
J02  37798072.304   198630160.373         679.689          31.000    37798104.286   148327885.491         507.343          31.000  
J03  36558403.143   192115724.382         489.624          27.000    36558416.187   143463073.887         365.554          39.000  
J06                              3       -860.894          30.000                                                                  
C01  36991489.640   192624359.247         464.259          37.000  
C04  38340794.270   199650633.536         444.853          35.000  
C06  37242705.304   193932477.079        1547.762          26.000  
C23  23635767.721   123077581.650        1305.597          31.000  
C37  24562955.510   127905632.774        3362.804          29.000  
C39  36549139.987   190320892.895        1242.574          25.000  
C41  25021067.539   130291289.066       -1202.855          27.000  
C59  37035598.232   192854089.773         481.004          40.000  
> 2024 08 26 05 22 56.9000000  0 16                     
G15                              3       -860.263          31.000                                                                  
R11  22005592.020   117591247.830         113.215          33.000  
R12  21803849.241   116472145.202        3634.183          36.000  
E10  25992497.821   136591450.785       -2358.298          25.000    25992539.021   102000277.215       -1760.428          37.000  
E31  27876461.710   146491794.374        2688.851          30.000    27876495.376   109393433.509        2007.369          33.000  
J02  37798046.517   198630024.637         679.362          31.000    37798078.430   148327784.087         507.647          31.000  
J03  36558384.492   192115626.490         489.173          27.000    36558397.532   143463000.753         365.566          39.000  
J06                              3       -860.966          31.000                                                                  
C01  36991471.806   192624266.450         463.948          37.000  
C04  38340777.203   199650544.568         444.929          35.000  
C06  37242645.851   193932167.764        1546.990          26.000  
C23  23635717.612   123077320.630        1305.328          32.000  
C37  24562826.378   127904960.138        3363.116          29.000  
C39  36549092.313   190320644.455        1242.377          26.000  
C41  25021113.725   130291529.752       -1203.687          27.000  
C59  37035579.757   192853993.489         481.598          40.000  
> 2024 08 26 05 22 57.1000000  0 15                     
R11  22005587.622   117591225.393         112.333          33.000  
R12  21803713.248   116471418.360        3634.559          36.000  
E10  25992585.774   136591922.254       -2357.008          25.000    25992628.776   102000629.362       -1760.759          37.000  
E31  27876359.892   146491256.626        2688.267          30.000    27876392.969   109393031.874        2007.846          33.000  
J02  37798020.660   198629888.808         679.623          30.000    37798052.590   148327682.681         507.461          31.000  
J03  36558365.847   192115528.568         489.408          26.000    36558378.874   143462927.628         365.924          38.000  
J06                              3       -860.087          30.000                                                                  
C01  36991453.972   192624173.564         464.583          36.000  
C04  38340760.128   199650455.597         445.201          35.000  
C06  37242586.416   193931858.432        1545.771          26.000  
C23  23635667.499   123077059.678        1299.747          32.000  
C37  24562697.247   127904287.520        3362.347          29.000  
C39  36549044.604   190320395.861        1243.264          26.000  
C41  25021159.881   130291770.303       -1202.945          27.000  
C59  37035561.294   192853897.284         481.018          40.000  
> 2024 08 26 05 22 57.4000000  0 16                     
G15                              3       -860.440          31.000                                                                  
R11  22005581.100   117591191.724         113.081          33.000  
R12  21803509.280   116470328.235        3633.723          36.000  
E10  25992718.605   136592629.727       -2357.954          24.000    25992763.391   102001157.623       -1760.998          37.000  
E31  27876206.514   146490450.026        2689.008          30.000    27876239.421   109392429.614        2007.485          33.000  
J02  37797981.920   198629685.212         678.442          28.000    37798013.780   148327530.562         508.154          32.000  
J03  36558337.901   192115381.748         488.710          27.000    36558350.909   143462818.020         365.052          39.000  
J06                              3       -860.077          30.000                                                                  
C01  36991427.242   192624034.411         463.872          36.000  
C04  38340734.520   199650322.143         444.809          35.000  
C06  37242497.179   193931394.308        1547.433          26.000  
C23  23635592.293   123076668.200        1304.452          31.000  
C37  24562503.562   127903278.665        3363.199          29.000  
C39  36548973.062   190320023.241        1242.140          26.000  
C41  25021229.124   130292131.359       -1203.936          27.000  
C59  37035533.609   192853752.953         481.497          40.000  
> 2024 08 26 05 22 57.6000000  0 14                     
G15                              3       -860.728          31.000                                                                  
E10  25992897.376   136593575.2501                         24.000    25992943.300   102001863.6771                         37.000  
E31  27876195.386   146490386.1911                         30.000    27876227.246   109392381.9881                         33.000  
J02  37798046.264   198630023.346         679.254          28.000    37798078.106   148327783.133         507.432          32.000  
J03  36558409.442   192115757.744         489.876          27.000    36558422.451   143463098.852         364.335          39.000  
J06                              3       -860.689          29.000                                                                  
C01  36991499.591   192624411.200         464.300          36.000  
C04  38340807.624   199650702.840         444.833          35.000  
C06  37242527.896   193931554.668        1546.130          26.000  
C23  23635632.376   123076876.931        1304.572          31.000  
C37  24562464.636   127903075.764        3362.609          29.000  
C39  36549015.549   190320244.453        1241.610          26.000  
C41  25021365.484   130292841.630       -1203.290          27.000  
C59  37035605.317   192854126.350         481.411          40.000  
> 2024 08 26 05 22 57.7000000  0 16                     
G15                              3       -861.054          31.000                                                                  
R11  22005664.766   117591640.179         111.628          33.000  
R12  21803395.510   116469719.805        3633.981          36.000  
E10  25992941.602   136593810.958       -2357.086          24.000    25992988.185   102002039.764       -1760.884          37.000  
E31  27876144.412   146490117.455        2692.580          29.000    27876176.054   109392181.182        2011.964          33.000  
J02  37798033.347   198629955.453         678.930          28.000    37798065.189   148327732.473         506.605          32.000  
J03  36558400.132   192115708.812         489.314          27.000    36558413.115   143463062.222         366.300          38.000  
J06                              3       -860.934          29.000                                                                  
C01  36991490.678   192624364.787         464.120          37.000  
C04  38340799.087   199650658.337         445.023          35.000  
C06  37242498.165   193931400.020        1546.478          26.000  
C23  23635607.318   123076746.435        1304.966          31.000  
C37  24562400.078   127902739.445        3363.188          29.000  
C39  36548991.690   190320120.163        1242.906          26.000  
C41  25021388.570   130292961.929       -1202.990          27.000  
C59  37035596.081   192854078.235         481.155          40.000  
> 2024 08 26 05 22 57.8000000  0 16                     
G15                              3       -860.975          30.000                                                                  
R11  22005662.589   117591628.994         111.852          33.000  
R12  21803327.550   116469356.408        3633.969          36.000  
E10  25992985.942   136594046.866       -2359.091          24.000    25993033.050   102002215.817       -1760.533          38.000  
E31  27876093.165   146489848.425        2690.296          29.000    27876124.881   109391980.404        2007.784          33.000  
J02  37798020.429   198629887.547         679.054          28.000    37798052.236   148327681.723         507.502          32.000  
J03  36558390.805   192115659.826         489.860          27.000    36558403.806   143463025.691         365.308          38.000  
J06                              3       -860.937          29.000                                                                  
C01  36991481.761   192624318.360         464.277          37.000  
C04  38340790.540   199650613.849         444.886          35.000  
C06  37242468.431   193931245.340        1546.808          26.000  
C23  23635582.269   123076615.984        1304.514          32.000  
C37  24562335.521   127902403.193        3362.519          29.000  
C39  36548967.818   190319995.859        1243.032          26.000  
C41  25021411.662   130293082.266       -1203.359          27.000  
C59  37035586.841   192854030.144         480.903          40.000  
> 2024 08 26 05 22 57.9000000  0 16                     
G15                              3       -861.035          30.000                                                                  
R11  22005660.403   117591617.831         111.632          33.000  
R12  21803259.572   116468993.072        3633.351          36.000  
E10  25993030.283   136594282.660       -2357.938          24.000    25993077.914   102002391.940       -1761.229          38.000  
E31  27876041.735   146489579.663        2692.878          29.000    27876073.695   109391779.611        2011.855          33.000  
J02  37798007.507   198629819.656         678.908          28.000    37798039.315   148327631.032         506.903          32.000  
J03  36558381.487   192115610.928         488.982          27.000    36558394.478   143462989.140         365.512          38.000  
J06                              3       -861.349          29.000                                                                  
C01  36991472.844   192624271.952         464.074          37.000  
C04  38340781.993   199650569.360         444.883          35.000  
C06  37242438.678   193931090.617        1547.239          26.000  
C23  23635557.206   123076485.502        1304.826          32.000  
C37  24562270.955   127902066.884        3363.082          29.000  
C39  36548943.977   190319871.714        1241.464          26.000  
C41  25021434.744   130293202.586       -1203.205          27.000  
C59  37035577.593   192853982.011         481.332          40.000  
> 2024 08 26 05 22 58.0000000  0 16                     
G15                              3       -861.093          30.000                                                                  
R11  22005658.261   117591606.732         110.984          33.000  
R12  21803191.599   116468629.691        3633.815          36.000  
E10  25993074.638   136594518.393       -2357.331          24.000    25993122.766   102002567.998       -1760.569          38.000  
E31  27875990.235   146489310.750        2689.138          29.000    27876022.531   109391578.873        2007.383          32.000  
J02  37797994.590   198629751.791         678.654          29.000    37798026.397   148327580.338         506.936          32.000  
J03  36558372.177   192115561.988         489.396          27.000    36558385.164   143462952.572         365.676          38.000  
J06                              3       -860.975          29.000                                                                  
C01  36991463.927   192624225.539         464.136          37.000  
C04  38340773.460   199650524.903         444.571          35.000  
C06  37242408.947   193930935.977        1546.396          26.000  
C23  23635532.165   123076355.118        1303.840          32.000  
C37  24562206.402   127901730.627        3362.579          29.000  
C39  36548920.105   190319747.416        1242.973          26.000  
C41  25021457.853   130293322.962       -1203.758          27.000  
C59  37035568.357   192853933.905         481.061          40.000  
> 2024 08 26 05 22 58.2000000  0 16                     
G15                              3       -860.902          30.000                                                                  
R11  22005653.955   117591584.368         111.289          33.000  
R12  21803055.649   116467902.905        3633.674          37.000  
E10  25993163.992   136594990.072       -2359.050          24.000    25993212.486   102002920.156       -1760.788          38.000  
E31  27875887.118   146488772.971        2688.517          29.000    27875920.147   109391177.283        2007.351          32.000  
J02  37797968.785   198629615.990         678.913          29.000    37798000.540   148327478.879         507.521          32.000  
J03  36558353.540   192115464.043         489.770          27.000    36558366.523   143462879.467         365.364          38.000  
J06                              3       -860.103          30.000                                                                  
C01  36991446.128   192624132.696         464.064          37.000  
C04  38340756.368   199650435.883         444.919          35.000  
C06  37242349.442   193930626.557        1546.980          26.000  
C23  23635482.026   123076094.094        1305.387          31.000  
C37  24562077.263   127901058.005        3363.081          29.000  
C39  36548872.388   190319498.966        1242.561          26.000  
C41  25021504.026   130293563.565       -1203.287          27.000  
C59  37035549.868   192853837.639         480.991          40.000  
> 2024 08 26 05 22 58.3000000  0 16                     
G15                              3       -860.909          30.000                                                                  
R11  22005651.831   117591573.274         110.942          33.000  
R12  21802987.706   116467539.574        3633.305          37.000  
E10  25993208.808   136595225.811       -2357.390          24.000    25993257.359   102003096.270       -1761.141          38.000  
E31  27875835.513   146488504.101        2688.682          28.000    27875868.969   109390976.505        2007.774          32.000  
J02  37797955.867   198629548.032         679.575          29.000    37797987.640   148327428.235         506.432          32.000  
J03  36558344.226   192115415.089         489.539          27.000    36558357.222   143462842.927         365.402          38.000  
J06                              3       -861.370          31.000                                                                  
C01  36991437.215   192624086.275         464.207          37.000  
C04  38340747.830   199650391.383         444.993          35.000  
C06  37242319.706   193930471.888        1546.680          25.000  
C23  23635456.994   123075963.759        1303.353          31.000  
C37  24562012.705   127900721.702        3363.027          29.000  
C39  36548848.521   190319374.732        1242.328          26.000  
C41  25021527.112   130293683.876       -1203.107          27.000  
C59  37035540.625   192853789.528         481.103          40.000  
> 2024 08 26 05 22 58.4000000  0 16                     
G15                              3       -860.085          30.000                                                                  
R11  22005649.685   117591562.118         111.565          33.000  
R12  21802919.755   116467176.153        3634.208          37.000  
E10  25993253.576   136595461.507       -2356.959          25.000    25993302.206   102003272.318       -1760.479          38.000  
E31  27875784.165   146488235.222        2688.805          28.000    27875817.775   109390775.704        2008.014          32.000  
J02  37797942.946   198629480.172         678.603          29.000    37797974.700   148327377.476         507.598          32.000  
J03  36558334.908   192115366.144         489.455          27.000    36558347.899   143462806.347         365.807          38.000  
J06                              3       -860.090          31.000                                                                  
C01  36991428.293   192624039.863         464.114          37.000  
C04  38340739.297   199650346.903         444.795          35.000  
C06  37242289.971   193930317.256        1546.326          25.000  
C23  23635431.917   123075833.221        1305.373          31.000  
C37  24561948.143   127900385.452        3362.503          29.000  
C39  36548824.640   190319250.451        1242.818          26.000  
C41  25021550.194   130293804.158       -1202.828          27.000  
C59  37035531.385   192853741.431         480.969          40.000  
> 2024 08 26 05 22 58.8000000  0 16                     
G15                              3       -861.073          29.000                                                                  
R11  22005731.365   117591999.676         110.918          34.000  
R12  21802738.370   116466204.577        3633.293          37.000  
E10  25993523.383   136596878.770       -2358.122          25.000    25993571.868   102004330.639       -1760.958          38.000  
E31  27875669.025   146487633.685        2688.314          28.000    27875703.228   109390326.496        2008.066          32.000  
J02  37797981.493   198629682.515         678.686          28.000    37798013.283   148327528.643         506.352          32.000  
J03  36558387.817   192115644.362         489.081          28.000    36558400.865   143463014.083         365.661          38.000  
J06                              3       -861.226          32.000                                                                  
C01  36991482.834   192624323.858         463.967          37.000  
C04  38340795.344   199650638.612         444.694          35.000  
C06  37242261.274   193930168.250        1546.650          25.000  
C23  23635421.931   123075781.276        1303.709          31.000  
C37  24561780.138   127899510.012        3362.334          29.000  
C39  36548819.326   190319223.301        1242.057          26.000  
C41  25021732.768   130294755.137       -1202.636          27.000  
C59  37035584.581   192854018.612         480.705          40.000  
> 2024 08 26 05 22 59.0000000  0 16                     
G15                              3       -861.313          30.000                                                                  
R11  22005727.164   117591977.597         109.724          33.000  
R12  21802602.654   116465477.938        3633.283          37.000  
E10  25993613.086   136597350.506       -2358.752          25.000    25993661.606   102004682.838       -1760.792          37.000  
E31  27875566.955   146487095.917        2689.017          28.000    27875600.873   109389924.962        2007.941          33.000  
J02  37797955.688   198629546.735         678.912          28.000    37797987.461   148327427.254         506.163          32.000  
J03  36558369.171   192115546.482         489.387          28.000    36558382.250   143462941.038         365.091          38.000  
J06                              3       -861.313          31.000                                                                  
C01  36991465.018   192624231.052         463.949          37.000  
C04  38340778.268   199650549.667         444.507          35.000  
C06  37242201.826   193929858.898        1546.913          25.000  
C23  23635371.819   123075520.424        1304.052          31.000  
C37  24561651.045   127898837.465        3362.652          30.000  
C39  36548771.570   190318974.896        1247.010          25.000  
C41  25021778.958   130294995.843       -1203.756          27.000  
C59  37035566.071   192853922.314         481.354          40.000  
> 2024 08 26 05 22 59.2000000  0 16                     
G15                              3       -861.347          30.000                                                                  
R11  22005722.928   117591955.441         109.994          34.000  
R12  21802466.892   116464751.276        3633.323          37.000  
E10  25993702.466   136597822.077       -2357.038          25.000    25993751.327   102005035.051       -1761.335          37.000  
E31  27875465.307   146486558.143        2689.255          28.000    27875498.523   109389523.423        2007.565          33.000  
J02  37797929.867   198629410.915         678.813          28.000    37797961.656   148327325.811         506.482          32.000  
J03  36558350.521   192115448.627         489.144          28.000    36558363.622   143462867.915         365.352          38.000  
J06                              3       -860.791          31.000                                                                  
C01  36991447.218   192624138.204         464.162          36.000  
C04  38340761.167   199650460.648         445.136          35.000  
C06  37242142.373   193929549.685        1546.358          25.000  
C23  23635321.728   123075259.657        1304.034          31.000  
C37  24561521.958   127898164.927        3362.893          29.000  
C39  36548723.799   190318726.411        1242.624          25.000  
C41  25021825.149   130295236.537       -1204.190          27.000  
C59  37035547.591   192853826.133         481.301          40.000  
> 2024 08 26 05 22 59.6000000  0 17                     
G15                              3       -860.658          30.000                                                                  
R11  22005804.551   117592393.202         110.373          33.000  
R12  21802285.515   116463779.775        3633.492          37.000  
E10  25993971.614   136599239.398       -2358.126          24.000    25994020.976   102006093.389       -1760.882          37.000  
E31  27875350.122   146485956.567        2689.010          28.000    27875384.011   109389074.194        2007.703          33.000  
J02  37797968.392   198629613.289         678.956          28.000    37798000.234   148327476.934         506.479          32.000  
J03  36558403.430   192115726.872         488.857          27.000    36558416.592   143463075.693         365.300          38.000  
J06                              3       -861.056          30.000                                                                  
C01  36991501.790   192624422.235         463.570          37.000  
C04  38340817.174   199650752.391         444.738          35.000  
C06  37242113.567   193929400.610        1547.617          25.000  
C16  37370182.080   194596340.281        1412.234          25.000  
C23  23635311.737   123075207.742        1304.003          31.000  
C37  24561354.003   127897289.588        3362.276          29.000  
C39  36548718.468   190318699.168        1236.789          25.000  
C41  25022007.713   130296187.506       -1204.050          27.000  
C59  37035600.815   192854103.310         482.053          40.000  
> 2024 08 26 05 23 00.0000000  0 17                     
G15                              3       -861.247          30.000                                                                  
R11  22005796.065   117592349.244         109.659          34.000  
R12  21802013.932   116462326.605        3633.054          37.000  
E10  25994150.845   136600182.849       -2358.818          25.000    25994200.473   102006797.894       -1761.314          37.000  
E31  27875145.309   146484881.175        2688.126          29.000    27875179.324   109388271.091        2007.396          33.000  
J02  37797916.700   198629341.683         678.956          30.000    37797948.612   148327274.081         507.315          32.000  
J03  36558366.192   192115531.157         488.866          26.000    36558379.366   143462929.540         365.276          39.000  
J06                              3       -860.974          30.000                                                                  
C01  36991466.161   192624236.570         463.984          37.000  
C04  38340783.006   199650574.469         444.688          35.000  
C06  37241994.578   193928782.034        1546.708          25.000  
C16  37370073.645   194595775.822        1410.822          25.000  
C23  23635211.604   123074686.310        1303.461          32.000  
C37  24561095.853   127895944.521        3362.757          29.000  
C39  36548622.963   190318202.379        1242.236          25.000  
C41  25022100.029   130296668.757       -1203.496          27.000  
C59  37035563.855   192853910.904         480.724          41.000  
> 2024 08 26 05 23 00.1000000  0  9                     
C01  36991457.261   192624190.252         463.178          37.000  
C04  38340774.468   199650530.013         444.558          35.000  
C06  37241964.825   193928627.432        1546.022          25.000  
C16  37370046.536   194595634.732        1410.898          25.000  
C23  23635186.563   123074556.000        1303.106          31.000  
C37  24561031.327   127895608.319        3362.035          29.000  
C39  36548599.092   190318078.237        1241.415          25.000  
C41  25022123.129   130296789.155       -1203.985          27.000  
C59  37035554.611   192853862.806         480.973          40.000  
> 2024 08 26 05 23 00.4000000  0 16                     
G15                              3       -863.152          30.000                                                                  
R11  22005787.720   117592305.933         107.444          34.000  
R12  21801742.153   116460874.103        3630.363          36.000  
E10  25994329.344   136601126.792       -2360.832          24.000    25994380.058   102007502.767       -1762.670          37.000  
E31  27874940.709   146483806.122        2687.001          29.000    27874974.750   109387468.442        2005.517          33.000  
J02  37797865.109   198629070.619         677.047          30.000    37797897.112   148327071.658         505.856          32.000  
J03  36558329.049   192115335.937         487.470          26.000    36558342.254   143462783.830         363.891          39.000  
J06                              3       -863.233          28.000                                                                  
C01  36991430.601   192624051.467         462.306          37.000  
C04  38340748.952   199650397.070         442.621          35.000  
C06  37241875.695   193928164.000        1544.867          26.000  
C16  37369965.266   194595211.713        1408.687          24.000  
C23  23635111.518   123074165.470        1301.887          31.000  
C37  24560837.786   127894599.935        3360.707          29.000  
C41  25022192.480   130297150.620       -1204.345          27.000  
C59  37035526.970   192853718.972         479.514          40.000  
> 2024 08 26 05 23 00.6000000  0 16                     
G15                              3       -862.639          30.000                                                                  
R11  22005879.050   117592794.809         106.942          34.000  
R12  21801701.796   116460658.106        3630.701          36.000  
E10  25994514.054   136602100.796       -2360.867          24.000    25994565.375   102008230.072       -1762.798          37.000  
E31  27874933.908   146483770.716        2686.218          30.000    27874967.979   109387441.894        2005.977          33.000  
J02  37797934.853   198629437.125         676.391          30.000    37797966.857   148327345.283         505.822          32.000  
J03  36558406.022   192115740.436         486.852          26.000    36558419.210   143463085.863         363.339          38.000  
J06                              3       -863.425          28.000                                                                  
C01  36991508.347   192624456.368         462.010          37.000  
C04  38340827.460   199650805.793         442.779          35.000  
C06  37241911.825   193928352.532        1543.917          26.000  
C16  37370006.614   194595427.194        1409.048          24.000  
C23  23635157.016   123074402.539        1301.281          31.000  
C37  24560804.317   127894425.277        3359.024          29.000  
C41  25022334.272   130297889.106       -1206.461          27.000  
C59  37035604.082   192854120.496         478.745          40.000  
> 2024 08 26 05 23 00.8000000  0 16                     
G15                              3       -863.416          29.000                                                                  
R11  22005874.962   117592773.396         106.962          34.000  
R12  21801565.976   116459932.058        3630.511          36.000  
E10  25994603.796   136602572.834       -2359.862          23.000    25994655.204   102008582.663       -1762.635          37.000  
E31  27874831.702   146483233.411        2686.627          30.000    27874865.726   109387040.640        2006.618          33.000  
J02  37797909.088   198629301.725         676.787          30.000    37797941.144   148327244.237         506.117          32.000  
J03  36558387.494   192115643.043         487.282          26.000    36558400.664   143463013.157         362.947          38.000  
J06                              3       -863.740          28.000                                                                  
C01  36991490.626   192624363.998         461.776          37.000  
C04  38340810.481   199650717.298         442.573          35.000  
C06  37241852.468   193928043.598        1544.668          26.000  
C16  37369952.466   194595145.363        1409.220          24.000  
C23  23635107.024   123074142.415        1300.275          32.000  
C37  24560675.343   127893753.292        3359.899          29.000  
C41  25022380.502   130298130.186       -1205.568          27.000  
C59  37035585.690   192854024.680         479.275          40.000  
> 2024 08 26 05 23 01.2000000  0 18                     
G15                                      -864.000          28.000                                                                  
G18                              3        862.696          61.000                                                                  
G23                              3       3033.726          54.000                                                                  
R11  22005866.865   117592730.639         106.826          34.000  
R12  21801294.159   116458479.953        3630.208          36.000  
E10  25994781.814   136603517.298       -2360.767          23.000    25994834.885   102009287.856       -1763.189          37.000  
E31  27874626.557   146482158.704        2686.231          29.000    27874661.222   109386238.123        2007.069          33.000  
J02  37797857.553   198629030.932         677.070          29.000    37797889.626   148327042.106         504.896          32.000  
J03  36558350.439   192115448.217         487.136          26.000    36558363.518   143462867.651         363.454          38.000  
J06                                      -863.635          28.000                                                                  
C01  36991455.119   192624179.188         461.816          36.000  
C04  38340776.492   199650540.180         443.042          36.000  
C06  37241733.763   193927425.952        1543.797          26.000  
C16  37369844.196   194594581.769        1407.652          25.000  
C23  23635006.996   123073621.990        1301.325          32.000  
C37  24560417.328   127892409.063        3360.452          28.000  
C41  25022472.971   130298612.403       -1206.489          27.000  
C59  37035548.905   192853833.089         478.899          40.000  
> 2024 08 26 05 23 01.8000000  0 16                     
G18                              3        863.024          61.000                                                                  
G23                              3       3034.287          53.000                                                                  
R11  22005945.453   117593148.682         106.858          35.000  
R12  21800976.460   116456783.632        3630.912          36.000  
E10  25995140.386   136605407.682       -2361.376          24.000    25995194.626   102010699.510       -1762.516          37.000  
E31  27874409.368   146481020.521        2683.941          29.000    27874444.692   109385388.320        2002.276          33.000  
J02  37797870.435   198629098.696         676.854          29.000    37797902.583   148327092.610         505.804          32.000  
J03  36558385.068   192115629.980         487.145          25.000    36558398.065   143463003.362         363.851          38.000  
C01  36991492.074   192624371.596         462.361          37.000  
C04  38340815.704   199650744.164         443.584          35.000  
C06  37241645.901   193926969.047        1544.993          26.000  
C16  37369771.961   194594205.876        1409.048          25.000  
C23  23634947.190   123073311.182        1300.876          32.000  
C37  24560120.500   127890862.606        3360.186          28.000  
C41  25022701.892   130299805.315       -1205.382          27.000  
C59  37035583.897   192854015.295         478.865          40.000  
> 2024 08 26 05 23 01.9000000  0 16                     
G18                              3        862.822          61.000                                                                  
G23                              3       3034.263          52.000                                                                  
R11  22005943.594   117593138.038         106.444          34.000  
R12  21800908.447   116456420.585        3630.463          35.000  
E10  25995184.976   136605643.713       -2360.297          24.000    25995239.547   102010875.798       -1762.877          37.000  
E31  27874357.885   146480751.829        2686.923          29.000    27874393.549   109385187.627        2006.932          33.000  
J02  37797857.553   198629030.960         677.364          29.000    37797889.696   148327042.016         505.933          32.000  
J03  36558375.794   192115581.242         487.378          25.000    36558388.781   143462966.953         364.093          38.000  
C01  36991483.188   192624325.360         462.367          37.000  
C04  38340807.196   199650699.883         442.811          35.000  
C06  37241616.201   193926814.495        1545.516          26.000  
C16  37369744.887   194594064.895        1409.816          25.000  
C23  23634922.188   123073181.121        1300.614          32.000  
C37  24560055.974   127890526.478        3361.275          28.000  
C41  25022725.013   130299925.818       -1205.034          27.000  
C59  37035574.678   192853967.349         479.455          40.000  
> 2024 08 26 05 23 02.0000000  0 16                     
G18                              3        862.906          61.000                                                                  
G23                              3       3034.445          52.000                                                                  
R11  22005941.736   117593127.362         106.763          34.000  
R12  21800840.439   116456057.535        3630.510          35.000  
E10  25995229.578   136605879.827       -2361.144          24.000    25995284.473   102011052.071       -1762.726          37.000  
E31  27874306.656   146480483.157        2686.717          29.000    27874342.407   109384986.917        2007.095          33.000  
J02  37797844.688   198628963.218         677.423          28.000    37797876.835   148326991.430         505.858          32.000  
J03  36558366.510   192115532.459         487.833          25.000    36558379.493   143462930.518         364.352          38.000  
C01  36991474.310   192624279.096         462.630          37.000  
C04  38340798.685   199650655.507         443.754          35.000  
C06  37241586.540   193926660.157        1543.391          26.000  
C16  37369717.826   194593923.982        1409.128          25.000  
C23  23634897.178   123073051.013        1301.076          32.000  
C37  24559991.451   127890190.415        3360.631          28.000  
C41  25022748.121   130300046.266       -1204.481          27.000  
C59  37035565.469   192853919.376         479.737          40.000  
> 2024 08 26 05 23 02.3000000  0 16                     
G18                              3        863.074          61.000                                                                  
G23                              3       3034.984          52.000                                                                  
R11  22005936.217   117593095.306         106.971          35.000  
R12  21800636.259   116454968.326        3630.543          35.000  
E10  25995364.176   136606587.794       -2359.763          24.000    25995419.205   102011580.779       -1762.386          37.000  
E31  27874153.936   146479676.851        2688.179          29.000    27874188.998   109384384.851        2007.298          34.000  
J02  37797805.983   198628759.785         678.166          28.000    37797838.183   148326839.536         506.343          32.000  
J03  36558338.664   192115386.072         488.346          26.000    36558351.629   143462821.234         364.249          38.000  
C01  36991447.633   192624140.196         463.023          36.000  
C04  38340773.155   199650522.451         443.408          34.000  
C06  37241497.466   193926196.644        1544.585          26.000  
C16  37369636.639   194593500.978        1409.646          25.000  
C23  23634822.128   123072660.590        1301.623          31.000  
C37  24559797.841   127889182.060        3361.408          27.000  
C41  25022817.468   130300407.704       -1205.226          27.000  
C59  37035537.828   192853775.433         479.587          40.000  
> 2024 08 26 05 23 02.5000000  0 16                     
G18                              3        864.000          60.000                                                                  
G23                              3       3036.000          52.000                                                                  
R11  22006028.009   117593584.258         106.000          35.000  
R12  21800595.517   116454752.179        3630.000          35.000  
E10  25995549.816   136607561.605       -2358.000          24.000    25995604.487   102012307.893       -1761.000          37.000  
E31  27874147.253   146479641.041        2689.000          29.000    27874182.192   109384358.147        2009.000          33.000  
J02  37797875.688   198629125.981         678.999          29.000    37797907.853   148327112.973         508.000          32.000  
J03  36558415.589   192115790.318         489.000          26.000    36558428.528   143463123.056         365.000          39.000  
C01  36991525.343   192624544.815         463.000          36.000  
C04  38340851.616   199650930.887         445.000          35.000  
C06  37241533.562   193926384.787        1546.000          26.000  
C16  37369678.013   194593716.225        1410.000          25.000  
C23  23634867.564   123072897.537        1302.000          32.000  
C37  24559764.245   127889007.067        3361.000          27.000  
C41  25022959.186   130301145.845       -1203.000          27.000  
C59  37035614.862   192854176.580         482.000          40.000  
> 2024 08 26 05 23 02.7000000  0 16                     
G18                              3        863.620          60.000                                                                  
G23                              3       3035.599          52.000                                                                  
R11  22006024.310   117593562.817         106.735          34.000  
R12  21800459.209   116454025.949        3630.861          34.000  
E10  25995640.343   136608033.439       -2359.356          24.000    25995694.286   102012660.312       -1761.429          37.000  
E31  27874044.937   146479103.433        2688.479          29.000    27874079.881   109383956.689        2007.427          33.000  
J02  37797849.871   198628990.303         678.590          29.000    37797882.031   148327011.652         506.957          32.000  
J03  36558397.009   192115692.622         488.504          26.000    36558409.939   143463050.134         364.709          38.000  
C01  36991507.544   192624452.114         463.527          36.000  
C04  38340834.576   199650842.068         443.915          35.000  
C06  37241474.161   193926075.689        1545.697          26.000  
C16  37369623.869   194593434.130        1410.092          25.000  
C23  23634817.517   123072637.229        1302.287          32.000  
C37  24559635.139   127888334.767        3361.522          27.000  
C41  25023005.377   130301386.651       -1204.628          28.000  
C59  37035596.417   192854080.547         480.685          40.000  
> 2024 08 26 05 23 02.8000000  0 16                     
G18                              3        863.976          60.000                                                                  
G23                              3       3036.019          52.000                                                                  
R11  22006022.469   117593552.118         106.985          34.000  
R12  21800391.062   116453662.804        3631.445          35.000  
E10  25995685.382   136608269.496       -2360.576          25.000    25995739.185   102012836.524       -1762.115          37.000  
E31  27873993.655   146478834.515        2689.177          29.000    27874028.722   109383755.898        2007.921          33.000  
J02  37797836.953   198628922.403         678.999          29.000    37797869.114   148326960.986         506.665          32.000  
J03  36558387.734   192115643.794         488.290          26.000    36558400.638   143463013.658         364.759          38.000  
C01  36991498.649   192624405.790         463.248          36.000  
C04  38340826.043   199650797.599         444.687          35.000  
C06  37241444.464   193925921.163        1545.252          26.000  
C16  37369596.800   194593293.065        1410.658          25.000  
C23  23634792.493   123072507.035        1301.950          32.000  
C37  24559570.591   127887998.595        3361.726          27.000  
C41  25023028.450   130301506.939       -1202.883          28.000  
C59  37035587.182   192854032.447         481.003          40.000  
> 2024 08 26 05 23 02.9000000  0 16                     
G18                              3        863.641          60.000                                                                  
G23                              3       3035.495          52.000                                                                  
R11  22006020.646   117593541.397         107.212          34.000  
R12  21800322.923   116453299.759        3630.451          34.000  
E10  25995730.133   136608505.489       -2359.931          25.000    25995784.089   102013012.749       -1762.245          37.000  
E31  27873942.531   146478565.825        2686.908          29.000    27873977.584   109383555.198        2006.995          33.000  
J02  37797824.049   198628854.554         678.498          30.000    37797856.209   148326910.328         506.579          32.000  
J03  36558378.442   192115594.910         488.842          26.000    36558391.320   143462977.158         364.997          38.000  
C01  36991489.744   192624359.404         463.860          36.000  
C04  38340817.519   199650753.148         444.511          35.000  
C06  37241414.764   193925766.632        1545.310          26.000  
C16  37369569.708   194593151.931        1411.335          25.000  
C23  23634767.487   123072376.953        1300.811          32.000  
C37  24559506.043   127887662.461        3361.351          27.000  
C41  25023051.532   130301627.329       -1203.899          27.000  
C59  37035577.951   192853984.393         480.542          40.000  
> 2024 08 26 05 23 03.0000000  0 16                     
G18                              3        863.802          60.000                                                                  
G23                              3       3036.013          52.000                                                                  
R11  22006018.822   117593530.697         106.993          34.000  
R12  21800254.736   116452936.534        3632.254          34.000  
E10  25995774.754   136608741.306       -2358.164          25.000    25995828.985   102013188.915       -1761.656          37.000  
E31  27873891.506   146478296.910        2689.144          29.000    27873926.420   109383354.388        2008.105          33.000  
J02  37797811.149   198628786.683         678.712          30.000    37797843.292   148326859.601         507.278          32.000  
J03  36558369.163   192115546.061         488.479          26.000    36558382.032   143462940.718         364.404          38.000  
C01  36991480.850   192624313.029         463.747          37.000  
C04  38340808.989   199650708.721         444.268          35.000  
C06  37241385.068   193925612.035        1545.966          26.000  
C16  37369542.647   194593010.917        1410.141          26.000  
C23  23634742.459   123072246.717        1302.367          31.000  
C37  24559441.486   127887326.255        3362.054          27.000  
C41  25023074.641   130301747.797       -1204.680          27.000  
C59  37035568.715   192853936.266         481.272          40.000  
> 2024 08 26 05 23 03.2000000  0 16                     
G18                              3        863.073          60.000                                                                  
G23                              3       3035.303          53.000                                                                  
R11  22006015.158   117593509.366         106.225          34.000  
R12  21800118.402   116452210.296        3631.335          34.000  
E10  25995864.544   136609213.279       -2360.522          25.000    25995918.787   102013541.343       -1762.354          37.000  
E31  27873789.697   146477759.252        2687.995          29.000    27873824.126   109382952.903        2007.804          33.000  
J02  37797785.344   198628650.884         678.392          29.000    37797817.435   148326758.231         506.640          32.000  
J03  36558350.591   192115448.358         488.292          26.000    36558363.422   143462867.745         364.205          38.000  
C01  36991463.085   192624220.311         463.472          36.000  
C04  38340791.941   199650619.872         443.948          35.000  
C06  37241325.707   193925302.880        1545.962          26.000  
C16  37369488.504   194592728.796        1409.648          26.000  
C23  23634692.447   123071986.472        1300.801          31.000  
C37  24559312.354   127886653.812        3362.473          27.000  
C41  25023120.814   130301988.584       -1203.717          27.000  
C59  37035550.266   192853840.160         480.614          40.000  
> 2024 08 26 05 23 03.3000000  0 16                     
G18                              3        863.767          59.000                                                                  
G23                              3       3036.034          53.000                                                                  
R11  22006013.321   117593498.726         106.409          34.000  
R12  21800050.254   116451847.226        3630.688          34.000  
E10  25995909.443   136609449.285       -2360.064          25.000    25995963.683   102013717.539       -1761.955          37.000  
E31  27873738.756   146477490.420        2688.310          28.000    27873772.976   109382752.192        2007.106          33.000  
J02  37797772.462   198628583.093         677.914          29.000    37797804.535   148326707.606         506.243          32.000  
J03  36558341.307   192115399.540         488.181          26.000    36558354.116   143462831.283         364.623          39.000  
C01  36991454.207   192624173.953         463.584          36.000  
C04  38340783.415   199650575.427         444.440          35.000  
C06  37241296.029   193925148.339        1545.415          26.000  
C16  37369461.435   194592587.740        1410.563          26.000  
C23  23634667.432   123071856.264        1302.083          32.000  
C37  24559247.823   127886317.729        3360.836          27.000  
C41  25023143.901   130302108.951       -1203.670          27.000  
C59  37035541.043   192853792.134         480.259          40.000  
> 2024 08 26 05 23 03.4000000  0 16                     
G18                              3        863.006          60.000                                                                  
G23                              3       3035.368          53.000                                                                  
R11  22006011.441   117593488.008         107.173          34.000  
R12  21799982.081   116451484.098        3631.287          34.000  
E10  25995954.272   136609685.127       -2358.424          25.000    25996008.568   102013893.731       -1761.924          37.000  
E31  27873687.923   146477221.521        2688.992          28.000    27873721.812   109382551.394        2007.979          33.000  
J02  37797759.540   198628515.141         679.523          29.000    37797791.596   148326656.846         507.595          32.000  
J03  36558332.024   192115350.690         488.496          26.000    36558344.793   143462794.743         365.402          38.000  
C01  36991445.308   192624127.586         463.668          36.000  
C04  38340774.887   199650530.977         444.502          35.000  
C06  37241266.346   193924993.805        1545.340          26.000  
C16  37369434.352   194592446.676        1410.648          26.000  
C23  23634642.435   123071726.153        1301.114          32.000  
C37  24559183.266   127885981.596        3361.329          27.000  
C41  25023166.983   130302229.345       -1203.931          27.000  
C59  37035531.795   192853744.003         481.313          40.000  
> 2024 08 26 05 23 03.5000000  0 17                     
G18                              3        864.000          59.000                                                                  
G23                              3       3037.000          53.000                                                                  
R11  22006099.786   117593959.308         105.000          34.000  
R12  21800004.112   116451602.799        3630.000          34.000  
E10  25996089.294   136610395.120       -2359.000          24.000    25996143.643   102014423.819       -1762.000          37.000  
E31  27873727.339   146477426.634        2682.745          28.000    27873760.848   109382704.572        2003.076          33.000  
J02  37797836.844   198628921.275         678.999          29.000    37797868.900   148326960.163         506.000          32.000  
J03  36558412.928   192115775.790         489.000          26.000    36558425.692   143463112.245         366.000          38.000  
C01  36991526.595   192624550.847         465.000          36.000  
C04  38340856.550   199650956.175         446.000          35.000  
C06  37241326.833   193925308.844        1547.000          26.000  
C16  37369497.465   194592775.276        1411.000          26.000  
C23  23634707.624   123072065.660        1302.000          31.000  
C37  24559208.883   127886115.021        3361.000          27.000  
C39  36548159.851   190315862.973        1237.793          25.000  
C41  25023280.257   130302819.329       -1202.000          27.000  
C59  37035612.759   192854165.609         483.000          40.000  
> 2024 08 26 05 23 03.6000000  0 17                     
G18                              3        863.732          59.000                                                                  
G23                              3       3036.091          53.000                                                                  
R11  22006097.928   117593948.682         106.271          34.000  
R12  21799935.935   116451239.659        3631.397          34.000  
E10  25996134.036   136610631.072       -2359.522          24.000    25996188.533   102014600.040       -1762.211          37.000  
E31  27873676.542   146477157.819        2688.151          28.000    27873709.675   109382503.750        2008.220          33.000  
J02  37797823.940   198628853.387         678.884          29.000    37797855.978   148326909.492         506.711          32.000  
J03  36558403.640   192115726.932         488.586          26.000    36558416.365   143463075.707         365.377          38.000  
C01  36991517.691   192624504.465         463.818          36.000  
C04  38340848.013   199650911.726         444.488          34.000  
C06  37241297.133   193925154.275        1545.697          26.000  
C16  37369470.382   194592634.207        1410.694          26.000  
C23  23634682.597   123071935.439        1302.210          31.000  
C37  24559144.326   127885778.854        3361.668          27.000  
C39  36548136.010   190315738.907        1240.656          25.000  
C41  25023303.344   130302939.762       -1204.334          27.000  
C59  37035603.537   192854117.596         480.125          40.000  
> 2024 08 26 05 23 03.9000000  0 17                     
G18                              3        863.457          59.000                                                                  
G23                              3       3036.139          52.000                                                                  
R11  22006092.335   117593916.811         105.873          34.000  
R12  21799731.448   116450150.456        3630.652          35.000  
E10  25996267.809   136611338.964       -2359.788          25.000    25996323.222   102015128.679       -1762.052          37.000  
E31  27873524.725   146476351.329        2688.206          29.000    27873556.236   109381901.537        2008.169          33.000  
J02  37797785.218   198628649.789         678.824          29.000    37797817.204   148326757.385         506.697          32.000  
J03  36558375.811   192115580.421         488.543          25.000    36558388.445   143462966.324         364.851          38.000  
C01  36991490.979   192624365.368         464.126          36.000  
C04  38340822.465   199650778.462         443.943          34.000  
C06  37241208.001   193924690.657        1545.842          26.000  
C16  37369389.160   194592211.115        1410.505          26.000  
C23  23634607.609   123071545.132        1301.002          31.000  
C37  24558950.651   127884770.381        3361.594          27.000  
C39  36548064.491   190315366.630        1240.150          25.000  
C41  25023372.603   130303300.973       -1203.478          27.000  
C59  37035575.834   192853973.370         480.892          40.000  
> 2024 08 26 05 23 08.4000000  0 17                     
G15                              3       -861.890          29.000                                                                  
R11  22006380.883   117595457.976         102.586          33.000  
R12  21797049.227   116435825.648        3628.703          34.000  
E10  25998673.802   136623936.808       -2359.677          26.000    25998720.146   102024536.039       -1762.688          37.000  
E31  27871598.766   146466230.120        2689.360          28.000    27871630.403   109374343.691        2007.901          34.000  
J02  37797580.133   198627572.231         679.160          30.000    37797612.460   148325952.686         506.905          32.000  
J03  36558334.790   192115360.631         488.534          26.000    36558346.747   143462802.148         364.737          38.000  
J06                              3       -861.392          31.000                                                                  
C01  36991466.069   192624238.110         464.078          37.000  
C04  38340814.543   199650737.882         444.598          35.000  
C06  37240246.934   193919696.211        1544.878          25.000  
C16  37368547.637   194587824.675        1410.590          26.000  
C23  23633859.626   123067653.841        1300.787          31.000  
C37  24556422.432   127871603.609        3361.394          24.000  
C39  36547368.842   190311742.730        1240.876          24.000  
C41  25024787.724   130310678.186       -1203.430          27.000  
C59  37035536.755   192853769.547         481.031          39.000  
> 2024 08 26 05 23 10.5000000  0 17                     
G15                              3       -861.000          31.000                                                                  
R11  22006615.236   117596716.712         101.000          33.000  
R12  21795897.788   116429677.019        3628.000          34.000  
E10  25999895.405   136630342.080       -2357.000          25.000    25999938.655   102029319.157       -1761.000          37.000  
E31  27870798.110   146462031.641        2690.000          29.000    27870831.750   109371208.507        2010.000          34.000  
J02  37797584.230   198627593.976         681.000          27.000    37797616.748   148325968.963         508.000          32.000  
J03  36558415.022   192115783.582         489.000          26.000    36558427.268   143463118.017         366.000          39.000  
J06                              3       -861.000          31.000                                                                  
C01  36991554.577   192624698.821         464.000          37.000  
C04  38340910.947   199651239.071         446.000          35.000  
C06  37239899.099   193917886.389        1548.000          26.000  
C16  37368255.106   194586298.748        1411.000          26.000  
C23  23633610.882   123066361.443        1300.000          31.000  
C37  24555342.391   127865980.152        3361.000          24.000  
C39  36547144.219   190310572.890        1242.000          24.000  
C41  25025548.319   130314641.339       -1201.000          27.000  
C59  37035618.496   192854194.587         482.000          39.000  
> 2024 08 26 05 23 10.6000000  0 17                     
G15                              3       -861.584          31.000                                                                  
R11  22006613.286   117596706.440         102.721          33.000  
R12  21795829.854   116429314.202        3628.175          34.000  
E10  25999940.422   136630578.024       -2359.434          25.000    25999983.506   102029495.300       -1761.438          37.000  
E31  27870746.357   146461762.551        2690.893          29.000    27870780.569   109371007.597        2009.097          34.000  
J02  37797571.269   198627525.981         685.212          27.000    37797603.809   148325918.092         512.638          32.000  
J03  36558405.695   192115734.693         488.892          25.000    36558417.944   143463081.472         365.451          38.000  
J06                              3       -861.350          31.000                                                                  
C01  36991545.659   192624652.344         464.768          37.000  
C04  38340902.387   199651194.493         445.782          35.000  
C06  37239869.417   193917731.760        1546.283          25.000  
C16  37368228.032   194586157.605        1411.433          26.000  
C23  23633585.898   123066231.664        1297.785          30.000  
C37  24555277.767   127865643.774        3363.779          24.000  
C39  36547120.347   190310448.704        1241.858          24.000  
C41  25025571.370   130314761.540       -1202.006          27.000  
C59  37035609.247   192854146.381         482.062          39.000  
> 2024 08 26 05 23 10.7000000  0 17                     
G15                              3       -861.117          31.000                                                                  
R11  22006611.375   117596696.284         101.565          33.000  
R12  21795761.890   116428951.192        3630.097          34.000  
E10  25999985.434   136630814.008       -2359.847          25.000    26000028.392   102029671.598       -1762.975          37.000  
E31  27870694.954   146461493.589        2689.633          29.000    27870729.405   109370806.762        2008.356          34.000  
J02  37797558.317   198627457.933         680.475          28.000    37797590.857   148325867.285         508.072          32.000  
J03  36558396.359   192115685.744         489.487          25.000    36558408.639   143463044.981         364.907          38.000  
J06                              3       -861.179          31.000                                                                  
C01  36991536.725   192624605.820         465.238          37.000  
C04  38340893.819   199651149.919         445.735          35.000  
C06  37239839.756   193917577.213        1545.480          26.000  
C16  37368200.979   194586016.561        1410.429          26.000  
C23  23633560.874   123066101.624        1300.403          30.000  
C37  24555213.184   127865307.588        3361.857          24.000  
C39  36547096.479   190310324.508        1236.758          24.000  
C41  25025594.475   130314881.928       -1203.879          27.000  
C59  37035600.003   192854098.179         482.022          39.000  
> 2024 08 26 05 23 11.0000000  0 17                     
G15                              3       -861.029          30.000                                                                  
R11  22006605.590   117596665.682         101.706          33.000  
R12  21795558.097   116427862.370        3628.992          34.000  
E10  26000120.713   136631521.827       -2358.710          25.000    26000162.964   102030200.096       -1761.399          37.000  
E31  27870541.239   146460686.528        2690.079          29.000    27870575.865   109370204.104        2008.605          34.000  
J02  37797519.455   198627253.767         680.382          28.000    37797551.991   148325714.824         507.637          32.000  
J03  36558368.364   192115538.943         489.565          25.000    36558380.666   143462935.299         365.913          38.000  
J06                              3       -861.347          30.000                                                                  
C01  36991509.904   192624466.280         465.051          37.000  
C04  38340868.120   199651016.110         446.044          35.000  
C06  37239750.712   193917113.314        1545.447          26.000  
C16  37368119.783   194585593.207        1410.853          26.000  
C23  23633485.865   123065711.813        1299.620          30.000  
C37  24555019.417   127864298.955        3361.364          24.000  
C39  36547024.890   190309952.036        1241.504          24.000  
C41  25025663.716   130315242.797       -1202.915          27.000  
C59  37035572.235   192853953.489         482.300          39.000  
> 2024 08 26 05 23 12.2000000  0 16                     
G15                              3       -860.681          30.000                                                                  
R11  22006678.405   117597053.835         101.788          32.000  
R12  21794838.634   116424016.791        3630.105          33.000  
E10  26000756.700   136634854.814       -2358.953          27.000    26000796.752   102032688.967       -1760.810          36.000  
E31  27870023.932   146457959.550        2692.122          30.000    27870057.092   109368167.736        2010.162          34.000  
J02  37797459.304   198626938.363         681.232          29.000    37797492.006   148325479.287         509.049          32.000  
J03  36558351.852   192115453.209         490.014          27.000    36558364.342   143462871.281         365.755          38.000  
J06                              3       -860.737          30.000                                                                  
C01  36991498.073   192624404.821         465.625          36.000  
C04  38340860.843   199650977.840         446.106          34.000  
C06  37239489.966   193915754.765        1546.678          26.000  
C16  37367890.684   194584396.826        1412.063          26.000  
C23  23633281.051   123064649.855        1294.139          30.000  
C39  36546834.002   190308959.226        1241.335          23.000  
C41  25026036.253   130317182.783       -1202.140          26.000  
C59  37035556.535   192853871.702         482.296          40.000  
> 2024 08 26 05 23 13.1000000  0 15                     
G15                              3       -860.652          30.000                                                                  
R11  22006752.058   117597444.787         101.672          32.000  
R12  21794317.876   116421232.140        3628.635          32.000  
E10  26001252.591   136637452.197       -2360.013          27.000    26001290.749   102034628.586       -1762.096          36.000  
E31  27869653.511   146456011.851        2689.954          32.000    27869686.619   109366713.317        2008.598          34.000  
J02  37797432.680   198626799.234         681.077          29.000    37797465.648   148325375.442         508.547          31.000  
J03  36558358.055   192115486.441         489.662          26.000    36558370.585   143462896.090         365.679          38.000  
J06                              3       -860.935          31.000                                                                  
C01  36991507.793   192624455.314         465.542          37.000  
C04  38340873.896   199651045.672         446.096          35.000  
C06  37239313.008   193914832.444        1547.185          25.000  
C16  37367737.453   194583596.218        1411.452          26.000  
C23  23633145.983   123063950.367        1294.084          30.000  
C41  25026334.377   130318734.300       -1201.844          26.000  
C59  37035563.332   192853906.809         482.965          40.000  
> 2024 08 26 05 23 13.2000000  0 17                     
G15                                      -861.103          30.000                                                                  
G18                              3        859.813          59.000                                                                  
G23                              4       3038.347          54.000                                                                  
R11  22006750.238   117597434.822          99.662          32.000  
R12  21794249.977   116420869.273        3628.665          32.000  
E10  26001297.835   136637688.145       -2359.481          27.000    26001335.654   102034804.789       -1762.019          36.000  
E31  27869602.016   146455742.731        2691.197          31.000    27869635.428   109366512.392        2009.240          34.000  
J02  37797419.710   198626731.129         681.059          29.000    37797452.695   148325324.594         508.487          31.000  
J03  36558348.737   192115437.500         489.411          26.000    36558361.275   143462859.550         365.400          38.000  
J06                                      -860.610          31.000                                                                  
C01  36991498.863   192624408.771         465.425          36.000  
C04  38340865.328   199651001.056         446.156          35.000  
C06  37239283.364   193914677.924        1545.207          25.000  
C16  37367710.436   194583455.256        1409.619          26.000  
C23  23633120.985   123063820.509        1298.585          30.000  
C41  25026357.498   130318854.605       -1203.056          26.000  
C59  37035554.087   192853858.595         482.145          40.000  
> 2024 08 26 05 23 13.9000000  0 17                     
G15                                      -861.589          31.000                                                                  
G18                              3        858.966          61.000                                                                  
G23                              3       3037.908          53.000                                                                  
R11  22006832.774   117597875.503          98.945          32.000  
R12  21793869.928   116418839.573        3628.738          31.000  
E10  26001711.680   136639842.274       -2361.084          27.000    26001745.489   102036413.369       -1762.870          36.000  
E31  27869339.111   146454361.589        2690.322          31.000    27869372.690   109365481.021        2008.667          34.000  
J02  37797424.443   198626756.736         680.346          28.000    37797457.537   148325343.686         507.808          32.000  
J03  36558379.061   192115597.251         488.258          25.000    36558391.625   143462978.820         365.234          38.000  
J06                                      -862.047          33.000                                                                  
C01  36991531.848   192624580.645         464.815          36.000  
C04  38340900.887   199651186.411         445.314          34.000  
C06  37239171.400   193914093.263        1544.497          25.000  
C16  37367616.597   194582965.178        1410.661          26.000  
C23  23633041.782   123063409.324        1298.591          30.000  
C41  25026614.867   130320194.009       -1202.781          26.000  
C59  37035584.865   192854018.597         481.793          40.000  
> 2024 08 26 05 23 14.3000000  0 17                     
G15                                      -862.677          31.000                                                                  
G18                              3        858.307          60.000                                                                  
G23                              3       3037.677          54.000                                                                  
R11  22006825.380   117597836.024          98.665          32.000  
R12  21793598.006   116417388.645        3626.859          30.000  
E10  26001892.124   136640786.603       -2361.308          27.000    26001925.218   102037118.542       -1762.969          36.000  
E31  27869137.413   146453285.796        2690.149          30.000    27869168.003   109364677.622        2008.670          34.000  
J02  37797372.676   198626484.753         679.628          28.000    37797405.754   148325140.482         508.239          32.000  
J03  36558341.840   192115401.868         488.438          25.000    36558354.439   143462832.962         364.730          38.000  
J06                                      -862.536          32.000                                                                  
C01  36991496.166   192624394.801         464.876          36.000  
C04  38340866.676   199651008.299         445.266          35.000  
C06  37239052.820   193913475.136        1545.155          25.000  
C16  37367508.467   194582401.253        1409.135          26.000  
C23  23632942.121   123062890.558        1296.875          30.000  
C41  25026707.380   130320675.402       -1203.518          26.000  
C59  37035547.870   192853825.968         481.636          40.000  
> 2024 08 26 05 23 14.7000000  0 15                     
G18                              3        858.010          59.000                                                                  
G23                              3       3037.337          53.000                                                                  
R11  22006908.273   117598278.777          97.955          32.000  
R12  21793416.188   116416419.510        3627.451          31.000  
E10  26002159.937   136642205.036       -2361.340          27.000    26002195.173   102038177.765       -1763.010          36.000  
E31  27869025.753   146452683.925        2689.847          28.000    27869053.534   109364228.254        2008.026          34.000  
J02  37797411.076   198626686.748         679.855          28.000    37797444.205   148325291.417         508.132          32.000  
J03  36558394.849   192115680.647         487.803          25.000    36558407.483   143463041.054         364.857          38.000  
C01  36991550.716   192624678.769         464.035          36.000  
C04  38340922.656   199651299.942         445.079          35.000  
C06  37239024.464   193913326.849        1544.596          25.000  
C16  37367490.497   194582307.018        1409.798          26.000  
C23  23632932.732   123062841.527        1297.020          30.000  
C41  25026890.105   130321626.602       -1204.007          26.000  
C59  37035601.063   192854103.128         481.319          40.000  
> 2024 08 26 05 23 14.8000000  0 15                     
G18                              3        858.796          59.000                                                                  
G23                              3       3038.311          53.000                                                                  
R11  22006906.397   117598268.935          98.428          33.000  
R12  21793348.162   116416056.793        3627.167          30.000  
E10  26002204.295   136642441.138       -2361.020          27.000    26002240.108   102038354.083       -1763.187          36.000  
E31  27868974.755   146452414.976        2689.496          29.000    27869002.361   109364027.395        2008.594          34.000  
J02  37797398.124   198626618.757         679.905          28.000    37797431.270   148325240.676         507.401          32.000  
J03  36558385.561   192115631.824         488.230          25.000    36558398.213   143463004.644         364.103          38.000  
C01  36991541.803   192624632.310         464.594          36.000  
C04  38340914.092   199651255.411         445.304          35.000  
C06  37238994.837   193913172.371        1544.776          25.000  
C16  37367463.463   194582166.058        1409.603          26.000  
C23  23632907.849   123062711.857        1296.696          30.000  
C41  25026913.226   130321746.918       -1203.157          26.000  
C59  37035591.819   192854054.983         481.454          40.000  
> 2024 08 26 05 23 15.7000000  0 15                     
G18                              3        857.767          58.000                                                                  
G23                              3       3037.991          53.000                                                                  
R11  22006985.163   117598691.435          97.148          33.000  
R12  21792831.231   116413302.617        3626.884          29.000  
E10  26002704.108   136645067.983       -2360.959          27.000    26002740.025   102040315.655       -1763.201          36.000  
E31  27868607.009   146450496.159        2689.635          28.000    27868637.307   109362594.495        2009.333          34.000  
J02  37797376.930   198626508.499         675.439          27.000    37797410.199   148325158.372         503.666          32.000  
J03  36558397.423   192115694.268         488.374          26.000    36558410.140   143463051.273         364.742          38.000  
C01  36991557.133   192624711.545         464.665          36.000  
C04  38340932.463   199651352.033         445.300          35.000  
C06  37238823.473   193912279.123        1545.562          25.000  
C16  37367315.585   194581394.476        1410.480          26.000  
C23  23632779.340   123062042.242        1297.103          30.000  
C41  25027216.786   130323327.318       -1203.151          26.000  
C59  37035604.095   192854118.914         481.526          40.000  
> 2024 08 26 05 23 15.8000000  0 15                     
G18                              3        857.945          58.000                                                                  
G23                              3       3038.040          52.000                                                                  
R11  22006983.286   117598681.665          97.705          33.000  
R12  21792763.140   116412939.811        3628.057          28.000  
E10  26002748.795   136645304.111       -2361.271          27.000    26002784.969   102040492.001       -1763.453          36.000  
E31  27868555.902   146450227.151        2690.075          28.000    27868586.152   109362393.725        2007.698          34.000  
J02  37797363.956   198626440.514         679.847          27.000    37797397.246   148325107.593         507.793          32.000  
J03  36558388.139   192115645.469         487.993          26.000    36558400.857   143463014.833         364.395          38.000  
C01  36991548.234   192624665.095         464.506          36.000  
C04  38340923.895   199651307.486         445.478          35.000  
C06  37238793.811   193912124.664        1544.584          25.000  
C16  37367288.533   194581253.452        1410.238          26.000  
C23  23632754.474   123061912.708        1295.339          30.000  
C41  25027239.912   130323447.715       -1203.971          26.000  
C59  37035594.846   192854070.755         481.592          40.000  
> 2024 08 26 05 23 15.9000000  0 15                     
G18                              3        858.003          58.000                                                                  
G23                              3       3038.299          52.000                                                                  
R11  22006981.441   117598671.980          96.851          33.000  
R12  21792695.075   116412577.147        3626.635          28.000  
E10  26002793.515   136645540.175       -2360.644          27.000    26002829.890   102040668.297       -1762.953          36.000  
E31  27868504.829   146449958.289        2688.620          28.000    27868534.952   109362192.790        2009.349          34.000  
J02  37797350.982   198626372.551         679.632          27.000    37797384.290   148325056.811         507.825          32.000  
J03  36558378.843   192115596.640         488.283          27.000    36558391.564   143462978.357         364.764          38.000  
C01  36991539.334   192624618.660         464.351          36.000  
C04  38340915.322   199651262.910         445.765          35.000  
C06  37238764.128   193911970.143        1545.213          25.000  
C16  37367261.511   194581112.622        1408.290          26.000  
C23  23632729.577   123061783.038        1296.694          30.000  
C41  25027263.030   130323568.051       -1203.362          26.000  
C59  37035585.598   192854022.624         481.310          40.000  
> 2024 08 26 05 23 16.3000000  0 15                     
G18                              3        857.804          56.000                                                                  
G23                              3       3038.277          53.000                                                                  
R11  22006973.977   117598633.126          97.027          32.000  
R12  21792422.782   116411126.390        3626.882          28.000  
E10  26002970.656   136646484.584       -2360.826          27.000    26003009.609   102041373.530       -1763.009          36.000  
E31  27868299.414   146448882.304        2690.230          27.000    27868330.201   109361389.347        2008.295          34.000  
J02  37797299.058   198626100.427         680.071          27.000    37797332.454   148324853.583         508.139          31.000  
J03  36558341.661   192115401.271         488.597          31.000    36558354.386   143462832.516         364.458          38.000  
C01  36991503.670   192624432.740         464.768          36.000  
C04  38340881.081   199651084.771         445.566          35.000  
C06  37238645.406   193911352.119        1544.508          25.000  
C16  37367153.273   194580548.558        1409.637          26.000  
C23  23632630.001   123061264.482        1296.767          30.000  
C41  25027355.468   130324049.361       -1202.955          26.000  
C59  37035548.577   192853829.967         481.164          40.000  
> 2024 08 26 05 23 16.4000000  0 15                     
G18                              3        858.134          56.000                                                                  
G23                              3       3038.649          53.000                                                                  
R11  22006972.114   117598623.470          96.558          32.000  
R12  21792354.687   116410763.640        3627.497          28.000  
E10  26003014.251   136646720.722       -2361.378          27.000    26003054.548   102041549.845       -1763.150          36.000  
E31  27868247.696   146448613.237        2690.664          27.000    27868279.015   109361188.537        2008.100          35.000  
J02  37797286.062   198626032.345         680.824          27.000    37797319.480   148324802.721         508.616          32.000  
J03  36558332.377   192115352.514         487.574          31.000    36558345.086   143462796.029         364.868          38.000  
C01  36991494.748   192624386.286         464.538          36.000  
C04  38340872.517   199651040.205         445.656          35.000  
C06  37238615.724   193911197.645        1544.741          25.000  
C16  37367126.229   194580407.592        1409.649          26.000  
C23  23632605.113   123061134.882        1296.008          30.000  
C41  25027378.589   130324169.733       -1203.714          26.000  
C59  37035539.298   192853781.740         482.264          40.000  
> 2024 08 26 05 23 16.5000000  0 15                     
G18                              3        860.000          56.000                                                                  
G23                              3       3040.000          53.000                                                                  
R11  22007060.408   117599095.690          95.000          32.000  
R12  21792376.826   116410882.846        3626.000          28.000  
E10  26003148.086   136647430.771       -2362.000          27.000    26003189.674   102042080.102       -1763.000          36.000  
E31  27868286.108   146448818.161        2690.000          27.000    27868317.990   109361341.528        2010.000          35.000  
J02  37797363.279   198626438.312         680.000          27.000    37797396.727   148325105.962         507.000          32.000  
J03  36558413.277   192115777.596         489.000          31.000    36558425.980   143463113.496         366.000          38.000  
C01  36991576.036   192624809.472         466.000          37.000  
C04  38340954.153   199651465.312         444.000          35.000  
C06  37238676.196   193911512.753        1547.000          26.000  
C16  37367189.377   194580736.307        1411.000          26.000  
C23  23632670.412   123061474.915        1296.000          30.000  
C41  25027491.897   130324759.746       -1203.000          26.000  
C59  37035620.224   192854203.217         482.000          40.000  
> 2024 08 26 05 23 16.7000000  0 11                     
G18                              3        857.642          56.000                                                                  
G23                              3       3038.312          53.000                                                                  
R11  22007056.639   117599076.264          97.207          33.000  
R12  21792240.642   116410157.423        3626.859          27.000  
C01  36991558.202   192624716.488         464.640          37.000  
C04  38340937.052   199651376.205         445.463          35.000  
C06  37238616.762   193911203.648        1545.916          26.000  
C16  37367135.268   194580454.286        1410.032          26.000  
C23  23632620.618   123061215.654        1296.579          30.000  
C41  25027538.106   130325000.332       -1202.962          26.000  
C59  37035601.691   192854106.884         481.153          40.000  
> 2024 08 26 05 23 17.7000000  0 15                     
G18                              3        857.396          56.000                                                                  
G23                              3       3038.781          52.000                                                                  
R11  22007133.778   117599490.311          96.410          33.000  
R12  21791655.152   116407041.014        3626.723          27.000  
E10  26003780.076   136650766.131       -2361.638          25.000    26003824.203   102044570.708       -1763.238          36.000  
E31  27867764.399   146446092.119        2689.645          29.000    27867799.252   109359305.885        2008.347          34.000  
J02  37797302.985   198626123.717         680.183          26.000    37797336.868   148324870.997         507.945          32.000  
J03  36558397.362   192115693.475         489.023          30.000    36558409.922   143463050.704         364.332          38.000  
C01  36991564.619   192624749.020         464.951          36.000  
C06  37238415.325   193910156.013        1544.437          26.000  
C16  37366960.430   194579541.809        1410.051          26.000  
C23  23632467.234   123060417.151        1295.975          30.000  
C37  24551337.945   127845304.139        3360.587          25.000  
C41  25027864.700   130326701.000       -1202.972          26.000  
C59  37035604.505   192854122.400         481.886          40.000  
> 2024 08 26 05 23 17.8000000  0 16                     
G18                              3        857.377          56.000                                                                  
G23                              3       3038.678          52.000                                                                  
R11  22007131.993   117599480.728          95.834          33.000  
R12  21791587.047   116406678.397        3626.155          27.000  
E10  26003826.803   136651002.310       -2361.789          26.000    26003869.137   102044747.053       -1763.454          36.000  
E31  27867712.873   146445823.074        2690.457          29.000    27867748.061   109359104.956        2009.301          34.000  
J02  37797289.997   198626055.614         681.033          26.000    37797323.930   148324820.132         508.642          32.000  
J03  36558388.087   192115644.693         487.818          30.000    36558400.630   143463014.199         365.054          38.000  
C01  36991555.720   192624702.567         464.544          37.000  
C04  38340938.517   199651383.499         445.276          34.000  
C06  37238385.629   193910001.504        1545.104          26.000  
C16  37366933.395   194579400.867        1409.413          26.000  
C23  23632442.350   123060287.532        1296.191          31.000  
C37  24551273.135   127844968.053        3360.858          25.000  
C41  25027887.787   130326821.286       -1202.857          26.000  
C59  37035595.244   192854074.207         481.922          40.000  
> 2024 08 26 05 23 17.9000000  0 16                     
G18                              3        856.614          57.000                                                                  
G23                              3       3038.151          52.000                                                                  
R11  22007130.222   117599471.177          95.509          33.000  
R12  21791518.944   116406315.841        3625.563          27.000  
E10  26003873.626   136651238.371       -2360.611          26.000    26003914.045   102044923.370       -1763.163          36.000  
E31  27867661.400   146445554.090        2689.830          29.000    27867696.867   109358904.078        2008.773          34.000  
J02  37797277.023   198625987.622         685.181          25.000    37797310.972   148324769.251         512.735          32.000  
J03  36558378.795   192115595.849         488.440          30.000    36558391.346   143462977.784         364.151          38.000  
C01  36991546.785   192624656.044         465.216          36.000  
C04  38340929.976   199651338.938         445.606          35.000  
C06  37238355.947   193909847.048        1544.557          26.000  
C16  37366906.338   194579259.875        1409.936          26.000  
C23  23632417.492   123060158.088        1294.436          31.000  
C37  24551208.342   127844632.030        3360.224          25.000  
C41  25027910.891   130326941.661       -1203.752          26.000  
C59  37035585.991   192854026.075         481.326          40.000  
> 2024 08 26 05 23 18.0000000  0 16                     
G18                              3        856.460          58.000                                                                  
G23                              3       3038.017          53.000                                                                  
R11  22007128.473   117599461.655          95.220          33.000  
R12  21791450.831   116405953.179        3626.625          27.000  
E10  26003920.114   136651474.521       -2361.491          26.000    26003958.971   102045099.730       -1763.599          36.000  
E31  27867609.903   146445285.055        2690.343          30.000    27867645.694   109358703.252        2008.259          34.000  
J02  37797264.032   198625919.554         675.421          25.000    37797298.055   148324718.537         503.214          32.000  
J03  36558369.516   192115547.020         488.289          30.000    36558382.062   143462941.305         364.790          38.000  
C01  36991537.868   192624609.608         464.368          37.000  
C04  38340921.430   199651294.385         445.542          35.000  
C06  37238326.268   193909692.610        1544.383          26.000  
C16  37366879.295   194579118.962        1409.132          26.000  
C23  23632392.617   123060028.481        1296.073          31.000  
C37  24551143.532   127844295.910        3361.202          25.000  
C41  25027933.977   130327061.993       -1203.322          26.000  
C59  37035576.738   192853977.878         481.959          40.000  
> 2024 08 26 05 23 18.2000000  0 17                     
G18                              3        856.356          59.000                                                                  
G23                              3       3037.967          54.000                                                                  
R11  22007124.952   117599442.451          95.361          33.000  
R12  21791314.615   116405227.943        3626.045          26.000  
E10  26004011.811   136651946.705       -2359.915          26.000    26004048.805   102045452.358       -1763.198          36.000  
E31  27867506.887   146444747.122        2689.223          30.000    27867543.282   109358301.478        2008.653          35.000  
J02  37797238.053   198625783.449         680.550          25.000    37797272.128   148324616.825         508.829          32.000  
J03  36558350.962   192115449.448         487.898          29.000    36558363.495   143462868.384         364.687          38.000  
J07  36882678.083   193819762.4083        490.092          22.000    36882683.606   144735572.751         366.118          33.000  
C01  36991519.999   192624516.620         464.891          36.000  
C04  38340904.342   199651205.292         445.470          35.000  
C06  37238266.867   193909383.520        1544.872          26.000  
C16  37366825.178   194578836.966        1409.332          26.000  
C23  23632342.915   123059769.373        1295.819          31.000  
C37  24551013.934   127843623.740        3360.020          24.000  
C41  25027980.186   130327302.623       -1203.525          26.000  
C59  37035558.232   192853881.532         481.526          40.000  
> 2024 08 26 05 23 18.3000000  0 17                     
G18                              3        856.837          60.000                                                                  
G23                              3       3038.559          54.000                                                                  
R11  22007123.203   117599432.909          95.421          33.000  
R12  21791246.489   116404865.285        3626.572          26.000  
E10  26004057.591   136652182.995       -2362.897          26.000    26004093.739   102045628.753       -1763.945          36.000  
E31  27867455.779   146444478.017        2691.044          30.000    27867492.089   109358100.650        2008.286          34.000  
J02  37797225.061   198625715.407         680.426          26.000    37797259.194   148324566.087         507.384          32.000  
J03  36558341.665   192115400.571         488.775          29.000    36558354.230   143462831.967         364.169          38.000  
J07  36882668.795   193819713.4353        489.738          22.000    36882674.279   144735536.157         365.942          33.000  
C01  36991511.086   192624470.133         464.879          36.000  
C04  38340895.804   199651160.737         445.552          35.000  
C06  37238237.171   193909229.007        1545.129          25.000  
C16  37366798.117   194578696.005        1409.608          26.000  
C23  23632318.075   123059639.861        1295.122          31.000  
C37  24550949.119   127843287.606        3361.338          24.000  
C41  25028003.276   130327422.924       -1203.011          26.000  
C59  37035548.987   192853833.403         481.295          40.000  
> 2024 08 26 05 23 18.4000000  0 17                     
G18                              3        856.700          61.000                                                                  
G23                              3       3038.454          54.000                                                                  
R11  22007121.466   117599423.422          94.877          33.000  
R12  21791178.368   116404502.645        3626.397          26.000  
E10  26004103.468   136652419.060       -2360.663          27.000    26004138.660   102045805.065       -1763.129          36.000  
E31  27867405.025   146444209.060        2689.572          30.000    27867440.868   109357899.730        2009.199          35.000  
J02  37797212.070   198625647.354         685.781          26.000    37797246.216   148324515.212         512.678          32.000  
J03  36558332.373   192115351.737         488.336          29.000    36558344.937   143462795.463         365.044          38.000  
J07  36882659.516   193819664.4713        489.639          22.000    36882664.965   144735499.608         365.501          33.000  
C01  36991502.165   192624423.687         464.456          36.000  
C04  38340887.271   199651116.184         445.527          35.000  
C06  37238207.488   193909074.548        1544.582          25.000  
C16  37366771.052   194578555.031        1409.740          26.000  
C23  23632293.230   123059510.311        1295.501          31.000  
C37  24550884.305   127842951.482        3361.228          24.000  
C41  25028026.376   130327543.321       -1203.971          27.000  
C59  37035539.713   192853785.161         482.414          40.000  
> 2024 08 26 05 23 18.9000000  0 12                     
R11  22007202.923   117599857.6611                         33.000  
R12  21790927.991   116403171.2971                         26.000  
E10  26004420.241   136654073.652       -2361.911          27.000    26004453.467   102047040.606       -1762.759          36.000  
E31  27867239.679   146443337.829        2690.521          29.000    27867274.942   109357249.183        2008.736          35.000  
C01  36991547.679   192624660.814         465.110          36.000  
C04  38340934.753   199651362.948         445.939          35.000  
C06  37238149.218   193908771.655        1544.354          25.000  
C16  37366725.890   194578319.756        1409.951          26.000  
C23  23632259.224   123059332.280        1295.273          31.000  
C37  24550650.481   127841740.659        3360.594          25.000  
C41  25028232.032   130328614.538       -1203.151          27.000  
C59  37035583.613   192854013.816         482.086          40.000  
> 2024 08 26 05 23 19.0000000  0 17                     
G18                              3        856.769          61.000                                                                  
G23                              3       3038.935          56.000                                                                  
R11  22007201.144   117599848.109          95.515          33.000  
R12  21790859.910   116402808.744        3625.541          26.000  
E10  26004465.176   136654309.772       -2361.194          27.000    26004498.392   102047216.919       -1763.137          36.000  
E31  27867188.704   146443068.844        2689.861          30.000    27867223.705   109357048.265        2009.178          35.000  
J02  37797224.346   198625712.858         681.195          26.000    37797258.600   148324564.152         508.392          32.000  
J03  36558366.811   192115532.642         488.350          30.000    36558379.406   143462930.576         364.491          38.000  
J07  36882693.988   193819844.4303        489.666          20.000    36882699.189   144735633.992         365.738          33.000  
C01  36991538.745   192624614.314         464.997          36.000  
C04  38340926.207   199651318.356         445.928          35.000  
C06  37238119.522   193908617.145        1545.105          26.000  
C16  37366698.829   194578178.742        1410.141          26.000  
C23  23632234.388   123059202.751        1295.291          31.000  
C37  24550585.666   127841404.460        3356.776          25.000  
C41  25028255.140   130328734.892       -1203.537          27.000  
C59  37035574.360   192853965.620         481.959          40.000  
> 2024 08 26 05 23 19.1000000  0 17                     
G18                              3        856.535          61.000                                                                  
G23                              3       3038.795          56.000                                                                  
R11  22007199.390   117599838.622          94.878          33.000  
R12  21790791.780   116402446.000        3627.445          26.000  
E10  26004509.988   136654545.910       -2361.374          27.000    26004543.314   102047393.237       -1763.168          36.000  
E31  27867137.666   146442799.772        2690.714          29.000    27867172.471   109356847.393        2008.721          35.000  
J02  37797211.354   198625644.812         680.457          26.000    37797245.644   148324513.351         508.013          32.000  
J03  36558357.523   192115483.808         488.336          30.000    36558370.109   143462894.085         364.910          38.000  
J07  36882684.726   193819795.4843        489.459          20.000    36882689.857   144735597.393         365.987          33.000  
C01  36991529.806   192624567.804         465.099          36.000  
C04  38340917.674   199651273.823         445.325          35.000  
C06  37238089.822   193908462.603        1545.428          25.000  
C16  37366671.773   194578037.774        1409.688          26.000  
C23  23632209.560   123059073.296        1294.547          31.000  
C37  24550520.864   127841068.341        3366.397          25.000  
C41  25028278.240   130328855.175       -1202.847          27.000  
C59  37035565.103   192853917.398         482.219          40.000  
> 2024 08 26 05 23 19.2000000  0 19                     
G15                              3       -862.123          30.000                                                                  
G18                                       856.560          60.000                                                                  
G23                                      3038.750          56.000                                                                  
R11  22007197.641   117599829.092          95.295          33.000  
R12  21790723.693   116402083.506        3624.932          26.000  
E10  26004554.661   136654782.056       -2361.458          27.000    26004588.248   102047569.590       -1763.531          36.000  
E31  27867086.659   146442530.722        2690.511          29.000    27867121.250   109356646.508        2008.852          35.000  
J02  37797198.362   198625576.743         680.694          26.000    37797232.674   148324462.507         508.435          32.000  
J03  36558348.240   192115434.981         488.269          30.000    36558360.830   143462857.626         364.595          38.000  
J06                              3       -862.090          29.000                                                                  
J07  36882675.456   193819746.4823        490.021          20.000    36882680.513   144735560.741         366.520          33.000  
C01  36991520.876   192624521.274         465.306          36.000  
C04  38340909.132   199651229.230         445.929          35.000  
C06  37238060.143   193908308.107        1544.960          25.000  
C16  37366644.720   194577896.801        1409.723          26.000  
C23  23632184.711   123058943.694        1296.016          31.000  
C37  24550456.085   127840732.324        3360.171          25.000  
C41  25028301.330   130328975.437       -1202.611          27.000  
C59  37035555.850   192853869.211         481.873          40.000  
> 2024 08 26 05 23 19.3000000  0 17                     
G15                              3       -861.831          30.000                                                                  
R11  22007195.892   117599819.576          95.156          33.000  
R12  21790655.594   116401720.977        3625.290          25.000  
E10  26004599.168   136655018.100       -2360.443          27.000    26004633.161   102047745.880       -1762.899          36.000  
E31  27867035.691   146442261.748        2689.727          29.000    27867070.020   109356445.559        2009.490          35.000  
J02  37797185.375   198625508.635         681.076          26.000    37797219.721   148324411.634         508.729          32.000  
J03  36558338.939   192115386.083         488.980          30.000    36558351.534   143462821.129         364.963          38.000  
J06                              3       -861.929          29.000                                                                  
J07  36882666.147   193819697.4003        490.828          20.000    36882671.186   144735524.157         365.839          33.000  
C01  36991511.941   192624474.780         464.935          36.000  
C04  38340900.590   199651184.604         446.264          35.000  
C06  37238030.447   193908153.554        1545.522          25.000  
C16  37366617.668   194577755.817        1409.847          26.000  
C23  23632159.857   123058814.122        1295.722          31.000  
C37  24550391.279   127840396.114        3362.103          25.000  
C41  25028324.434   130329095.784       -1203.478          27.000  
C59  37035546.584   192853820.963         482.481          40.000  
> 2024 08 26 05 23 19.4000000  0 17                     
G15                              3       -861.761          30.000                                                                  
R11  22007194.155   117599810.108          94.684          33.000  
R12  21790587.451   116401358.263        3627.142          25.000  
E10  26004643.683   136655254.273       -2361.727          27.000    26004678.090   102047922.227       -1763.475          36.000  
E31  27866984.575   146441992.652        2690.967          29.000    27867018.799   109356244.659        2008.995          35.000  
J02  37797172.366   198625440.506         681.294          26.000    37797206.760   148324360.762         508.720          32.000  
J03  36558329.660   192115337.294         487.898          30.000    36558342.246   143462784.653         364.762          38.000  
J06                              3       -861.791          29.000                                                                  
J07  36882656.855   193819648.3113        490.894          19.000                                                                  
C01  36991503.007   192624428.242         465.379          36.000  
C04  38340892.048   199651140.025         445.792          35.000  
C06  37238000.747   193907999.014        1545.401          25.000  
C16  37366590.621   194577614.829        1409.883          26.000  
C23  23632135.017   123058684.654        1294.680          32.000  
C37  24550326.478   127840059.992        3366.420          25.000  
C41  25028347.521   130329215.962       -1201.775          27.000  
C59  37035537.327   192853772.741         482.221          40.000  
> 2024 08 26 05 23 19.6000000  0 15                     
G15                              3       -862.063          30.000                                                                  
R11  22007286.144   117600301.390          95.296          33.000  
R12  21790546.692   116401143.166        3625.546          25.000  
E10  26004829.118   136656228.337       -2361.233          27.000    26004863.420   102048649.613       -1763.277          36.000  
E31  27866977.442   146441956.412        2689.976          29.000    27867011.840   109356217.559        2009.461          35.000  
J02  37797241.875   198625806.138         681.241          26.000    37797276.308   148324633.825         508.867          32.000  
J03  36558406.567   192115741.347         488.721          29.000    36558419.144   143463086.377         365.773          38.000  
J06                              3       -861.534          29.000                                                                  
C01  36991580.629   192624832.479         465.343          36.000  
C04  38340970.456   199651548.077         446.214          35.000  
C06  37238036.913   193908187.348        1544.310          25.000  
C16  37366632.021   194577830.074        1409.399          26.000  
C23  23632180.815   123058922.861        1295.256          32.000  
C41  25028489.239   130329953.946       -1203.154          27.000  
C59  37035614.304   192854173.564         482.566          39.000  
> 2024 08 26 05 23 19.7000000  0 15                     
G15                              3       -861.899          30.000                                                                  
R11  22007284.394   117600291.926          94.642          33.000  
R12  21790478.575   116400780.601        3625.658          25.000  
E10  26004874.641   136656464.457       -2361.195          28.000    26004908.333   102048825.913       -1763.001          36.000  
E31  27866925.986   146441687.329        2690.832          29.000    27866960.620   109356016.636        2009.234          35.000  
J02  37797228.883   198625738.065         680.732          26.000    37797263.334   148324582.940         508.864          32.000  
J03  36558397.288   192115692.498         488.491          29.000    36558409.861   143463049.919         364.583          38.000  
J06                              3       -862.007          29.000                                                                  
C01  36991571.695   192624785.926         465.535          36.000  
C04  38340961.918   199651503.479         445.981          34.000  
C06  37238007.213   193908032.675        1546.721          25.000  
C16  37366605.000   194577689.118        1409.569          26.000  
C23  23632155.979   123058793.355        1295.059          31.000  
C41  25028512.326   130330074.153       -1202.073          27.000  
C59  37035605.051   192854125.359         482.051          39.000  
> 2024 08 26 05 23 19.8000000  0 15                     
G15                              3       -861.183          30.000                                                                  
R11  22007282.628   117600282.420          95.063          33.000  
R12  21790410.422   116400417.841        3627.600          25.000  
E10  26004920.343   136656700.585       -2361.280          28.000    26004953.258   102049002.281       -1763.691          36.000  
E31  27866874.464   146441418.203        2691.262          29.000    27866909.404   109355815.724        2009.130          35.000  
J02  37797215.896   198625669.958         681.067          26.000    37797250.382   148324532.068         508.716          32.000  
J03  36558388.004   192115643.639         488.589          29.000    36558400.586   143463013.471         364.480          38.000  
J06                              3       -861.596          29.000                                                                  
C01  36991562.761   192624739.423         465.022          36.000  
C04  38340953.381   199651458.877         446.023          34.000  
C06  37237977.552   193907878.236        1544.390          25.000  
C16  37366577.974   194577548.139        1409.791          26.000  
C23  23632131.143   123058663.845        1295.105          31.000  
C41  25028535.434   130330194.467       -1203.144          27.000  
C59  37035595.785   192854077.139         482.208          40.000  
> 2024 08 26 05 23 19.9000000  0 15                     
G15                              3       -862.349          30.000                                                                  
R11  22007280.874   117600272.998          94.219          33.000  
R12  21790342.315   116400055.295        3625.453          25.000  
E10  26004965.945   136656936.650       -2360.655          28.000    26004998.171   102049178.577       -1762.950          36.000  
E31  27866822.864   146441149.259        2689.441          29.000    27866858.179   109355614.815        2009.089          35.000  
J02  37797202.887   198625601.827         681.314          26.000    37797237.425   148324481.217         508.512          32.000  
J03  36558378.721   192115594.789         488.505          29.000    36558391.294   143462976.981         364.897          38.000  
J06                              3       -861.741          29.000                                                                  
C01  36991553.826   192624692.886         465.373          36.000  
C04  38340944.843   199651414.300         445.768          35.000  
C06  37237947.851   193907723.670        1545.664          25.000  
C16  37366550.935   194577407.104        1410.353          27.000  
C23  23632106.294   123058534.346        1294.990          32.000  
C41  25028558.534   130330314.762       -1202.947          27.000  
C59  37035586.510   192854028.892         482.464          39.000  
> 2024 08 26 05 23 20.0000000  0 15                     
G15                              3       -862.542          30.000                                                                  
R11  22007279.142   117600263.498          94.999          33.000  
R12  21790274.207   116399692.746        3625.496          25.000  
E10  26005011.494   136657172.885       -2357.096          28.000    26005043.074   102049354.848       -1758.792          36.000  
E31  27866771.276   146440880.094        2691.646          29.000    27866806.966   109355413.886        2009.274          35.000  
J02  37797189.895   198625533.746         675.560          26.000    37797224.490   148324430.427         503.975          32.000  
J03  36558369.442   192115545.940         488.485          28.000    36558382.010   143462940.477         365.047          38.000  
J06                              3       -862.766          29.000                                                                  
C01  36991544.892   192624646.330         465.559          36.000  
C04  38340936.293   199651369.674         446.254          35.000  
C06  37237918.137   193907569.068        1546.009          25.000  
C16  37366523.900   194577266.092        1410.114          27.000  
C23  23632081.454   123058404.864        1294.823          31.000  
C41  25028581.659   130330435.048       -1202.865          27.000  
C59  37035577.239   192853980.654         482.375          40.000  
> 2024 08 26 05 23 20.1000000  0 15                     
G15                              3       -862.414          30.000                                                                  
R11  22007277.423   117600254.085          94.132          32.000  
R12  21790206.081   116399330.140        3626.059          25.000  
E10  26005056.903   136657408.926       -2360.412          28.000    26005088.004   102049531.235       -1763.865          36.000  
E31  27866719.807   146440610.989        2691.041          29.000    27866755.750   109355212.993        2008.934          34.000  
J02  37797176.903   198625465.653         680.926          25.000    37797211.516   148324379.547         508.801          32.000  
J03  36558360.167   192115497.092         488.483          28.000    36558372.710   143462903.965         365.113          38.000  
J06                              3       -862.269          29.000                                                                  
C01  36991535.957   192624599.802         465.280          36.000  
C04  38340927.756   199651325.090         445.844          35.000  
C06  37237888.455   193907414.622        1544.460          25.000  
C16  37366496.870   194577125.115        1409.773          26.000  
C23  23632056.609   123058275.378        1294.861          31.000  
C41  25028604.759   130330555.312       -1202.645          27.000  
C59  37035567.978   192853932.446         482.085          40.000  
> 2024 08 26 05 23 20.7000000  0 15                     
G15                              3       -861.824          30.000                                                                  
R11  22007410.263   117600962.955          94.332          33.000  
R12  21789940.585   116397919.742        3627.116          24.000  
E10  26005468.306   136659578.448       -2361.047          28.000    26005500.729   102051151.289       -1762.997          36.000  
E31  27866554.999   146439749.367        2690.729          29.000    27866591.732   109354569.543        2009.766          35.000  
J02  37797242.197   198625809.703         681.690          25.000    37797277.058   148324636.411         508.918          31.000  
J03  36558447.754   192115956.705         488.447          27.000    36558460.188   143463247.224         364.595          38.000  
J06                              3       -862.122          32.000                                                                  
C01  36991625.568   192625066.479         465.940          37.000  
C04  38341019.739   199651803.312         446.535          35.000  
C06  37237853.646   193907233.341        1545.779          25.000  
C16  37366478.019   194577025.035        1409.901          27.000  
C23  23632050.764   123058244.304        1294.945          32.000  
C41  25028886.754   130332022.976       -1202.984          26.000  
C59  37035655.665   192854388.931         482.432          40.000  
> 2024 08 26 05 23 20.8000000  0 16                     
G15                              3       -862.695          30.000                                                                  
G24  20410219.221   107256461.5333       2175.805          27.000    20410238.198    80094169.244        1625.224          37.000  
R11  22007408.536   117600953.492          94.632          33.000  
R12  21789872.477   116397557.114        3626.280          24.000  
E10  26005512.739   136659814.520       -2360.720          28.000    26005545.663   102051327.620       -1763.314          36.000  
E31  27866504.062   146439480.308        2690.583          29.000    27866540.520   109354368.626        2009.176          35.000  
J02  37797229.210   198625741.552         681.507          25.000    37797264.141   148324585.624         507.878          31.000  
J03  36558438.471   192115907.790         489.150          27.000    36558450.878   143463210.682         365.424          38.000  
J06                              3       -862.565          31.000                                                                  
C01  36991616.638   192625019.967         465.116          37.000  
C04  38341011.194   199651758.694         446.182          35.000  
C06  37237823.985   193907078.886        1544.547          25.000  
C16  37366451.023   194576884.061        1409.732          27.000  
C23  23632025.923   123058114.834        1294.709          32.000  
C41  25028909.876   130332143.231       -1202.546          26.000  
C59  37035646.408   192854340.700         482.312          40.000  
> 2024 08 26 05 23 21.0000000  0 16                     
G15                              3       -862.049          30.000                                                                  
G24  20410136.381   107256026.3283       2175.989          26.000    20410155.410    80093844.324        1625.002          37.000  
R11  22007405.120   117600934.700          94.520          33.000  
R12  21789736.242   116396831.977        3627.000          23.000  
E10  26005602.092   136660286.798       -2361.106          29.000    26005635.522   102051680.236       -1763.108          36.000  
E31  27866402.078   146438942.123        2691.208          30.000    27866438.077   109353966.755        2009.101          35.000  
J02  37797203.227   198625605.298         681.273          24.000    37797238.215   148324483.806         509.222          32.000  
J03  36558419.925   192115810.082         488.567          27.000    36558432.284   143463137.718         365.052          38.000  
J06                              3       -861.704          31.000                                                                  
C01  36991598.747   192624926.856         465.248          36.000  
C04  38340994.092   199651669.450         446.778          35.000  
C06  37237764.642   193906769.763        1545.494          25.000  
C16  37366396.993   194576602.041        1410.156          27.000  
C23  23631976.238   123057855.883        1289.211          32.000  
C41  25028956.101   130332383.734       -1201.863          27.000  
C59  37035627.871   192854244.178         482.488          40.000  
> 2024 08 26 05 23 21.1000000  0 16                     
G15                              3       -863.120          31.000                                                                  
G24  20410094.959   107255808.7633       2175.649          26.000    20410114.006    80093681.872        1624.519          37.000  
R11  22007403.401   117600925.313          93.872          33.000  
R12  21789668.104   116396469.361        3626.162          23.000  
E10  26005646.769   136660522.949       -2361.506          29.000    26005680.461   102051856.594       -1763.586          36.000  
E31  27866350.966   146438673.096        2690.280          30.000    27866386.843   109353765.794        2009.604          35.000  
J02  37797190.248   198625537.195         681.025          24.000    37797225.254   148324432.986         508.211          32.000  
J03  36558410.646   192115761.198         488.841          27.000    36558422.983   143463101.265         364.538          38.000  
J06                              3       -862.730          31.000                                                                  
C01  36991589.813   192624880.310         465.464          36.000  
C04  38340985.537   199651624.833         446.170          35.000  
C06  37237734.976   193906615.298        1544.657          25.000  
C16  37366369.962   194576460.983        1410.581          27.000  
C23  23631951.384   123057726.351        1295.318          32.000  
C41  25028979.223   130332504.078       -1203.451          27.000  
C59  37035618.601   192854195.954         482.245          40.000  
> 2024 08 26 05 23 21.2000000  0 16                     
G15                              3       -862.521          31.000                                                                  
G24  20410053.541   107255591.2323       2175.308          26.000    20410072.605    80093519.398        1624.740          37.000  
R11  22007401.669   117600916.002          93.112          33.000  
R12  21789599.983   116396106.760        3626.012          23.000  
E10  26005691.508   136660759.061       -2361.103          29.000    26005725.405   102052032.940       -1763.452          36.000  
E31  27866299.645   146438403.939        2691.564          31.000    27866335.628   109353564.913        2008.818          35.000  
J02  37797177.279   198625469.083         681.124          24.000    37797212.283   148324382.092         508.931          32.000  
J03  36558401.375   192115712.349         488.488          27.000    36558413.687   143463064.743         365.213          38.000  
J06                              3       -863.101          28.000                                                                  
C01  36991580.878   192624833.775         465.357          36.000  
C04  38340976.995   199651580.241         445.930          35.000  
C06  37237705.280   193906460.674        1546.244          25.000  
C16  37366342.958   194576320.006        1409.775          27.000  
C23  23631926.552   123057596.942        1294.083          32.000  
C41  25029002.332   130332624.321       -1202.417          27.000  
C59  37035609.339   192854147.715         482.386          40.000  
> 2024 08 26 05 23 21.8000000  0 16                     
G15                              3       -862.884          30.000                                                                  
G24  20409852.784   107254536.9673       2175.625          26.000    20409871.923    80092732.132        1624.052          37.000  
R11  22007438.877   117601115.045          93.497          33.000  
R12  21789239.072   116394186.602        3625.066          24.000  
E10  26006010.568   136662426.891       -2357.063          29.000    26006042.741   102053278.314       -1759.370          36.000  
E31  27866039.615   146437040.446        2690.135          30.000    27866076.038   109352546.671        2009.352          35.000  
J02  37797147.098   198625311.233         681.257          24.000    37797182.282   148324264.174         509.320          32.000  
J03  36558393.523   192115670.117         488.885          27.000    36558405.655   143463033.238         364.755          38.000  
J06                              3       -862.758          28.000                                                                  
C01  36991575.019   192624803.168         465.313          37.000  
C04  38340973.410   199651561.171         446.193          36.000  
C06  37237575.001   193905782.263        1545.326          25.000  
C16  37366228.616   194575722.712        1410.527          26.000  
C23  23631825.288   123057068.939        1289.336          32.000  
C41  25029188.778   130333594.627       -1202.267          27.000  
C59  37035601.530   192854106.887         482.763          40.000  
> 2024 08 26 05 23 21.9000000  0 16                     
G15                              3       -861.773          30.000                                                                  
G24  20409811.362   107254319.4983       2174.695          25.000    20409830.535    80092569.708        1624.233          37.000  
R11  22007437.141   117601105.749          92.962          34.000  
R12  21789170.973   116393824.115        3624.874          24.000  
E10  26006056.178   136662663.035       -2361.442          30.000    26006087.671   102053454.666       -1763.518          37.000  
E31  27865988.827   146436771.358        2690.885          30.000    27866024.822   109352345.740        2009.314          35.000  
J02  37797134.124   198625243.114         681.190          24.000    37797169.343   148324213.391         507.828          32.000  
J03  36558384.252   192115621.273         488.437          27.000    36558396.359   143462996.758         364.797          38.000  
J06                              3       -862.556          29.000                                                                  
C01  36991566.085   192624756.615         465.527          37.000  
C04  38340964.850   199651516.590         445.820          35.000  
C06  37237545.335   193905627.777        1544.864          25.000  
C16  37366201.586   194575581.763        1409.486          27.000  
C23  23631800.457   123056939.552        1299.082          32.000  
C41  25029211.896   130333714.948       -1203.207          27.000  
C59  37035592.255   192854058.616         482.717          40.000  
> 2024 08 26 05 23 22.1000000  0 16                     
G15                              3       -863.386          30.000                                                                  
G24  20409728.394   107253883.8803       2174.457          25.000    20409747.764    80092244.912        1619.641          37.000  
R11  22007433.690   117601087.230          91.883          33.000  
R12  21789034.784   116393099.101        3625.186          24.000  
E10  26006146.862   136663135.357       -2357.054          30.000    26006177.522   102053807.395       -1759.755          37.000  
E31  27865886.786   146436233.233        2690.262          31.000    27865922.419   109351943.924        2008.975          35.000  
J02  37797108.158   198625106.894         680.857          24.000    37797143.416   148324111.641         508.451          32.000  
J03  36558365.742   192115523.680         487.916          27.000    36558377.774   143462923.859         364.142          38.000  
J06                              4       -862.599          29.000                                                                  
C01  36991548.212   192624663.581         464.874          37.000  
C04  38340947.740   199651427.377         445.809          35.000  
C06  37237486.027   193905318.791        1545.175          25.000  
C16  37366147.529   194575299.851        1409.796          27.000  
C23  23631750.790   123056680.754        1298.104          32.000  
C41  25029258.143   130333955.552       -1202.750          27.000  
C59  37035573.749   192853962.245         481.604          40.000  
> 2024 08 26 05 23 22.2000000  0 16                     
G15                              3       -862.744          30.000                                                                  
G24  20409686.920   107253666.0023       2173.517          25.000    20409706.363    80092082.510        1620.094          37.000  
R11  22007431.993   117601077.982          92.473          33.000  
R12  21788966.705   116392736.597        3625.023          24.000  
E10  26006192.284   136663371.563       -2362.063          30.000    26006222.447   102053983.781       -1763.863          36.000  
E31  27865835.818   146435964.244        2689.889          31.000    27865871.216   109351743.000        2009.242          35.000  
J02  37797095.188   198625038.809         680.838          24.000    37797130.463   148324060.832         508.073          32.000  
J03  36558356.476   192115474.862         488.178          27.000    36558368.482   143462887.363         364.958          38.000  
J06                              3       -863.257          29.000                                                                  
C01  36991539.281   192624617.099         464.820          37.000  
C04  38340939.203   199651382.823         445.534          35.000  
C06  37237456.383   193905164.301        1544.901          26.000  
C16  37366120.516   194575158.966        1408.850          26.000  
C23  23631725.967   123056551.422        1293.322          32.000  
C41  25029281.264   130334075.874       -1203.220          27.000  
C59  37035564.497   192853914.053         481.922          40.000  
> 2024 08 26 05 23 22.3000000  0 16                     
G15                              3       -861.968          30.000                                                                  
G24  20409645.432   107253448.0653       2174.118          25.000    20409664.963    80091920.129        1619.886          37.000  
R11  22007430.279   117601068.745          92.374          33.000  
R12  21788898.641   116392374.153        3624.444          24.000  
E10  26006237.620   136663607.761       -2361.982          31.000    26006267.382   102054160.157       -1763.765          37.000  
E31  27865784.995   146435695.137        2691.065          30.000    27865820.030   109351542.118        2008.814          35.000  
J02  37797082.218   198624970.773         685.620          24.000    37797117.489   148324009.949         512.765          32.000  
J03  36558347.219   192115426.060         488.023          27.000    36558359.212   143462850.957         364.063          38.000  
J06                              3       -862.797          29.000                                                                  
C01  36991530.347   192624570.616         464.841          37.000  
C04  38340930.652   199651338.222         446.017          35.000  
C06  37237426.757   193905009.851        1544.501          25.000  
C16  37366093.490   194575018.025        1409.415          27.000  
C23  23631701.131   123056422.013        1294.091          32.000  
C41  25029304.408   130334196.239       -1203.639          27.000  
C59  37035555.243   192853865.889         481.644          40.000  
> 2024 08 26 05 23 23.1000000  0 16                     
G15                              3       -862.249          29.000                                                                  
R11  22007507.151   117601477.376          91.076          33.000  
R12  21788444.346   116389956.477        3624.444          24.000  
E10  26006684.595   136665971.612       -2366.877          30.000    26006717.043   102055925.380       -1768.316          36.000  
E31  27865467.161   146434016.932        2691.524          30.000    27865500.604   109350289.011        2008.784          34.000  
J02  37797068.668   198624900.299         680.332          24.000    37797104.013   148323957.343         508.150          32.000  
J03  36558363.352   192115509.888         487.648          28.000    36558375.235   143462913.549         363.817          38.000  
J06                              3       -863.078          30.000                                                                  
C01  36991549.141   192624668.490         464.674          36.000  
C04  38340952.482   199651451.586         445.483          34.000  
C06  37237279.852   193904244.139        1544.268          25.000  
C16  37365967.500   194574360.564        1408.072          27.000  
C23  23631592.738   123055857.220        1292.884          31.000  
C37  24548307.946   127829516.911        3360.340          26.000  
C41  25029579.803   130335628.794       -1204.241          27.000  
C59  37035571.345   192853950.177         481.788          40.000  
> 2024 08 26 05 23 24.0000000  0 16                     
G15                              3       -862.279          30.000                                                                  
R11  22007587.740   117601905.427          91.515          33.000  
R12  21787927.702   116387204.775        3624.611          25.000  
E10  26007183.052   136668599.503       -2361.777          29.000    26007217.005   102057887.716       -1763.979          36.000  
E31  27865097.626   146432097.526        2689.805          30.000    27865135.088   109348855.546        2009.857          35.000  
J02  37797047.300   198624789.263         681.643          24.000    37797082.732   148323874.425         508.697          31.000  
J03  36558375.484   192115572.548         488.144          28.000    36558387.215   143462960.318         364.651          38.000  
J06                              3       -862.049          30.000                                                                  
C01  36991564.279   192624747.228         465.356          37.000  
C04  38340971.040   199651547.654         446.526          35.000  
C06  37237108.352   193903351.207        1545.530          26.000  
C16  37365819.814   194573589.498        1408.869          27.000  
C23  23631464.977   123055190.777        1293.631          32.000  
C37  24547821.626   127826989.761        3360.785          26.000  
C41  25029883.542   130337209.037       -1203.200          27.000  
C59  37035583.447   192854013.618         482.644          40.000  
> 2024 08 26 05 23 24.1000000  0 16                     
G15                              3       -862.078          30.000                                                                  
R11  22007586.096   117601896.272          91.548          33.000  
R12  21787859.699   116386842.286        3624.890          26.000  
E10  26007227.917   136668835.599       -2360.960          29.000    26007261.949   102058064.079       -1763.637          36.000  
E31  27865046.907   146431828.273        2692.527          30.000    27865083.849   109348654.649        2008.975          34.000  
J02  37797034.308   198624721.112         681.507          24.000    37797069.741   148323823.522         509.035          31.000  
J03  36558366.205   192115523.688         488.602          28.000    36558377.914   143462923.850         364.693          38.000  
J06                              3       -862.556          30.000                                                                  
C01  36991555.344   192624700.632         465.967          37.000  
C04  38340962.468   199651503.002         446.520          35.000  
C06  37237078.687   193903196.771        1544.354          26.000  
C16  37365792.779   194573448.495        1410.030          27.000  
C23  23631440.154   123055061.380        1293.974          32.000  
C37  24547756.973   127826653.612        3361.488          27.000  
C41  25029906.646   130337329.221       -1201.841          27.000  
C59  37035574.164   192853965.342         482.762          40.000  
> 2024 08 26 05 23 24.4000000  0 16                     
G15                              3       -861.641          30.000                                                                  
R11  22007581.144   117601868.859          90.834          33.000  
R12  21787655.757   116385754.872        3624.122          27.000  
E10  26007363.901   136669544.150       -2357.218          29.000    26007396.790   102058593.108       -1759.733          36.000  
E31  27864894.846   146431020.951        2691.471          30.000    27864930.086   109348051.729        2009.654          34.000  
J02  37796995.333   198624516.571         682.105          24.000    37797030.770   148323670.760         510.060          31.000  
J03  36558338.376   192115377.073         488.593          28.000    36558350.002   143462814.341         365.315          38.000  
J06                              3       -862.238          31.000                                                                  
C01  36991528.576   192624560.904         466.136          37.000  
C04  38340936.747   199651369.075         446.306          35.000  
C06  37236989.642   193902733.168        1545.090          26.000  
C16  37365711.680   194573025.509        1410.256          27.000  
C23  23631365.738   123054673.309        1289.526          32.000  
C37  24547563.083   127825645.321        3360.147          26.000  
C41  25029975.976   130337690.024       -1203.339          27.000  
C59  37035546.339   192853820.560         482.548          40.000  
> 2024 08 26 05 23 24.9000000  0 16                     
G15                              3       -861.476          30.000                                                                  
R11  22007710.752   117602560.203          91.201          33.000  
R12  21787454.011   116384679.260        3624.470          28.000  
E10  26007727.455   136671449.548       -2360.185          30.000    26007759.454   102060016.071       -1763.257          36.000  
E31  27864777.240   146430400.007        2692.625          29.000    27864811.770   109347588.063        2010.328          34.000  
J02  37797068.293   198624900.391         682.710          25.000    37797103.730   148323957.413         509.152          31.000  
J03  36558429.929   192115857.472         488.970          28.000    36558441.398   143463173.111         364.766          39.000  
J06                              3       -861.397          31.000                                                                  
C01  36991621.764   192625046.143         466.170          37.000  
C04  38341031.732   199651863.937         446.923          35.000  
C06  37236979.137   193902678.759        1545.170          26.000  
C16  37365714.450   194573038.772        1410.469          28.000  
C23  23631379.667   123054744.870        1292.849          31.000  
C37  24547377.910   127824682.805        3361.392          26.000  
C41  25030229.362   130339009.389       -1202.190          27.000  
C59  37035637.892   192854297.239         483.136          40.000  
> 2024 08 26 05 23 25.0000000  0 16                     
G15                              3       -861.759          30.000                                                                  
R11  22007709.124   117602551.090          91.127          33.000  
R12  21787386.090   116384316.771        3624.894          28.000  
E10  26007772.769   136671685.875       -2363.268          30.000    26007804.402   102060192.391       -1763.207          36.000  
E31  27864725.592   146430130.906        2691.013          29.000    27864760.536   109347387.108        2009.544          34.000  
J02  37797055.288   198624832.159         682.317          25.000    37797090.760   148323906.509         509.043          31.000  
J03  36558420.645   192115808.587         488.842          28.000    36558432.101   143463136.591         365.191          38.000  
J06                              3       -861.658          31.000                                                                  
C01  36991612.812   192624999.512         466.313          37.000  
C04  38341023.138   199651819.237         447.001          35.000  
C06  37236949.441   193902524.233        1545.269          26.000  
C16  37365687.397   194572897.717        1410.549          27.000  
C23  23631354.871   123054615.583        1292.870          31.000  
C37  24547313.322   127824346.719        3360.860          26.000  
C41  25030252.466   130339129.598       -1202.091          27.000  
C59  37035628.613   192854248.943         482.959          40.000  
> 2024 08 26 05 23 25.2000000  0 18                     
G15                                      -863.024          30.000                                                                  
G18                              3        853.871          60.000                                                                  
G23                              3       3039.837          48.000                                                                  
R11  22007705.817   117602532.790          92.034          32.000  
R12  21787250.258   116383591.838        3624.498          28.000  
E10  26007863.798   136672158.146       -2363.624          29.000    26007894.318   102060545.104       -1763.770          36.000  
E31  27864622.814   146429592.506        2692.711          30.000    27864658.063   109346985.119        2009.443          35.000  
J02  37797029.304   198624695.842         681.474          25.000    37797064.794   148323804.620         509.184          31.000  
J03  36558402.078   192115710.814         488.793          28.000    36558413.512   143463063.589         365.030          38.000  
J06                                      -862.895          31.000                                                                  
C01  36991594.943   192624906.337         465.753          38.000  
C04  38341005.950   199651729.900         446.573          35.000  
C06  37236889.989   193902215.065        1545.077          26.000  
C16  37365633.332   194572615.776        1410.305          27.000  
C23  23631305.250   123054356.887        1292.362          32.000  
C37  24547184.104   127823674.372        3356.426          26.000  
C41  25030298.691   130339370.105       -1202.872          27.000  
C59  37035610.037   192854152.315         483.423          40.000  
> 2024 08 26 05 23 25.3000000  0 18                     
G15                                      -861.337          30.000                                                                  
G18                              3        854.461          60.000                                                                  
G23                              3       3040.583          48.000                                                                  
R11  22007704.195   117602523.688          91.018          32.000  
R12  21787182.351   116383229.350        3624.865          28.000  
E10  26007909.495   136672394.197       -2360.524          29.000    26007939.265   102060721.410       -1763.054          36.000  
E31  27864571.725   146429323.592        2689.145          30.000    27864606.817   109346784.114        2010.057          34.000  
J02  37797016.299   198624627.609         682.328          25.000    37797051.802   148323753.698         509.219          31.000  
J03  36558392.799   192115661.909         489.045          28.000    36558404.203   143463027.040         365.487          39.000  
J06                                      -860.908          31.000                                                                  
C01  36991585.991   192624859.713         466.230          38.000  
C04  38340997.360   199651685.216         446.839          34.000  
C06  37236860.293   193902060.560        1545.045          26.000  
C16  37365606.289   194572474.704        1410.722          27.000  
C23  23631280.453   123054227.568        1293.201          32.000  
C37  24547119.516   127823338.298        3365.945          26.000  
C41  25030321.800   130339490.357       -1202.534          27.000  
C59  37035600.762   192854104.057         482.591          40.000  
> 2024 08 26 05 23 25.4000000  0 18                     
G15                                      -862.081          31.000                                                                  
G18                              3        853.724          60.000                                                                  
G23                              3       3039.966          49.000                                                                  
R11  22007702.550   117602514.618          90.708          32.000  
R12  21787114.461   116382866.902        3624.487          28.000  
E10  26007955.018   136672630.256       -2360.590          29.000    26007984.226   102060897.792       -1763.830          36.000  
E31  27864520.556   146429054.278        2693.148          30.000    27864555.562   109346583.079        2010.349          34.000  
J02  37797003.286   198624559.354         682.552          25.000    37797038.810   148323702.765         509.331          31.000  
J03  36558383.524   192115613.056         488.536          28.000    36558394.919   143462990.581         364.589          39.000  
J06                                      -862.309          31.000                                                                  
C01  36991577.035   192624813.089         466.253          37.000  
C04  38340988.761   199651640.521         446.953          35.000  
C06  37236830.575   193901905.993        1545.669          26.000  
C16  37365579.245   194572333.709        1409.942          27.000  
C23  23631255.640   123054098.212        1293.557          32.000  
C37  24547054.915   127823002.175        3361.223          26.000  
C41  25030344.899   130339610.548       -1201.907          27.000  
C59  37035591.470   192854055.735         483.215          40.000  
> 2024 08 26 05 23 25.5000000  0 18                     
G15                                      -861.000          31.000                                                                  
G18                              3        854.001          60.000                                                                  
G23                              3       3041.000          49.000                                                                  
R11  22007796.380   117603015.831          91.000          32.000  
R12  21787142.080   116383014.569        3624.000          28.000  
E10  26008095.864   136673368.421       -2360.000          29.000    26008124.679   102061448.880       -1763.000          36.000  
E31  27864564.976   146429286.888        2689.000          30.000    27864599.837   109346756.931        2011.000          35.000  
J02  37797085.808   198624993.045         682.000          25.000    37797121.315   148324026.610         512.000          31.000  
J03  36558469.746   192116065.994         489.999          28.000    36558481.115   143463328.811         366.000          39.000  
J06                                      -862.000          31.000                                                                  
C01  36991663.596   192625263.724         463.000          37.000  
C04  38341075.672   199652093.155         447.000          35.000  
C06  37236896.354   193902248.714        1547.000          26.000  
C16  37365647.720   194572690.019        1410.000          27.000  
C23  23631326.348   123054466.207        1292.000          32.000  
C37  24547085.815   127823163.317        3356.793          26.000  
C41  25030463.499   130340228.062       -1201.000          27.000  
C59  37035677.679   192854504.696         485.000          40.000  
> 2024 08 26 05 23 25.6000000  0 18                     
G15                                      -861.855          31.000                                                                  
G18                              3        853.860          60.000                                                                  
G23                              3       3040.147          50.000                                                                  
R11  22007794.714   117603006.780          90.520          32.000  
R12  21787074.212   116382652.131        3624.377          29.000  
E10  26008140.886   136673604.541       -2361.202          29.000    26008169.634   102061625.229       -1763.493          36.000  
E31  27864513.912   146429017.950        2689.386          30.000    27864548.577   109346555.881        2010.509          34.000  
J02  37797072.794   198624924.801         682.437          25.000    37797108.319   148323975.680         509.296          31.000  
J03  36558460.475   192116017.119         488.755          28.000    36558471.809   143463292.290         365.205          39.000  
J06                                      -861.939          31.000                                                                  
C01  36991654.675   192625217.172         465.522          37.000  
C04  38341067.082   199652048.464         446.913          35.000  
C06  37236866.649   193902094.254        1544.605          26.000  
C16  37365620.681   194572548.986        1410.331          27.000  
C23  23631301.547   123054336.895        1293.122          32.000  
C37  24547021.219   127822827.192        3366.454          27.000  
C41  25030486.600   130340348.256       -1201.936          27.000  
C59  37035668.395   192854456.405         482.910          40.000  
> 2024 08 26 05 23 25.8000000  0 16                     
G18                              3        853.744          60.000                                                                  
G23                              3       3040.230          51.000                                                                  
R11  22007791.359   117602988.636          90.584          33.000  
R12  21786938.519   116381927.237        3624.232          29.000  
E10  26008230.007   136674076.843       -2361.451          30.000    26008259.542   102061977.930       -1763.749          36.000  
E31  27864411.444   146428479.651        2688.447          30.000    27864446.109   109346153.943        2009.399          34.000  
J02  37797046.820   198624788.410         682.133          25.000    37797082.323   148323873.818         508.410          31.000  
J03  36558441.922   192115919.334         488.867          28.000    36558453.221   143463219.318         364.869          39.000  
C01  36991636.810   192625123.934         466.332          37.000  
C04  38341049.915   199651959.096         446.434          35.000  
C06  37236807.222   193901785.130        1545.522          26.000  
C16  37365566.620   194572266.988        1410.786          27.000  
C23  23631251.966   123054078.298        1292.443          32.000  
C37  24546892.026   127822154.884        3360.883          26.000  
C41  25030532.834   130340588.727       -1202.243          27.000  
C59  37035649.842   192854359.807         482.741          40.000  
> 2024 08 26 05 23 26.0000000  0 16                     
G18                              3        853.905          60.000                                                                  
G23                              3       3040.458          51.000                                                                  
R11  22007788.052   117602970.554          90.613          32.000  
R12  21786802.874   116381202.315        3624.478          30.000  
E10  26008319.092   136674549.158       -2361.460          30.000    26008349.416   102062330.618       -1764.009          36.000  
E31  27864307.964   146427941.1001       2691.333          30.000    27864343.637   109345751.956        2009.182          34.000  
J02  37797020.819   198624651.989         681.911          25.000    37797056.304   148323771.897         508.791          31.000  
J03  36558423.363   192115821.584         488.662          28.000    36558434.614   143463146.254         365.674          39.000  
C01  36991618.924   192625030.711         466.048          37.000  
C04  38341032.722   199651869.686         446.930          35.000  
C06  37236747.808   193901476.131        1545.134          26.000  
C16  37365512.550   194571984.991        1409.828          27.000  
C23  23631202.390   123053819.652        1293.004          32.000  
C37  24546762.846   127821482.694        3360.948          26.000  
C41  25030579.077   130340829.189       -1202.403          27.000  
C59  37035631.283   192854263.167         483.136          40.000  
> 2024 08 26 05 23 26.1000000  0 16                     
G18                              3        853.376          61.000                                                                  
G23                              3       3040.104          52.000                                                                  
R11  22007786.389   117602961.464          90.888          32.000  
R12  21786735.050   116380839.832        3624.829          30.000  
E10  26008363.948   136674785.321       -2361.622          29.000    26008394.341   102062506.939       -1763.205          36.000  
E31  27864256.290   146427672.1161       2689.852          29.000    27864292.382   109345550.880        2010.762          34.000  
J02  37797007.805   198624583.739         682.488          25.000    37797043.295   148323720.895         510.023          31.000  
J03  36558414.071   192115772.667         489.162          28.000    36558425.321   143463109.772         364.821          38.000  
C01  36991609.967   192624984.053         466.577          37.000  
C04  38341024.129   199651824.948         447.388          35.000  
C06  37236718.086   193901321.526        1546.051          26.000  
C16  37365485.503   194571843.970        1410.215          27.000  
C23  23631177.603   123053690.313        1293.387          32.000  
C37  24546698.232   127821146.473        3362.207          27.000  
C41  25030602.194   130340949.421       -1202.312          27.000  
C59  37035621.999   192854214.819         483.483          40.000  
> 2024 08 26 05 23 26.3000000  0 16                     
G18                              3        853.618          60.000                                                                  
G23                              3       3040.347          52.000                                                                  
R11  22007783.035   117602943.372          90.336          33.000  
R12  21786599.504   116380114.953        3624.901          31.000  
E10  26008452.983   136675257.516       -2361.869          29.000    26008484.222   102062859.587       -1763.141          36.000  
E31  27864153.504   146427133.5901       2691.499          29.000    27864189.914   109345148.875        2009.701          34.000  
J02  37796981.791   198624447.226         682.524          24.000    37797017.281   148323618.960         509.866          31.000  
J03  36558395.495   192115674.810         489.076          28.000    36558406.711   143463036.733         364.806          38.000  
C01  36991592.068   192624890.797         466.176          37.000  
C04  38341006.958   199651735.580         446.984          34.000  
C06  37236658.712   193901012.400        1545.757          26.000  
C16  37365431.434   194571561.959        1410.187          27.000  
C23  23631128.057   123053431.756        1292.290          32.000  
C37  24546569.053   127820474.164        3361.949          27.000  
C41  25030648.428   130341189.773       -1201.910          27.000  
C59  37035603.436   192854118.133         483.094          40.000  
> 2024 08 26 05 23 26.4000000  0 16                     
G18                              3        854.143          60.000                                                                  
G23                              3       3041.044          52.000                                                                  
R11  22007781.316   117602934.301          90.702          33.000  
R12  21786531.746   116379752.444        3625.082          31.000  
E10  26008497.393   136675493.583       -2360.684          28.000    26008529.166   102063035.937       -1763.502          36.000  
E31  27864102.239   146426864.3401       2692.497          30.000    27864138.662   109344947.797        2010.773          34.000  
J02  37796968.783   198624378.989         682.368          24.000    37797004.289   148323568.040         509.207          31.000  
J03  36558386.211   192115625.898         489.120          28.000    36558397.393   143463000.150         365.824          39.000  
C01  36991583.094   192624844.090         467.076          37.000  
C04  38340998.341   199651690.804         447.767          34.000  
C06  37236629.011   193900857.832        1545.687          26.000  
C16  37365404.377   194571420.874        1410.843          27.000  
C23  23631103.265   123053302.393        1293.635          32.000  
C37  24546504.443   127820137.950        3362.137          27.000  
C41  25030671.545   130341309.984       -1202.123          27.000  
C59  37035594.140   192854069.757         483.770          40.000  
> 2024 08 26 05 23 26.7000000  0 10                     
E10  26008673.815   136676425.024       -2360.797          28.000    26008706.417   102063731.412       -1763.348          36.000  
E31  27863991.261   146426279.7171       2692.308          30.000    27864027.395   109344511.252        2010.974          34.000  
C01  36991598.660   192624925.118         466.978          37.000  
C04  38341014.980   199651777.627         447.554          35.000  
C06  37236582.358   193900615.069        1545.928          26.000  
C16  37365365.663   194571218.716        1410.907          27.000  
C23  23631071.370   123053135.462        1293.190          32.000  
C37  24546353.094   127819350.516        3361.912          27.000  
C41  25030783.319   130341891.548       -1202.141          26.000  
C59  37035608.759   192854145.717         483.922          40.000  
> 2024 08 26 05 23 26.8000000  0 17                     
G18                              3        854.416          59.000                                                                  
G23                              3       3041.821          52.000                                                                  
R11  22007816.892   117603124.811          91.536          33.000  
R12  21786303.409   116378529.332        3625.417          31.000  
E10  26008718.902   136676661.099       -2360.757          28.000    26008751.364   102063907.754       -1763.413          36.000  
E31  27863940.328   146426010.4641       2692.526          31.000    27863976.166   109344310.191        2010.613          35.000  
J02  37796959.173   198624328.931         682.593          24.000    37796994.766   148323530.617         510.629          31.000  
J03  36558391.490   192115653.179         490.279          28.000    36558402.606   143463020.550         365.612          38.000  
J07  36882715.090   193819949.1113        491.787          21.000    36882719.021   144735712.127         367.554          34.000  
C01  36991589.690   192624878.443         466.751          37.000  
C04  38341006.368   199651732.821         448.061          35.000  
C06  37236552.658   193900460.520        1545.499          26.000  
C16  37365338.629   194571077.708        1410.085          27.000  
C23  23631046.581   123053006.090        1293.724          32.000  
C37  24546288.493   127819014.314        3362.021          27.000  
C41  25030806.406   130342011.643       -1200.948          27.000  
C59  37035599.475   192854097.317         483.999          40.000  
> 2024 08 26 05 23 27.7000000  0 17                     
G18                              3        853.045          60.000                                                                  
G23                              3       3040.621          54.000                                                                  
R11  22007897.355   117603554.199          89.859          33.000  
R12  21785790.190   116375777.546        3623.801          32.000  
E10  26009216.744   136679288.140       -2361.290          30.000    26009251.269   102065869.498       -1764.044          36.000  
E31  27863577.185   146424089.3511       2692.411          31.000    27863610.545   109342875.642        2010.057          34.000  
J02  37796937.565   198624216.247         682.956          25.000    37796973.429   148323446.537         509.901          31.000  
J03  36558403.369   192115714.722         489.086          29.000    36558414.249   143463066.509         365.029          38.000  
J07  36882726.363   193820008.3933        496.568          22.000    36882730.315   144735756.451         371.358          34.000  
C01  36991604.553   192624955.697         467.032          37.000  
C04  38341024.434   199651827.509         447.258          34.000  
C06  37236380.847   193899566.661        1545.000          26.000  
C16  37365190.782   194570305.657        1410.230          27.000  
C23  23630919.077   123052339.823        1293.029          32.000  
C37  24545802.631   127816486.075        3361.390          27.000  
C41  25031109.838   130343590.622       -1202.319          26.000  
C59  37035611.429   192854159.297         483.870          40.000  
> 2024 08 26 05 23 27.9000000  0 13                     
E10  26009306.656   136679760.446       -2361.154          29.000    26009341.159   102066222.193       -1764.322          36.000  
E31  27863474.402   146423550.9931       2690.537          31.000    27863508.077   109342473.561        2010.325          34.000  
J02  37796911.547   198624079.762         682.527          25.000    37796947.463   148323344.536         510.219          32.000  
J03  36558384.785   192115616.928         488.876          30.000    36558395.617   143462993.411         365.639          38.000  
J07  36882707.639   193819910.0613        491.604          23.000    36882711.622   144735683.041         366.967          34.000  
C01  36991586.650   192624862.423         466.633          37.000  
C04  38341007.232   199651738.045         447.028          34.000  
C06  37236321.487   193899257.526        1545.518          26.000  
C16  37365136.734   194570023.694        1409.500          27.000  
C23  23630869.523   123052081.377        1291.651          32.000  
C37  24545673.456   127815813.855        3360.897          27.000  
C41  25031155.994   130343830.969       -1202.404          26.000  
C59  37035592.870   192854062.686         482.893          40.000  
> 2024 08 26 05 23 28.0000000  0 17                     
G18                              3        853.599          62.000                                                                  
G23                              3       3041.504          55.000                                                                  
R11  22007892.460   117603527.397          89.887          33.000  
R12  21785587.226   116374690.338        3624.012          32.000  
E10  26009351.839   136679996.655       -2362.095          29.000    26009386.080   102066398.470       -1762.775          36.000  
E31  27863423.291   146423281.6611       2688.074          31.000    27863456.843   109342272.528        2006.406          34.000  
J02  37796898.541   198624011.486         682.757          25.000    37796934.511   148323293.616         509.196          32.000  
J03  36558375.488   192115568.003         489.254          30.000    36558386.334   143462956.932         364.784          38.000  
J07  36882698.259   193819860.8983        491.632          23.000    36882702.277   144735646.296         367.459          34.000  
C01  36991577.698   192624815.782         466.418          37.000  
C04  38340998.638   199651693.342         447.025          35.000  
C06  37236291.808   193899102.951        1545.745          26.000  
C16  37365109.691   194569882.569        1411.254          27.000  
C23  23630844.731   123051952.097        1292.806          32.000  
C37  24545608.859   127815477.666        3361.885          27.000  
C41  25031179.081   130343951.184       -1202.156          26.000  
C59  37035583.574   192854014.250         484.363          40.000  
> 2024 08 26 05 23 28.5000000  0 17                     
G18                              3        852.999          62.000                                                                  
G23                              3       3041.000          54.000                                                                  
R11  22007980.039   117603993.442          87.000          33.000  
R12  21785344.581   116373388.738        3624.000          32.000  
E10  26009671.400   136681679.463       -2362.000          29.000    26009706.353   102067655.165       -1764.000          36.000  
E31  27863263.090   146422437.634        2690.000          30.000    27863296.249   109341642.272        2009.000          35.000  
J02  37796929.027   198624172.172         683.000          25.000    37796965.140   148323413.622         510.000          31.000  
J03  36558424.445   192115825.496         488.000          30.000    36558435.325   143463149.205         365.000          39.000  
J07  36882746.950   193820117.2253        492.000          24.000    36882751.077   144735837.671         367.000          34.000  
C01  36991628.413   192625079.945         466.000          37.000  
C04  38341051.137   199651967.153         448.000          35.000  
C06  37236239.039   193898827.696        1547.000          26.000  
C16  37365070.175   194569675.014        1411.000          27.000  
C23  23630816.387   123051803.480        1292.000          32.000  
C37  24545381.457   127814294.386        3366.207          27.000  
C41  25031390.098   130345049.648       -1202.000          26.000  
C59  37035632.705   192854269.975         483.000          40.000  
> 2024 08 26 05 23 28.9000000  0 17                     
G18                              3        852.464          60.000                                                                  
G23                              3       3040.849          54.000                                                                  
R11  22007973.766   117603958.235          87.900          33.000  
R12  21785074.098   116371939.522        3622.854          33.000  
E10  26009851.024   136682624.443       -2363.061          30.000    26009886.204   102068360.787       -1764.224          36.000  
E31  27863057.068   146421361.086        2691.031          31.000    27863091.419   109340838.293        2009.922          35.000  
J02  37796877.061   198623899.384         681.980          25.000    37796913.300   148323209.892         509.617          31.000  
J03  36558387.236   192115630.171         487.952          30.000    36558398.187   143463003.343         364.720          38.000  
J07  36882709.423   193819920.7903        490.540          24.000    36882713.746   144735691.015         366.712          34.000  
C01  36991592.618   192624893.606         465.823          37.000  
C04  38341016.760   199651788.492         446.727          34.000  
C06  37236120.495   193898209.740        1545.968          26.000  
C16  37364962.218   194569111.327        1408.662          27.000  
C23  23630717.344   123051286.897        1290.851          32.000  
C37  24545123.142   127812950.094        3361.165          27.000  
C41  25031482.531   130345530.711       -1203.312          26.000  
C59  37035595.614   192854076.804         483.296          39.000  
> 2024 08 26 05 23 29.0000000  0 17                     
G18                              3        852.625          60.000                                                                  
G23                              3       3041.158          54.000                                                                  
R11  22007972.173   117603949.489          87.460          33.000  
R12  21785006.501   116371577.278        3622.447          33.000  
E10  26009896.251   136682860.570       -2361.277          29.000    26009931.160   102068537.197       -1764.103          36.000  
E31  27863005.751   146421091.933        2691.528          30.000    27863040.233   109340637.359        2009.336          35.000  
J02  37796864.073   198623831.184         682.004          25.000    37796900.326   148323158.946         509.463          31.000  
J03  36558377.945   192115581.332         488.384          30.000    36558388.903   143462966.867         364.763          38.000  
J07  36882700.026   193819871.7123        490.779          24.000    36882704.406   144735654.342         366.730          34.000  
C01  36991583.666   192624847.024         465.832          36.000  
C04  38341008.170   199651743.851         446.409          35.000  
C06  37236090.868   193898055.314        1544.258          26.000  
C16  37364935.227   194568970.356        1409.711          27.000  
C23  23630692.595   123051157.813        1290.844          32.000  
C37  24545058.567   127812614.035        3360.600          27.000  
C41  25031505.622   130345650.876       -1201.653          26.000  
C59  37035586.353   192854028.537         482.660          39.000  
> 2024 08 26 05 23 29.1000000  0 17                     
G18                              3        852.447          60.000                                                                  
G23                              3       3040.944          54.000                                                                  
R11  22007970.581   117603940.633          88.566          33.000  
R12  21784938.890   116371214.893        3623.849          33.000  
E10  26009941.167   136683096.873       -2363.035          28.000    26009976.102   102068713.605       -1764.075          36.000  
E31  27862954.953   146420822.706        2692.268          30.000    27862989.020   109340436.355        2010.037          35.000  
J02  37796851.077   198623762.983         682.011          25.000    37796887.369   148323108.029         509.172          31.000  
J03  36558368.657   192115532.564         487.681          29.000    36558379.615   143462930.399         364.676          38.000  
J07  36882690.625   193819822.5443        486.425          24.000    36882695.058   144735617.698         362.517          34.000  
C01  36991574.714   192624800.402         466.216          36.000  
C04  38340999.580   199651699.176         446.753          35.000  
C06  37236061.260   193897900.943        1543.709          26.000  
C16  37364908.240   194568829.420        1409.363          27.000  
C23  23630667.820   123051028.669        1291.435          32.000  
C37  24544993.983   127812277.995        3360.387          27.000  
C41  25031528.722   130345771.100       -1202.252          26.000  
C59  37035577.074   192853980.278         482.597          39.000  
> 2024 08 26 05 23 29.2000000  0 17                     
G18                              3        851.788          59.000                                                                  
G23                              3       3040.414          54.000                                                                  
R11  22007969.028   117603931.942          86.907          33.000  
R12  21784871.301   116370852.679        3622.145          33.000  
E10  26009985.727   136683333.080       -2367.325          28.000    26010021.050   102068890.013       -1768.006          36.000  
E31  27862904.596   146420553.600        2691.060          30.000    27862937.808   109340235.334        2010.212          35.000  
J02  37796838.072   198623694.754         682.289          25.000    37796874.399   148323057.104         509.249          31.000  
J03  36558359.351   192115483.676         488.876          29.000    36558370.332   143462893.935         364.638          38.000  
J07  36882681.245   193819773.4793        490.655          24.000                                                                  
C01  36991565.780   192624753.856         465.465          36.000  
C04  38340990.995   199651654.523         446.532          35.000  
C06  37236031.599   193897746.340        1546.031          26.000  
C16  37364881.245   194568688.453        1409.673          27.000  
C23  23630643.049   123050899.487        1291.823          32.000  
C37  24544929.408   127811941.942        3360.535          27.000  
C41  25031551.848   130345891.438       -1203.368          26.000  
C59  37035567.786   192853931.962         483.159          39.000  
> 2024 08 26 05 23 29.3000000  0 17                     
G18                              3        852.504          59.000                                                                  
G23                              3       3041.119          54.000                                                                  
R11  22007967.440   117603923.182          87.602          33.000  
R12  21784803.698   116370490.398        3622.801          33.000  
E10  26010030.525   136683569.362       -2362.813          28.000    26010066.006   102069066.444       -1764.318          36.000  
E31  27862854.387   146420284.482        2691.180          30.000    27862886.601   109340034.334        2009.999          34.000  
J02  37796825.081   198623626.559         681.943          25.000    37796861.412   148323006.133         509.704          31.000  
J03  36558350.050   192115434.849         488.272          29.000    36558361.039   143462857.461         364.749          38.000  
J07  36882671.884   193819724.4263        490.534          23.000    36882676.368   144735544.366         366.476          34.000  
C01  36991556.828   192624707.242         466.141          36.000  
C04  38340982.400   199651609.837         446.850          36.000  
C06  37236001.990   193897591.955        1543.850          26.000  
C16  37364854.246   194568547.488        1409.656          27.000  
C23  23630618.296   123050770.351        1291.364          32.000  
C37  24544864.809   127811605.800        3356.211          27.000  
C41  25031574.952   130346011.627       -1201.893          26.000  
C59  37035558.502   192853883.674         482.874          39.000  
> 2024 08 26 05 23 29.4000000  0 17                     
G18                              3        851.711          59.000                                                                  
G23                              3       3040.366          55.000                                                                  
R11  22007965.847   117603914.442          87.399          33.000  
R12  21784736.087   116370128.102        3622.959          32.000  
E10  26010075.561   136683805.661       -2362.988          27.000    26010110.958   102069242.893       -1764.480          36.000  
E31  27862803.970   146420015.227        2692.555          30.000    27862835.402   109339833.391        2009.426          35.000  
J02  37796812.088   198623558.367         681.924          24.000    37796848.433   148322955.220         509.134          31.000  
J03  36558340.754   192115386.019         488.297          29.000    36558351.765   143462821.015         364.459          38.000  
J07  36882662.483   193819675.3123        491.145          23.000    36882667.020   144735507.725         366.413          34.000  
C01  36991547.893   192624660.673         465.690          37.000  
C04  38340973.806   199651565.186         446.511          35.000  
C06  37235972.360   193897437.498        1544.575          26.000  
C16  37364827.255   194568406.629        1408.586          27.000  
C23  23630593.565   123050641.391        1289.600          32.000  
C37  24544800.226   127811269.707        3360.930          28.000  
C41  25031598.073   130346131.953       -1203.259          26.000  
C59  37035549.227   192853835.410         482.644          40.000  
> 2024 08 26 05 23 29.5000000  0 17                     
G18                              3        852.000          58.000                                                                  
G23                              3       3041.000          55.000                                                                  
R11  22008054.482   117604387.568          87.000          33.000  
R12  21784758.664   116370247.578        3623.000          33.000  
E10  26010210.941   136684515.8721                         28.000    26010246.071   102069773.1971                         36.000  
E31  27862843.777   146420220.2341                         30.000    27862874.387   109339986.3221                         35.000  
J02  37796889.284   198623964.113         682.000          25.000    37796925.646   148323258.218         510.000          31.000  
J03  36558421.644   192115811.128         489.000          29.000    36558432.686   143463138.498         365.000          38.000  
J07  36882743.290   193820100.1493        492.000          23.000    36882747.862   144735824.963         367.000          34.000  
C01  36991629.145   192625083.690         465.000          37.000  
C04  38341055.412   199651990.160         447.000          35.000  
C06  37236032.939   193897752.642        1547.000          26.000  
C16  37364890.446   194568735.370        1411.000          27.000  
C23  23630658.982   123050981.815        1291.000          32.000  
C37  24544825.855   127811403.372        3365.207          28.000  
C41  25031711.382   130346721.860       -1203.000          26.000  
C59  37035630.131   192854256.724         482.000          40.000  
> 2024 08 26 05 23 30.2000000  0 17                     
G18                              3        850.687          58.000                                                                  
G23                              3       3039.893          53.000                                                                  
R11  22008043.903   117604326.835          86.506          33.000  
R12  21784285.279   116367711.933        3622.128          32.000  
E10  26010529.366   136686169.729       -2363.339          29.000    26010560.776   102071008.259       -1764.549          36.000  
E31  27862486.315   146418336.136        2690.609          30.000    27862515.950   109338579.518        2008.947          35.000  
J02  37796798.385   198623486.730         682.808          24.000    37796834.800   148322901.727         509.975          31.000  
J03  36558356.568   192115469.480         487.474          31.000    36558367.740   143462883.296         364.494          39.000  
J07  36882677.546   193819756.5053        490.898          22.000    36882682.480   144735568.394         366.672          34.000  
C01  36991566.565   192624757.662         465.455          37.000  
C04  38340995.349   199651677.598         446.570          35.000  
C06  37235825.603   193896671.424        1543.974          26.000  
C16  37364701.447   194567749.035        1408.089          27.000  
C23  23630485.701   123050078.375        1289.849          32.000  
C37  24544373.933   127809051.046        3360.248          28.000  
C41  25031873.098   130347563.782       -1202.866          26.000  
C59  37035565.212   192853918.812         482.917          40.000  
> 2024 08 26 05 23 30.3000000  0 17                     
G18                              3        850.759          58.000                                                                  
G23                              3       3040.091          53.000                                                                  
R11  22008042.419   117604318.118          87.171          33.000  
R12  21784217.628   116367349.687        3622.460          33.000  
E10  26010574.772   136686406.028       -2362.993          28.000    26010605.724   102071184.672       -1764.126          36.000  
E31  27862435.168   146418067.001        2691.361          30.000    27862464.733   109338378.481        2010.365          35.000  
J02  37796785.411   198623418.602         681.280          24.000    37796821.830   148322850.833         508.940          32.000  
J03  36558347.262   192115420.643         488.373          31.000    36558358.479   143462846.916         363.794          39.000  
J07  36882668.167   193819707.4463        490.593          22.000    36882673.136   144735531.743         366.511          34.000  
C01  36991557.652   192624711.102         465.595          37.000  
C04  38340986.785   199651632.980         446.186          35.000  
C06  37235795.995   193896517.049        1543.749          26.000  
C16  37364674.438   194567608.054        1409.802          27.000  
C23  23630460.939   123049949.268        1291.062          32.000  
C37  24544309.403   127808715.089        3359.584          28.000  
C41  25031896.202   130347684.070       -1202.886          26.000  
C59  37035555.946   192853870.585         482.263          40.000  
> 2024 08 26 05 23 30.4000000  0 17                     
G18                              3        851.109          58.000                                                                  
G23                              3       3040.498          53.000                                                                  
R11  22008040.953   117604309.556          85.610          32.000  
R12  21784149.974   116366987.492        3621.944          33.000  
E10  26010620.142   136686642.260       -2362.322          29.000    26010650.684   102071361.156       -1764.838          36.000  
E31  27862384.130   146417797.862        2691.371          30.000    27862413.534   109338177.559        2009.214          35.000  
J02  37796772.420   198623350.360         682.420          25.000    37796808.838   148322799.871         509.626          32.000  
J03  36558337.962   192115371.834         488.095          31.000    36558349.191   143462810.432         364.840          39.000  
J07  36882658.783   193819658.3993        490.467          22.000    36882663.805   144735495.159         365.844          34.000  
C01  36991548.731   192624664.539         465.624          37.000  
C04  38340978.221   199651588.349         446.301          35.000  
C06  37235766.364   193896362.554        1544.949          26.000  
C16  37364647.447   194567467.160        1408.952          27.000  
C23  23630436.204   123049820.292        1289.756          32.000  
C37  24544244.850   127808379.014        3360.743          28.000  
C41  25031919.288   130347804.313       -1202.428          26.000  
C59  37035546.671   192853822.312         482.739          40.000  
> 2024 08 26 05 23 30.5000000  0 16                     
G18                              3        851.000          58.000                                                                  
G23                              3       3040.000          53.000                                                                  
R11  22008134.979   117604811.276          87.000          32.000  
R12  21784177.816   116367135.416        3622.000          33.000  
E10  26010761.049   136687380.436       -2357.745          29.000    26010791.146   102071912.350       -1759.076          36.000  
E31  27862428.599   146418030.591        2691.000          30.000    27862457.823   109338351.344        2011.000          34.000  
J02  37796854.942   198623783.987         683.000          28.000    37796891.374   148323123.742         509.000          32.000  
J03  36558424.178   192115824.964         488.000          31.000    36558435.412   143463148.760         364.000          39.000  
C01  36991635.309   192625115.272         472.000          37.000  
C04  38341065.158   199652041.004         446.000          35.000  
C06  37235832.234   193896705.386        1546.000          26.000  
C16  37364715.949   194567823.544        1409.000          27.000  
C23  23630506.947   123050188.493        1291.000          32.000  
C37  24544275.815   127808540.284        3360.000          28.000  
C41  25032037.885   130348421.913       -1202.000          26.000  
C59  37035632.901   192854271.313         483.000          40.000  
> 2024 08 26 05 23 30.6000000  0 16                     
G18                              3        850.444          58.000                                                                  
G23                              3       3039.771          53.000                                                                  
R11  22008133.496   117604802.553          87.225          32.000  
R12  21784110.170   116366773.257        3621.595          33.000  
E10  26010806.528   136687616.771       -2363.343          29.000    26010836.111   102072088.814       -1764.641          36.000  
E31  27862377.918   146417761.523        2690.670          30.000    27862406.624   109338150.372        2009.707          35.000  
J02  37796841.981   198623715.894         680.932          28.000    37796878.400   148323072.814         509.274          32.000  
J03  36558414.869   192115776.107         488.569          31.000    36558426.124   143463112.305         364.544          38.000  
C01  36991626.353   192625068.680         465.919          36.000  
C04  38341056.586   199651996.334         446.703          35.000  
C06  37235802.621   193896550.985        1544.007          26.000  
C16  37364688.952   194567682.679        1408.650          27.000  
C23  23630482.216   123050059.552        1289.412          32.000  
C37  24544211.276   127808204.271        3360.132          28.000  
C41  25032060.989   130348542.263       -1203.499          26.000  
C59  37035623.631   192854223.059         482.537          40.000  
> 2024 08 26 05 23 30.7000000  0 16                     
G18                              3        850.495          57.000                                                                  
G23                              3       3040.196          53.000                                                                  
R11  22008132.047   117604793.990          85.632          32.000  
R12  21784042.494   116366411.013        3622.435          33.000  
E10  26010851.990   136687853.032       -2362.621          29.000    26010881.075   102072265.266       -1764.522          37.000  
E31  27862327.133   146417492.242        2692.811          29.000    27862355.424   109337949.385        2009.873          35.000  
J02  37796829.011   198623647.679         682.156          28.000    37796865.430   148323021.901         509.140          32.000  
J03  36558405.590   192115727.392         487.149          31.000    36558416.858   143463075.911         363.953          38.000  
C01  36991617.423   192625022.127         465.522          36.000  
C04  38341048.040   199651951.740         445.936          35.000  
C06  37235772.995   193896396.503        1544.826          26.000  
C16  37364661.948   194567541.761        1409.172          27.000  
C23  23630457.453   123049930.463        1290.886          32.000  
C37  24544146.740   127807868.222        3360.480          28.000  
C41  25032084.093   130348662.588       -1203.254          26.000  
C59  37035614.361   192854174.825         482.336          40.000  
> 2024 08 26 05 23 31.0000000  0 16                     
G18                              3        851.122          57.000                                                                  
G23                              3       3040.760          52.000                                                                  
R11  22008127.689   117604768.157          86.695          32.000  
R12  21783839.500   116365324.430        3622.372          33.000  
E10  26010987.823   136688561.869       -2361.308          30.000    26011016.005   102072794.606       -1763.880          36.000  
E31  27862173.681   146416684.947        2690.544          30.000    27862201.811   109337346.437        2010.204          34.000  
J02  37796790.093   198623443.138         681.965          28.000    37796826.493   148322869.159         509.515          32.000  
J03  36558377.713   192115580.986         487.883          30.000    36558389.012   143462966.543         365.080          38.000  
C01  36991590.637   192624882.401         466.112          36.000  
C04  38341022.362   199651817.803         446.391          35.000  
C06  37235684.100   193895933.279        1544.476          25.000  
C16  37364580.931   194567119.118        1408.686          27.000  
C23  23630383.242   123049543.452        1289.827          32.000  
C37  24543953.161   127806860.181        3360.227          28.000  
C41  25032153.392   130349023.419       -1203.076          26.000  
C59  37035586.532   192854030.001         482.815          40.000  
> 2024 08 26 05 23 31.5000000  0 18                     
G15                              3       -862.000          32.000                                                                  
G18                                       852.999          56.000                                                                  
G23                                      3042.000          51.000                                                                  
R11  22008210.547   117605206.981          85.000          32.000  
R12  21783591.406   116363995.068        3622.000          33.000  
E10  26011303.000   136690217.120       -2357.745          30.000    26011331.095   102074030.645       -1759.076          36.000  
E31  27862007.188   146415812.834        2693.000          30.000    27862035.955   109336695.289        2011.000          34.000  
J02  37796815.326   198623575.794         683.000          27.000    37796851.723   148322968.213         512.000          32.000  
J03  36558421.417   192115810.662         489.999          30.000    36558432.790   143463138.098         366.000          38.000  
J06                              3       -863.000          30.000                                                                  
C01  36991636.130   192625118.922         468.000          37.000  
C04  38341069.704   199652063.937         447.000          35.000  
C06  37235626.026   193895630.564        1546.000          25.000  
C16  37364536.015   194566884.015        1410.000          27.000  
C23  23630349.642   123049367.818        1292.000          32.000  
C37  24543720.655   127805649.426        3356.793          28.000  
C41  25032358.990   130350094.228       -1202.000          25.000  
C59  37035630.319   192854258.032         485.000          40.000  
> 2024 08 26 05 23 31.6000000  0 18                     
G15                              3       -860.899          32.000                                                                  
G18                                       852.029          56.000                                                                  
G23                                      3042.052          51.000                                                                  
R11  22008209.042   117605198.317          86.636          32.000  
R12  21783523.743   116363632.801        3622.679          33.000  
E10  26011347.743   136690453.415       -2362.950          30.000    26011376.043   102074206.991       -1763.462          36.000  
E31  27861955.693   146415543.646        2691.889          29.000    27861984.725   109336494.192        2010.972          35.000  
J02  37796802.312   198623507.476         683.175          28.000    37796838.730   148322917.228         509.843          32.000  
J03  36558412.121   192115761.767         488.951          30.000    36558423.494   143463101.579         365.195          38.000  
J06                              3       -861.618          30.000                                                                  
C01  36991627.178   192625072.236         466.861          37.000  
C04  38341061.114   199652019.169         447.675          35.000  
C06  37235596.325   193895475.934        1546.285          25.000  
C16  37364509.006   194566743.069        1409.459          27.000  
C23  23630324.862   123049238.688        1291.309          32.000  
C37  24543656.098   127805313.265        3361.612          28.000  
C41  25032382.059   130350214.468       -1202.401          25.000  
C59  37035621.022   192854209.635         483.963          40.000  
> 2024 08 26 05 23 31.7000000  0 18                     
G15                              3       -862.483          31.000                                                                  
G18                                       851.295          56.000                                                                  
G23                                      3041.441          51.000                                                                  
R11  22008207.528   117605189.653          86.646          32.000  
R12  21783456.058   116363270.470        3623.312          34.000  
E10  26011392.314   136690689.435       -2360.204          29.000    26011421.011   102074383.394       -1764.033          36.000  
E31  27861904.128   146415274.373        2692.729          29.000    27861933.501   109336293.140        2010.527          35.000  
J02  37796789.325   198623439.164         683.119          28.000    37796825.743   148322866.256         509.719          32.000  
J03  36558402.811   192115712.850         489.168          30.000    36558414.201   143463065.071         365.079          38.000  
J06                              3       -861.624          30.000                                                                  
C01  36991618.226   192625025.513         467.229          37.000  
C04  38341052.542   199651974.411         447.586          35.000  
C06  37235566.646   193895321.408        1545.264          25.000  
C16  37364481.989   194566602.058        1410.103          27.000  
C23  23630300.096   123049109.573        1291.158          32.000  
C37  24543591.536   127804977.084        3361.814          28.000  
C41  25032405.111   130350334.463       -1205.165          25.000  
C59  37035611.734   192854161.236         483.994          40.000  
> 2024 08 26 05 23 31.8000000  0 18                     
G15                              3       -861.761          31.000                                                                  
G18                                       851.858          56.000                                                                  
G23                                      3042.086          51.000                                                                  
R11  22008206.010   117605180.985          86.671          32.000  
R12  21783388.372   116362908.182        3622.861          33.000  
E10  26011436.302   136690925.708       -2362.739          30.000    26011465.963   102074559.752       -1763.576          36.000  
E31  27861852.567   146415005.150        2692.228          30.000    27861882.263   109336092.039        2011.014          34.000  
J02  37796776.333   198623370.852         683.119          28.000    37796812.716   148322815.171         510.848          32.000  
J03  36558393.514   192115663.959         488.919          30.000    36558404.913   143463028.556         365.150          38.000  
J06                              3       -861.826          30.000                                                                  
C01  36991609.291   192624978.854         466.584          37.000  
C04  38341043.956   199651929.649         447.614          35.000  
C06  37235536.968   193895166.826        1545.822          25.000  
C16  37364454.963   194566460.979        1410.792          27.000  
C23  23630275.339   123048980.564        1290.087          32.000  
C37  24543526.996   127804641.001        3360.819          27.000  
C41  25032428.198   130350454.663       -1201.999          25.000  
C59  37035602.450   192854112.888         483.483          40.000  
> 2024 08 26 05 23 32.0000000  0 18                     
G15                              3       -861.962          31.000                                                                  
G18                                       851.194          56.000                                                                  
G23                                      3041.491          51.000                                                                  
R11  22008203.008   117605163.750          86.137          32.000  
R12  21783252.959   116362183.618        3622.589          33.000  
E10  26011524.391   136691398.085       -2356.946          30.000    26011555.872   102074912.502       -1759.714          36.000  
E31  27861749.684   146414466.495        2692.976          30.000    27861779.781   109335689.909        2010.817          34.000  
J02  37796750.319   198623234.160         683.535          28.000    37796786.698   148322713.081         510.316          32.000  
J03  36558374.891   192115566.082         489.094          30.000    36558386.303   143462955.486         365.074          38.000  
J06                              3       -862.294          30.000                                                                  
C01  36991591.370   192624885.416         467.067          37.000  
C04  38341026.781   199651840.083         447.864          35.000  
C06  37235477.568   193894857.732        1545.467          25.000  
C16  37364400.923   194566179.034        1409.666          27.000  
C23  23630225.772   123048722.308        1290.726          32.000  
C37  24543397.874   127803968.697        3361.725          27.000  
C41  25032474.371   130350695.011       -1201.749          25.000  
C59  37035583.858   192854016.041         483.990          40.000  
> 2024 08 26 05 23 32.1000000  0 16                     
G15                              3       -861.596          31.000                                                                  
R11  22008201.468   117605155.009          87.410          32.000  
R12  21783185.252   116361821.347        3622.708          33.000  
E10  26011568.885   136691634.306       -2356.954          29.000    26011600.814   102075088.852       -1759.573          36.000  
E31  27861698.215   146414197.259        2692.367          30.000    27861728.547   109335488.856        2010.537          34.000  
J02  37796737.305   198623165.821         683.391          28.000    37796773.707   148322662.112         509.688          32.000  
J03  36558365.590   192115517.180         489.017          30.000    36558376.980   143462918.925         365.610          38.000  
J06                              3       -861.093          30.000                                                                  
C01  36991582.414   192624838.730         466.866          37.000  
C04  38341018.187   199651795.279         448.038          35.000  
C06  37235447.868   193894703.161        1545.714          25.000  
C16  37364373.897   194566037.999        1410.346          27.000  
C23  23630200.988   123048593.216        1290.919          32.000  
C37  24543333.303   127803632.554        3356.225          27.000  
C41  25032497.418   130350815.175       -1201.636          25.000  
C59  37035574.574   192853967.639         484.030          40.000  
> 2024 08 26 05 23 32.2000000  0 16                     
G15                              3       -861.852          31.000                                                                  
R11  22008199.968   117605146.407          86.019          32.000  
R12  21783117.510   116361459.033        3623.146          33.000  
E10  26011613.431   136691870.402       -2360.951          29.000    26011645.775   102075265.240       -1763.885          36.000  
E31  27861646.829   146413927.960        2693.000          30.000    27861677.300   109335287.759        2010.962          34.000  
J02  37796724.318   198623097.511         683.103          28.000    37796760.680   148322611.063         510.497          31.000  
J03  36558356.284   192115468.238         489.432          30.000    36558367.679   143462882.417         365.078          38.000  
J06                              3       -861.958          31.000                                                                  
C01  36991573.462   192624792.032         466.984          36.000  
C04  38341009.601   199651750.497         447.816          35.000  
C06  37235418.189   193894548.653        1545.082          25.000  
C16  37364346.863   194565896.975        1410.247          27.000  
C23  23630176.213   123048464.152        1290.636          32.000  
C37  24543268.741   127803296.429        3366.448          27.000  
C41  25032520.475   130350935.334       -1201.590          25.000  
C59  37035565.282   192853919.207         484.321          40.000  
> 2024 08 26 05 23 32.5000000  0 16                     
G15                              3       -861.000          32.000                                                                  
R11  22008301.572   117605687.607          87.000          32.000  
R12  21783020.386   116360939.041        3621.000          33.000  
E10  26011854.318   136693136.605       -2361.000          29.000    26011886.741   102076210.773       -1763.000          36.000  
E31  27861600.005   146413677.915        2688.745          30.000    27861629.688   109335100.946        2005.076          34.000  
J02  37796791.432   198623450.176         684.000          28.000    37796827.781   148322874.379         512.000          32.000  
J03  36558434.510   192115879.137         489.000          30.000    36558445.852   143463189.235         364.000          38.000  
J06                              3       -860.000          31.000                                                                  
C01  36991652.677   192625204.510         466.000          37.000  
C04  38341089.955   199652168.740         449.000          35.000  
C06  37235435.255   193894637.610        1545.000          25.000  
C16  37364371.878   194566026.570        1410.000          27.000  
C23  23630207.959   123048629.483        1292.000          32.000  
C37  24543181.154   127802840.550        3366.207          28.000  
C41  25032695.779   130351848.356       -1201.000          25.000  
C59  37035643.542   192854326.612         486.000          39.000  
> 2024 08 26 05 23 33.4000000  0 15                     
G15                              3       -862.088          31.000                                                                  
R11  22008287.865   117605610.780          85.474          32.000  
R12  21782410.728   116357679.144        3622.379          34.000  
E10  26012260.803   136695262.728       -2362.828          29.000    26012291.358   102077798.419       -1763.908          36.000  
E31  27861136.972   146411254.527        2691.661          31.000    27861168.578   109333291.411        2010.454          34.000  
J02  37796674.441   198622835.381         682.580          27.000    37796710.807   148322415.323         509.589          31.000  
J03  36558350.953   192115439.193         488.150          29.000    36558362.147   143462860.745         364.525          38.000  
J06                              3       -862.231          29.000                                                                  
C01  36991572.014   192624784.399         466.279          36.000  
C04  38341012.616   199651766.036         446.760          35.000  
C06  37235168.127   193893246.936        1544.463          24.000  
C16  37364128.483   194564757.787        1410.399          26.000  
C23  23629984.780   123047468.329        1289.638          32.000  
C37  24542600.158   127799815.613        3360.377          28.000  
C59  37035559.972   192853891.261         483.369          40.000  
> 2024 08 26 05 23 33.5000000  0 15                     
G15                              3       -862.000          31.000                                                                  
R11  22008376.569   117606084.357          85.000          33.000  
R12  21782433.208   116357798.806        3620.000          34.000  
E10  26012395.920   136695973.020       -2362.000          30.000    26012426.527   102078328.832       -1762.000          36.000  
E31  27861176.309   146411459.414        2694.000          31.000    27861207.536   109333444.293        2011.000          34.000  
J02  37796751.658   198623241.089         683.000          26.000    37796788.002   148322718.328         510.000          31.000  
J03  36558431.892   192115864.337         488.000          28.000    36558443.051   143463178.177         367.000          38.000  
J06                              3       -862.000          29.000                                                                  
C01  36991653.248   192625207.390         466.000          36.000  
C04  38341094.231   199652191.020         448.000          35.000  
C06  37235228.636   193893562.085        1545.000          25.000  
C16  37364191.652   194565086.519        1408.000          27.000  
C23  23630050.161   123047809.008        1290.000          32.000  
C37  24542625.827   127799949.279        3360.000          28.000  
C59  37035640.898   192854312.565         484.000          41.000  
> 2024 08 26 05 23 34.7000000  0 14                     
R11  22008447.865   117606465.814          84.305          32.000  
R12  21781710.486   116353935.351        3621.424          33.000  
E10  26013026.057   136699282.868       -2363.394          28.000    26013056.451   102080800.423       -1764.943          36.000  
E31  27860653.606   146408702.975        2692.052          28.000    27860682.983   109331386.093        2010.369          34.000  
J02  37796686.076   198622896.096         683.057          26.000    37796722.316   148322460.673         509.548          32.000  
J03  36558411.034   192115752.652         488.395          26.000    36558421.901   143463094.764         364.831          38.000  
J06                              3       -863.168          31.000                                                                  
C01  36991636.095   192625117.716         466.629          36.000  
C04  38341081.278   199652124.442         447.143          34.000  
C06  37234962.725   193892178.634        1544.531          24.000  
C16  37363957.623   194563865.525        1409.039          27.000  
C23  23629842.913   123046731.905        1294.002          32.000  
C37  24541941.840   127796386.612        3360.484          28.000  
C59  37035619.765   192854202.546         483.455          40.000  
> 2024 08 26 05 23 34.8000000  0 15                     
G15                              3       -864.180          29.000                                                                  
R11  22008446.204   117606457.499          83.147          33.000  
R12  21781642.700   116353573.242        3621.090          33.000  
E10  26013071.157   136699519.174       -2363.062          28.000    26013101.433   102080976.864       -1764.409          36.000  
E31  27860602.594   146408433.787        2691.869          28.000    27860631.753   109331185.067        2010.254          34.000  
J02  37796673.089   198622827.838         682.584          26.000    37796709.324   148322409.676         509.971          32.000  
J03  36558401.768   192115703.800         488.523          26.000    36558412.618   143463058.299         364.649          38.000  
J06                              3       -863.768          31.000                                                                  
C01  36991627.160   192625071.097         466.196          36.000  
C04  38341072.675   199652079.723         447.187          35.000  
C06  37234933.047   193892024.215        1544.191          24.000  
C16  37363930.597   194563724.642        1408.831          27.000  
C23  23629818.151   123046603.028        1293.985          32.000  
C37  24541877.327   127796050.539        3360.733          28.000  
C59  37035610.491   192854154.204         483.422          40.000  
> 2024 08 26 05 23 35.6000000  0 15                     
G15                              3       -862.619          31.000                                                                  
R11  22008565.673   117607099.999          82.113          32.000  
R12  21781232.755   116351385.321        3620.143          33.000  
E10  26013562.733   136702106.918       -2362.969          28.000    26013593.960   102082909.266       -1765.254          36.000  
E31  27860327.709   146406977.265        2692.603          27.000    27860354.557   109330097.380        2010.304          34.000  
J02  37796701.798   198622978.800         682.637          27.000    37796738.021   148322522.385         509.548          31.000  
J03  36558460.340   192116010.455         488.020          27.000    36558471.007   143463287.286         364.049          38.000  
J06                              3       -862.785          28.000                                                                  
C01  36991688.288   192625388.838         466.372          37.000  
C04  38341136.512   199652412.893         447.296          35.000  
C06  37234828.171   193891479.409        1543.700          24.000  
C16  37363846.958   194563288.276        1409.409          27.000  
C23  23629752.761   123046262.870        1283.642          32.000  
C37  24541493.836   127794053.129        3360.186          29.000  
C59  37035668.976   192854458.367         483.862          40.000  
> 2024 08 26 05 23 36.9000000  0 15                     
G15                              3       -863.081          31.000                                                                  
R11  22008591.870   117607248.138          81.544          33.000  
R12  21780399.193   116346933.717        3619.780          34.000  
E10  26014190.549   136705430.082       -2364.254          27.000    26014226.475   102085390.829       -1764.870          36.000  
E31  27859707.786   146403728.170        2692.329          30.000    27859736.129   109327671.157        2010.995          34.000  
J02  37796580.577   198622341.959         682.433          30.000    37796616.673   148322046.802         510.199          32.000  
J03  36558387.673   192115626.677         488.142          26.000    36558398.017   143463000.690         364.613          38.000  
J06                              3       -863.397          31.000                                                                  
C01  36991619.582   192625031.110         465.864          36.000  
C04  38341072.352   199652080.190         446.997          35.000  
C06  37234490.091   193889720.250        1544.040          25.000  
C16  37363543.133   194561705.282        1408.677          26.000  
C23  23629478.693   123044836.798        1287.199          32.000  
C37  24540702.805   127789933.319        3361.234          30.000  
C59  37035596.160   192854078.595         483.324          40.000  
> 2024 08 26 05 23 37.1000000  0  8                     
G15                              4                         30.000                                                                  
C01  36991601.679   192624937.858         466.215          36.000  
C04  38341055.155   199651990.856         446.713          35.000  
C06  37234430.782   193889411.463        1544.567          25.000  
C16  37363489.075   194561423.608        1408.374          27.000  
C23  23629429.178   123044579.264        1287.550          32.000  
C37  24540573.791   127789261.378        3359.742          30.000  
C59  37035577.610   192853981.957         483.679          40.000  
> 2024 08 26 05 23 37.2000000  0 18                     
G15                                      -863.248          30.000                                                                  
G18                              3        847.286          59.000                                                                  
G22                              4       2318.820          35.000                                                                  
G23                              3       3041.033          53.000                                                                  
R11  22008587.032   117607223.778          81.037          33.000  
R12  21780195.773   116345847.753        3620.521          34.000  
E10  26014323.798   136706139.192       -2363.037          27.000    26014361.408   102085920.355       -1764.789          36.000  
E31  27859552.912   146402920.571        2692.856          32.000    27859582.420   109327068.135        2010.380          34.000  
J02  37796541.606   198622137.187         682.526          29.000    37796577.649   148321893.873         510.253          32.000  
J03  36558359.910   192115480.332         487.905          27.000    36558370.205   143462891.422         364.571          38.000  
J06                                      -863.257          31.000                                                                  
C01  36991592.726   192624891.273         465.844          36.000  
C04  38341046.552   199651946.129         447.265          35.000  
C06  37234401.120   193889256.982        1544.806          25.000  
C16  37363462.058   194561282.821        1407.876          27.000  
C23  23629404.438   123044450.571        1286.927          32.000  
C37  24540509.304   127788925.496        3358.829          30.000  
C59  37035568.357   192853933.704         482.527          40.000  
> 2024 08 26 05 23 37.3000000  0 18                     
G15                                      -863.468          30.000                                                                  
G18                              3        847.795          59.000                                                                  
G22                              3       2319.149          35.000                                                                  
G23                              3       3041.419          53.000                                                                  
R11  22008585.440   117607215.646          81.321          33.000  
R12  21780128.000   116345485.831        3619.208          34.000  
E10  26014368.510   136706375.581       -2363.889          27.000    26014406.407   102086096.910       -1765.554          36.000  
E31  27859501.459   146402651.414        2691.579          32.000    27859531.186   109326867.136        2009.986          34.000  
J02  37796528.619   198622068.909         682.783          29.000    37796564.675   148321842.999         508.735          32.000  
J03  36558350.661   192115431.590         487.419          26.000    36558360.948   143462855.028         363.938          38.000  
J06                                      -863.430          31.000                                                                  
C01  36991583.775   192624844.648         466.254          36.000  
C04  38341037.975   199651901.514         446.156          35.000  
C06  37234371.494   193889102.701        1542.813          25.000  
C16  37363435.023   194561141.888        1409.320          27.000  
C23  23629379.667   123044321.759        1288.111          32.000  
C37  24540444.795   127788589.524        3359.719          30.000  
C59  37035559.082   192853885.359         483.456          39.000  
> 2024 08 26 05 23 38.0000000  0 19                     
G15                                      -863.357          31.000                                                                  
G18                              3        847.079          59.000                                                                  
G22                              3       2318.550          35.000                                                                  
G23                              3       3041.232          51.000                                                                  
G24  20404660.598   107227204.810        2166.398          30.000    20404671.195    80072323.619        1617.579          37.000  
R11  22008669.855   117607669.367          81.180          32.000  
R12  21779749.273   116343462.215        3619.633          34.000  
E10  26014778.744   136708532.102       -2363.319          26.000    26014816.789   102087707.308       -1765.306          37.000  
E31  27859237.093   146401268.838        2692.997          32.000    27859267.893   109325834.684        2011.051          35.000  
J02  37796533.243   198622092.941         682.772          28.000    37796569.357   148321860.906         508.912          32.000  
J03  36558381.404   192115592.027         487.648          26.000    36558391.556   143462974.800         364.446          38.000  
J06                                      -863.488          33.000                                                                  
C01  36991616.598   192625015.624         466.198          36.000  
C04  38341073.290   199652085.926         447.723          35.000  
C06  37234259.438   193888519.218        1543.656          25.000  
C16  37363341.356   194560653.303        1409.236          27.000  
C23  23629301.900   123043917.918        1287.816          32.000  
C37  24540088.653   127786734.847        3360.313          29.000  
C59  37035589.673   192854044.503         482.923          39.000  
> 2024 08 26 05 23 39.2000000  0 16                     
G18                              3        847.481          57.000                                                                  
G22                              3       2318.953          35.000                                                                  
G23                              3       3042.338          53.000                                                                  
R11  22008751.979   117608111.492          80.494          33.000  
R12  21779038.121   116339657.151        3619.925          35.000  
E10  26015424.118   136711898.330       -2364.185          27.000    26015457.225   102090220.931       -1764.864          36.000  
E31  27858725.221   146398567.613        2692.582          31.000    27858753.503   109323817.584        2011.326          34.000  
J02  37796478.117   198621802.917         683.491          27.000    37796514.265   148321644.222         511.381          31.000  
J03  36558371.056   192115536.036         488.492          27.000    36558380.902   143462933.002         364.648          38.000  
C01  36991609.880   192624980.661         467.006          36.000  
C04  38341070.847   199652074.126         447.405          35.000  
C06  37234004.411   193887190.993        1544.455          24.000  
C16  37363117.543   194559487.776        1408.403          27.000  
C23  23629105.795   123042898.215        1286.480          31.000  
C37  24539415.450   127783227.686        3359.753          29.000  
C59  37035579.041   192853989.216         483.301          40.000  
> 2024 08 26 05 23 39.7000000  0 16                     
G18                              3        847.455          58.000                                                                  
G22                              3       2319.563          34.000                                                                  
G23                              3       3042.658          55.000                                                                  
R11  22008834.728   117608553.242          80.854          33.000  
R12  21778790.180   116338329.051        3619.744          35.000  
E10  26015739.849   136713553.892       -2362.946          27.000    26015772.258   102091457.262       -1764.575          36.000  
E31  27858558.475   146397695.104        2691.507          31.000    27858587.364   109323166.025        2010.842          34.000  
J02  37796503.276   198621935.023         683.910          27.000    37796539.442   148321742.960         509.610          32.000  
J03  36558414.817   192115765.730         488.827          28.000    36558424.597   143463104.510         364.970          38.000  
C01  36991655.216   192625216.742         467.191          37.000  
C04  38341118.011   199652319.874         448.022          35.000  
C06  37233946.355   193886888.259        1545.081          25.000  
C16  37363072.317   194559252.848        1408.807          27.000  
C23  23629072.255   123042724.163        1287.112          31.000  
C37  24539183.078   127782017.051        3360.758          30.000  
C59  37035622.750   192854216.790         484.072          40.000  
> 2024 08 26 05 23 40.9000000  0 16                     
G18                              3        846.760          59.000                                                                  
G22                              3       2318.529          35.000                                                                  
G23                              3       3042.627          55.000                                                                  
R11  22008907.562   117608939.516          79.601          33.000  
R12  21778069.027   116334467.324        3619.031          35.000  
E10  26016367.066   136716863.846       -2364.236          26.000    26016402.097   102093928.931       -1764.790          36.000  
E31  27858034.149   146394937.187        2692.941          32.000    27858062.362   109321106.639        2011.060          34.000  
J02  37796437.341   198621588.376         683.708          27.000    37796473.489   148321484.050         510.909          32.000  
J03  36558393.519   192115653.345         488.628          30.000    36558403.304   143463020.624         364.521          38.000  
C01  36991637.757   192625125.745         467.126          37.000  
C04  38341104.906   199652251.973         447.930          35.000  
C06  37233681.033   193885504.324        1543.377          25.000  
C16  37362837.454   194558031.389        1409.011          27.000  
C23  23628865.653   123041649.336        1286.184          32.000  
C37  24538498.930   127778453.986        3356.286          31.000  
C59  37035601.495   192854105.480         483.724          40.000  
> 2024 08 26 05 23 41.0000000  0 10                     
J02  37796424.342   198621519.9941                         27.000    37796460.473   148321433.0241                         31.000  
J03  36558384.238   192115604.5521                         30.000    36558394.013   143462984.1351                         39.000  
J07  36882693.192   193819856.4724                         22.000    36882701.376   144735642.9901                         33.000  
C01  36991628.770   192625079.035         467.105          36.000  
C04  38341096.299   199652207.198         447.743          35.000  
C06  37233651.446   193885349.920        1544.041          24.000  
C16  37362810.375   194557890.510        1408.800          27.000  
C23  23628840.927   123041520.576        1287.588          31.000  
C37  24538434.438   127778118.078        3359.083          30.000  
C59  37035592.203   192854057.057         484.231          40.000  
> 2024 08 26 05 23 41.6000000  0 17                     
G18                              3        845.112          59.000                                                                  
G22                              3       2316.773          33.000                                                                  
G23                              3       3041.404          52.000                                                                  
R11  22008987.562   117609366.414          78.489          33.000  
R12  21777686.069   116332415.911        3617.999          35.000  
E10  26016771.195   136718992.473       -2364.685          26.000    26016807.208   102095518.472       -1765.198          36.000  
E31  27857766.594   146393526.078        2693.905          32.000    27857793.777   109320052.886        2010.977          34.000  
J02  37796436.568   198621583.819         683.170          27.000    37796472.699   148321480.738         509.267          32.000  
J03  36558418.712   192115785.591         487.931          29.000    36558428.585   143463119.309         364.846          39.000  
J07  36882727.454   193820035.2313        491.852          22.000    36882735.406   144735776.491         367.066          33.000  
C01  36991665.128   192625268.529         467.029          37.000  
C04  38341134.916   199652408.260         447.299          35.000  
C06  37233563.973   193884892.971        1543.646          24.000  
C16  37362738.093   194557514.924        1408.644          27.000  
C23  23628782.944   123041218.537        1285.792          31.000  
C37  24538137.558   127776571.641        3359.334          30.000  
C59  37035626.733   192854236.417         483.352          40.000  
> 2024 08 26 05 23 41.7000000  0 17                     
G18                              3        845.609          59.000                                                                  
G22                              3       2317.148          33.000                                                                  
G23                              3       3042.046          52.000                                                                  
R11  22008986.135   117609358.660          77.542          33.000  
R12  21777618.445   116332054.009        3619.023          35.000  
E10  26016815.707   136719228.854       -2363.805          26.000    26016852.200   102095694.991       -1765.193          36.000  
E31  27857715.696   146393256.744        2688.089          31.000    27857742.556   109319851.893        2006.004          34.000  
J02  37796423.598   198621515.505         683.138          27.000    37796459.677   148321429.601         511.366          31.000  
J03  36558409.442   192115736.818         487.728          29.000    36558419.336   143463082.921         363.883          39.000  
J07  36882718.144   193819986.0603        491.712          22.000    36882726.027   144735739.763         367.277          33.000  
C01  36991656.180   192625221.897         466.316          36.000  
C04  38341126.335   199652363.554         447.067          35.000  
C06  37233534.346   193884738.524        1544.467          24.000  
C16  37362711.032   194557374.143        1407.807          27.000  
C23  23628758.261   123041089.933        1286.033          31.000  
C37  24538073.035   127776235.626        3360.153          30.000  
C59  37035617.471   192854188.057         483.598          40.000  
> 2024 08 26 05 23 41.8000000  0 17                     
G18                              3        845.499          59.000                                                                  
G22                              3       2317.283          33.000                                                                  
G23                              3       3042.044          52.000                                                                  
R11  22008984.687   117609350.859          78.006          33.000  
R12  21777550.821   116331692.121        3618.880          35.000  
E10  26016860.341   136719465.215       -2363.614          26.000    26016897.213   102095871.613       -1766.212          36.000  
E31  27857664.780   146392987.755        2689.875          31.000    27857691.300   109319650.742        2011.503          34.000  
J02  37796410.611   198621447.159         683.457          27.000    37796446.685   148321378.640         509.615          31.000  
J03  36558400.163   192115688.023         487.956          28.000    36558410.075   143463046.480         364.410          38.000  
J07  36882708.856   193819936.9073        491.532          22.000                                                                  
C01  36991647.228   192625175.244         466.535          36.000  
C04  38341117.745   199652318.785         447.680          35.000  
C06  37233504.742   193884584.175        1543.493          24.000  
C16  37362683.954   194557233.295        1408.480          26.000  
C23  23628733.573   123040961.343        1285.907          31.000  
C37  24538008.530   127775899.649        3359.760          30.000  
C59  37035608.205   192854139.724         483.329          39.000  
> 2024 08 26 05 23 42.2000000  0 17                     
G18                              3        845.808          58.000                                                                  
G22                              3       2317.163          33.000                                                                  
G23                              3       3042.576          53.000                                                                  
R11  22008979.003   117609319.668          77.893          33.000  
R12  21777280.291   116330244.774        3618.509          35.000  
E10  26017039.864   136720410.885       -2363.717          27.000    26017077.142   102096577.682       -1765.279          36.000  
E31  27857462.135   146391910.269        2694.805          30.000    27857486.330   109318846.418        2011.304          35.000  
J02  37796358.593   198621173.772         684.169          27.000    37796394.631   148321174.535         509.318          32.000  
J03  36558363.055   192115492.799         488.420          28.000    36558372.971   143462900.669         364.962          39.000  
J07  36882671.613   193819740.1353        492.074          22.000    36882679.208   144735556.112         367.230          34.000  
C01  36991611.346   192624988.471         467.191          36.000  
C04  38341083.389   199652139.749         447.808          35.000  
C06  37233386.286   193883966.438        1544.801          24.000  
C16  37362575.613   194556669.885        1408.696          26.000  
C23  23628634.769   123040446.986        1286.254          31.000  
C37  24537750.507   127774555.675        3360.345          30.000  
C59  37035571.062   192853946.161         483.913          40.000  
> 2024 08 26 05 23 42.3000000  0 17                     
G18                              4        845.773          58.000                                                                  
G22                              3       2317.548          33.000                                                                  
G23                              3       3042.670          53.000                                                                  
R11  22008977.594   117609311.840          78.286          33.000  
R12  21777212.596   116329882.827        3619.470          35.000  
E10  26017084.746   136720647.274       -2363.889          26.000    26017122.133   102096754.208       -1765.260          36.000  
E31  27857410.783   146391641.304        2689.643          30.000    27857435.083   109318645.298        2011.196          34.000  
J02  37796345.566   198621105.314         684.586          27.000    37796381.574   148321123.305         512.304          32.000  
J03  36558353.776   192115443.978         488.211          28.000    36558363.687   143462864.208         364.609          39.000  
J07  36882662.291   193819690.8453        492.904          21.000    36882669.846   144735519.330         367.822          33.000  
C01  36991602.377   192624941.730         467.412          36.000  
C04  38341074.804   199652094.974         447.745          35.000  
C06  37233356.677   193883811.972        1544.662          24.000  
C16  37362548.491   194556528.893        1409.922          26.000  
C23  23628610.073   123040318.394        1285.919          31.000  
C37  24537685.993   127774219.649        3360.246          30.000  
C59  37035561.765   192853897.661         485.004          40.000  
> 2024 08 26 05 23 42.5000000  0 17                     
G18                              3        846.000          57.000                                                                  
G22                              3       2318.000          33.000                                                                  
G23                              3       3043.000          53.000                                                                  
R11  22009070.210   117609806.585          77.000          33.000  
R12  21777172.757   116329669.282        3618.000          36.000  
E10  26017269.949   136721621.840       -2364.000          27.000    26017307.615   102097481.974       -1763.000          36.000  
E31  27857402.869   146391604.3231       2693.000          29.000    27857428.085   109318617.836        2011.000          34.000  
J02  37796415.039   198621470.391         684.000          27.000    37796451.030   148321396.008         510.000          32.000  
J03  36558430.701   192115848.150         488.000          28.000    36558440.617   143463166.034         364.000          39.000  
J07  36882739.158   193820094.2803        493.000          21.000    36882746.610   144735820.580         367.000          33.000  
C01  36991679.947   192625345.618         466.000          36.000  
C04  38341153.117   199652502.693         448.000          35.000  
C06  37233392.987   193884000.467        1545.000          24.000  
C16  37362589.774   194556744.396        1409.000          26.000  
C23  23628656.167   123040558.431        1287.000          31.000  
C37  24537652.463   127774044.837        3358.000          30.000  
C59  37035638.673   192854298.134         484.000          41.000  
> 2024 08 26 05 23 42.6000000  0 17                     
G18                              3        845.938          57.000                                                                  
G22                              3       2317.040          33.000                                                                  
G23                              3       3042.865          53.000                                                                  
R11  22009068.740   117609798.806          77.779          33.000  
R12  21777105.077   116329307.446        3618.358          36.000  
E10  26017314.962   136721858.257       -2364.166          27.000    26017352.619   102097658.541       -1765.663          36.000  
E31  27857351.256   146391335.0071       2693.156          30.000    27857376.852   109318416.796        2010.402          34.000  
J02  37796402.030   198621402.066         683.251          27.000    37796437.999   148321344.876         511.322          32.000  
J03  36558421.422   192115799.360         487.895          28.000    36558431.333   143463129.617         364.155          39.000  
J07  36882729.849   193820045.1023        491.778          21.000    36882737.247   144735783.831         367.496          33.000  
C01  36991670.973   192625298.913         467.052          36.000  
C04  38341144.527   199652457.951         447.427          35.000  
C06  37233363.391   193883846.054        1544.130          24.000  
C16  37362562.691   194556603.595        1408.015          26.000  
C23  23628631.502   123040429.980        1284.511          31.000  
C37  24537587.976   127773708.992        3358.456          30.000  
C59  37035629.393   192854249.801         483.322          41.000  
> 2024 08 26 05 23 43.1000000  0 17                     
G18                              3        844.854          57.000                                                                  
G22                              3       2316.011          33.000                                                                  
G23                              3       3042.057          55.000                                                                  
R11  22009061.485   117609760.347          76.576          33.000  
R12  21776766.752   116327498.524        3618.080          36.000  
E10  26017540.410   136723040.527       -2364.176          27.000    26017577.666   102098541.346       -1765.813          36.000  
E31  27857094.250   146389988.6591       2688.159          30.000    27857120.634   109317411.394        2006.924          34.000  
J02  37796337.002   198621060.433         683.316          27.000    37796372.993   148321089.850         509.819          32.000  
J03  36558375.060   192115555.510         487.453          30.000    36558384.946   143462947.509         364.032          39.000  
J07  36882683.335   193819799.2713        486.597          21.000    36882690.464   144735600.292         362.599          34.000  
C01  36991626.105   192625065.600         466.641          35.000  
C04  38341101.595   199652234.263         447.489          35.000  
C06  37233215.348   193883074.161        1543.885          24.000  
C16  37362427.165   194555899.506        1408.860          27.000  
C23  23628508.147   123039787.353        1284.288          31.000  
C37  24537265.453   127772029.103        3359.578          30.000  
C59  37035582.972   192854008.010         483.416          40.000  
> 2024 08 26 05 23 43.3000000  0 16                     
G15                              3       -863.051          31.000                                                                  
R11  22009058.593   117609745.044          76.360          33.000  
R12  21776631.417   116326775.028        3617.239          36.000  
E10  26017630.876   136723513.442       -2364.313          27.000    26017667.718   102098894.551       -1766.202          36.000  
E31  27856991.441   146389450.1641       2693.587          30.000    27857018.171   109317009.308        2010.923          34.000  
J02  37796311.010   198620923.807         683.060          27.000    37796346.997   148320987.808         509.593          32.000  
J03  36558356.520   192115457.999         487.407          29.000    36558366.397   143462874.706         364.129          39.000  
J06                              3       -863.277          28.000                                                                  
J07  36882664.720   193819700.9283        491.693          20.000                                                                  
C01  36991608.166   192624972.336         466.344          36.000  
C04  38341084.437   199652144.837         447.367          35.000  
C06  37233156.134   193882765.489        1543.475          24.000  
C16  37362372.925   194555617.883        1408.329          26.000  
C23  23628458.824   123039530.346        1285.451          31.000  
C37  24537136.486   127771357.180        3360.104          30.000  
C59  37035564.409   192853911.352         483.777          40.000  
> 2024 08 26 05 23 43.4000000  0 16                     
G15                              3       -864.126          31.000                                                                  
R11  22009057.127   117609737.340          77.041          33.000  
R12  21776563.714   116326413.256        3617.727          36.000  
E10  26017675.938   136723749.953       -2365.100          27.000    26017712.731   102099071.091       -1765.404          36.000  
E31  27856940.191   146389180.9791       2691.861          30.000    27856966.937   109316808.252        2010.556          34.000  
J02  37796297.997   198620855.463         683.438          27.000    37796333.984   148320936.778         510.305          32.000  
J03  36558347.241   192115409.224         487.741          29.000    36558357.126   143462838.290         364.159          39.000  
J06                              3       -863.716          28.000                                                                  
J07  36882655.407   193819651.7403        491.876          20.000    36882662.395   144735490.147         367.151          34.000  
C01  36991599.174   192624925.663         466.722          36.000  
C04  38341075.859   199652100.125         447.103          36.000  
C06  37233126.504   193882611.057        1544.320          25.000  
C16  37362345.807   194555477.113        1407.699          27.000  
C23  23628434.167   123039401.861        1284.841          31.000  
C37  24537072.003   127771021.312        3358.680          30.000  
C59  37035555.121   192853863.011         483.408          40.000  
