     3.03           OBSERVATION DATA    M: Mixed            RINEX VERSION / TYPE
RTKCONV 2.4.3 b34                       20240708 094456 UTC PGM / RUN BY / DATE 
format: u-blox UBX                                          COMMENT             
log: E:\Seafile\GNSS\gnss.data\COM3___9600_240704_091715.ubxCOMMENT             
                                                            MARKER NAME         
                                                            MARKER NUMBER       
                                                            MARKER TYPE         
                                                            OBSERVER / AGENCY   
                                                            REC # / TYPE / VERS 
                                                            ANT # / TYPE        
        0.0000        0.0000        0.0000                  APPROX POSITION XYZ 
        0.0000        0.0000        0.0000                  ANTENNA: DELTA H/E/N
G    4 C1C L1C D1C S1C                                      SYS / # / OBS TYPES 
  2024    07    04    09    17   45.7870000     GPS         TIME OF FIRST OBS   
  2024    07    04    09    20   18.4410000     GPS         TIME OF LAST OBS    
G L1C                                                       SYS / PHASE SHIFT   
  0                                                         GLONASS SLOT / FRQ #
 C1C    0.000 C1P    0.000 C2C    0.000 C2P    0.000        GLONASS COD/PHS/BIS 
                                                            END OF HEADER       
> 2024 07 04 09 17 45.7870000  0 10                     
G24  17757750.239    93317606.2021       1473.211          46.000  
G27  22304329.592   117210037.3291       -764.899          37.000  
G05  20997140.063   110340724.5561      -3063.761          38.000  
G13  20377563.730   107084817.5831      -3343.994          41.000  
G15  17912376.356    94130171.5991      -2043.021          46.000  
G18  18084433.758    95034340.2921      -1251.266          45.000  
G23  18546277.974    97461348.5241       2028.728          45.000  
G32  22727699.341   119434854.7681       2730.650          39.000  
G22  22587653.892   118698908.3041        584.345          30.000  
G10  21489063.900   112925797.3181       2856.107          39.000  
> 2024 07 04 09 17 45.8870000  0 10                     
G24  17757722.161    93317458.857        1473.360          46.000  
G27  22304344.198   117210113.843        -765.253          37.000  
G05  20997198.364   110341030.877       -3063.543          38.000  
G13  20377627.336   107085151.956       -3343.758          41.000  
G15  17912415.200    94130375.886       -2042.970          46.000  
G18  18084457.578    95034465.397       -1251.139          45.000  
G23  18546239.374    97461145.637        2028.819          45.000  
G32  22727647.322   119434581.703        2730.552          39.000  
G22  22587642.759   118698849.879         584.215          30.000  
G10  21489009.542   112925511.770        2855.415          40.000  
> 2024 07 04 09 17 45.9870000  0 10                     
G24  17757694.188    93317311.563        1472.851          46.000  
G27  22304358.768   117210190.355        -765.111          37.000  
G05  20997256.613   110341337.228       -3063.523          38.000  
G13  20377690.995   107085486.353       -3344.062          41.000  
G15  17912454.045    94130580.210       -2043.344          46.000  
G18  18084481.432    95034590.546       -1251.587          45.000  
G23  18546200.774    97460942.782        2028.538          45.000  
G32  22727595.372   119434308.649        2730.517          39.000  
G22  22587631.800   118698791.527         583.257          30.000  
G10  21488955.202   112925226.207        2855.760          40.000  
> 2024 07 04 09 17 46.0870000  0 10                     
G24  17757666.181    93317164.250        1473.112          46.000  
G27  22304373.322   117210266.878        -765.299          37.000  
G05  20997314.984   110341643.605       -3063.740          38.000  
G13  20377754.548   107085820.752       -3344.222          41.000  
G15  17912492.854    94130784.523       -2043.218          46.000  
G18  18084505.269    95034715.691       -1251.526          45.000  
G23  18546162.087    97460739.923        2028.534          45.000  
G32  22727543.353   119434035.573        2730.749          39.000  
G22  22587620.719   118698733.131         583.894          30.000  
G10  21488900.827   112924940.647        2855.459          40.000  
> 2024 07 04 09 17 46.1870000  0 10                     
G24  17757638.138    93317016.975        1472.734          46.000  
G27  22304387.928   117210343.439        -765.805          37.000  
G05  20997373.198   110341949.997       -3064.056          38.000  
G13  20377818.119   107086155.157       -3344.040          41.000  
G15  17912531.803    94130988.858       -2043.367          46.000  
G18  18084529.176    95034840.864       -1251.828          45.000  
G23  18546123.522    97460537.087        2028.272          45.000  
G32  22727491.404   119433762.557        2730.266          39.000  
G22  22587609.621   118698674.772         583.071          30.000  
G10  21488846.540   112924655.104        2855.504          40.000  
> 2024 07 04 09 17 46.2870000  0 10                     
G24  17757610.096    93316869.709        1472.670          46.000  
G27  22304402.464   117210420.003        -765.744          37.000  
G05  20997431.482   110342256.392       -3063.988          38.000  
G13  20377881.760   107086489.579       -3344.383          41.000  
G15  17912570.734    94131193.209       -2043.614          46.000  
G18  18084553.065    95034966.047       -1251.921          45.000  
G23  18546084.887    97460334.259        2028.288          45.000  
G32  22727439.472   119433489.527        2730.291          39.000  
G22  22587598.488   118698616.376         584.210          30.000  
G10  21488792.165   112924369.557        2855.414          40.000  
> 2024 07 04 09 17 46.3870000  0 10                     
G24  17757582.071    93316722.450        1472.550          46.000  
G27  22304417.017   117210496.559        -765.538          37.000  
G05  20997489.730   110342562.788       -3064.209          38.000  
G13  20377945.384   107086824.001       -3344.380          41.000  
G15  17912609.666    94131397.557       -2043.542          46.000  
G18  18084576.850    95035091.230       -1251.911          45.000  
G23  18546046.305    97460131.425        2028.251          45.000  
G32  22727387.453   119433216.514        2730.076          39.000  
G22  22587587.442   118698558.065         583.162          30.000  
G10  21488737.842   112924084.035        2855.118          40.000  
> 2024 07 04 09 17 46.4870000  0 10                     
G24  17757554.063    93316575.225        1472.077          46.000  
G27  22304431.658   117210573.152        -766.016          37.000  
G05  20997547.997   110342869.208       -3064.585          38.000  
G13  20378008.990   107087158.448       -3344.584          41.000  
G15  17912648.510    94131601.937       -2043.905          46.000  
G18  18084600.757    95035216.451       -1252.326          45.000  
G23  18546007.705    97459928.626        2027.891          45.000  
G32  22727335.504   119432943.493        2730.114          39.000  
G22  22587576.361   118698499.771         583.150          30.000  
G10  21488683.555   112923798.514        2855.061          40.000  
> 2024 07 04 09 17 46.5870000  0 10                     
G24  17757525.916    93316428.015        1471.915          46.000  
G27  22304446.212   117210649.783        -766.243          37.000  
G05  20997606.280   110343175.605       -3063.815          38.000  
G13  20378072.683   107087492.903       -3344.580          41.000  
G15  17912687.424    94131806.326       -2043.996          46.000  
G18  18084624.629    95035341.693       -1252.496          45.000  
G23  18545969.105    97459725.841        2027.741          45.000  
G32  22727283.520   119432670.515        2729.920          39.000  
G22  22587565.262   118698441.470         582.666          30.000  
G10  21488629.285   112923513.001        2854.975          40.000  
> 2024 07 04 09 17 46.6870000  0 10                     
G24  17757497.926    93316280.827        1471.824          46.000  
G27  22304460.887   117210726.395        -766.049          37.000  
G05  20997664.547   110343482.093       -3064.933          38.000  
G13  20378136.307   107087827.373       -3344.709          41.000  
G15  17912726.303    94132010.752       -2044.314          46.000  
G18  18084648.483    95035466.952       -1252.652          45.000  
G23  18545930.540    97459523.074        2027.559          45.000  
G32  22727231.605   119432397.544        2729.705          39.000  
G22  22587554.147   118698383.167         582.786          30.000  
G10  21488574.927   112923227.521        2854.922          40.000  
> 2024 07 04 09 17 46.7870000  0 10                     
G24  17757469.918    93316133.631        1471.976          46.000  
G27  22304475.441   117210803.034        -766.466          37.000  
G05  20997722.900   110343788.525       -3064.442          38.000  
G13  20378199.948   107088161.839       -3344.645          41.000  
G15  17912765.147    94132215.135       -2043.789          46.000  
G18  18084672.355    95035592.205       -1252.539          45.000  
G23  18545892.010    97459320.288        2027.810          45.000  
G32  22727179.638   119432124.564        2729.816          39.000  
G22  22587543.031   118698324.855         583.404          30.000  
G10  21488520.692   112922942.021        2855.150          40.000  
> 2024 07 04 09 17 46.8870000  0 10                     
G24  17757442.015    93315986.487        1471.238          46.000  
G27  22304490.046   117210879.713        -766.908          37.000  
G05  20997781.271   110344095.008       -3065.084          38.000  
G13  20378263.606   107088496.357       -3345.421          41.000  
G15  17912804.078    94132419.590       -2044.794          46.000  
G18  18084696.192    95035717.512       -1253.275          45.000  
G23  18545853.480    97459117.551        2027.212          45.000  
G32  22727127.672   119431851.625        2729.256          39.000  
G22  22587531.898   118698266.632         581.770          30.000  
G10  21488466.334   112922656.560        2854.338          40.000  
> 2024 07 04 09 17 46.9870000  0 10                     
G24  17757414.060    93315839.372        1471.116          46.000  
G27  22304504.705   117210956.413        -767.063          37.000  
G05  20997839.520   110344401.507       -3065.064          38.000  
G13  20378327.230   107088830.872       -3345.297          41.000  
G15  17912843.045    94132624.062       -2044.843          46.000  
G18  18084720.081    95035842.844       -1253.424          45.000  
G23  18545814.967    97458914.850        2026.916          45.000  
G32  22727075.722   119431578.705        2729.117          39.000  
G22  22587520.904   118698208.477         581.473          30.000  
G10  21488412.169   112922371.134        2854.163          40.000  
> 2024 07 04 09 17 47.0870000  0 10                     
G24  17757386.035    93315692.248        1471.202          46.000  
G27  22304519.293   117211033.132        -767.296          37.000  
G05  20997897.821   110344708.021       -3065.063          38.000  
G13  20378390.801   107089165.397       -3345.254          41.000  
G15  17912881.941    94132828.530       -2044.667          46.000  
G18  18084743.901    95035968.172       -1253.250          45.000  
G23  18545776.367    97458712.139        2027.102          45.000  
G32  22727023.756   119431305.795        2729.107          39.000  
G22  22587509.736   118698150.168         582.889          30.000  
G10  21488357.899   112922085.683        2854.410          40.000  
> 2024 07 04 09 17 47.1870000  0 10                     
G24  17757358.080    93315545.159        1470.723          46.000  
G27  22304533.916   117211109.837        -767.071          37.000  
G05  20997956.087   110345014.527       -3065.303          38.000  
G13  20378454.494   107089499.931       -3345.582          41.000  
G15  17912920.820    94133033.004       -2044.886          46.000  
G18  18084767.808    95036093.528       -1253.688          45.000  
G23  18545737.837    97458509.419        2027.073          45.000  
G32  22726971.771   119431032.861        2729.315          39.000  
G22  22587498.690   118698092.007         580.959          30.000  
G10  21488303.698   112921800.252        2854.214          40.000  
> 2024 07 04 09 17 47.2870000  0 10                     
G24  17757329.950    93315398.120        1470.278          46.000  
G27  22304548.470   117211186.618        -767.811          37.000  
G05  20998014.389   110345321.095       -3065.656          38.000  
G13  20378518.187   107089834.508       -3345.867          41.000  
G15  17912959.717    94133237.549       -2045.550          46.000  
G18  18084791.679    95036218.933       -1254.111          45.000  
G23  18545699.307    97458306.780        2026.311          45.000  
G32  22726919.857   119430760.023        2728.260          39.000  
G22  22587487.522   118698033.848         581.556          30.000  
G10  21488249.498   112921514.883        2853.501          40.000  
> 2024 07 04 09 17 47.3870000  0 10                     
G24  17757301.977    93315251.077        1470.356          46.000  
G27  22304563.093   117211263.401        -767.899          37.000  
G05  20998072.725   110345627.665       -3065.709          38.000  
G13  20378581.846   107090169.102       -3345.993          41.000  
G15  17912998.579    94133442.082       -2045.361          46.000  
G18  18084815.551    95036344.340       -1254.085          45.000  
G23  18545660.795    97458104.127        2026.501          45.000  
G32  22726867.838   119430487.154        2728.552          39.000  
G22  22587476.406   118697975.706         581.103          30.000  
G10  21488195.176   112921229.493        2853.913          40.000  
> 2024 07 04 09 17 47.4870000  0 10                     
G24  17757273.952    93315104.023        1470.556          46.000  
G27  22304577.681   117211340.150        -767.534          37.000  
G05  20998131.113   110345934.202       -3065.041          38.000  
G13  20378645.434   107090503.655       -3345.284          41.000  
G15  17913037.440    94133646.591       -2044.959          46.000  
G18  18084839.336    95036469.741       -1253.923          45.000  
G23  18545622.212    97457901.453        2026.868          45.000  
G32  22726815.941   119430214.274        2728.896          39.000  
G22  22587465.377   118697917.566         581.688          30.000  
G10  21488140.888   112920944.078        2854.310          40.000  
> 2024 07 04 09 17 47.5870000  0 10                     
G24  17757246.015    93314957.000        1470.085          46.000  
G27  22304592.322   117211416.942        -767.980          37.000  
G05  20998189.449   110346240.805       -3066.043          38.000  
G13  20378709.145   107090838.238       -3345.927          41.000  
G15  17913076.389    94133851.137       -2045.524          46.000  
G18  18084863.225    95036595.155       -1254.232          45.000  
G23  18545583.665    97457698.812        2026.353          45.000  
G32  22726763.939   119429941.414        2728.476          39.000  
G22  22587454.279   118697859.402         581.883          30.000  
G10  21488086.565   112920658.698        2853.685          40.000  
> 2024 07 04 09 17 47.6870000  0 10                     
G24  17757217.937    93314809.995        1470.010          46.000  
G27  22304607.015   117211493.769        -768.586          37.000  
G05  20998247.838   110346547.354       -3065.397          38.000  
G13  20378772.873   107091172.840       -3346.009          41.000  
G15  17913115.303    94134055.704       -2045.735          46.000  
G18  18084887.132    95036720.621       -1254.771          45.000  
G23  18545545.170    97457496.186        2026.088          45.000  
G32  22726711.973   119429668.576        2728.399          39.000  
G22  22587443.198   118697801.315         580.227          30.000  
G10  21488032.278   112920373.332        2853.588          40.000  
> 2024 07 04 09 17 47.7870000  0 10                     
G24  17757189.895    93314662.997        1469.829          46.000  
G27  22304621.673   117211570.556        -767.841          37.000  
G05  20998306.191   110346853.963       -3066.241          38.000  
G13  20378836.584   107091507.434       -3345.964          41.000  
G15  17913154.200    94134260.251       -2045.520          46.000  
G18  18084910.934    95036846.050       -1254.281          45.000  
G23  18545506.587    97457293.544        2026.387          45.000  
G32  22726659.988   119429395.726        2728.435          39.000  
G22  22587432.187   118697743.166         581.586          30.000  
G10  21487977.990   112920087.947        2853.949          40.000  
> 2024 07 04 09 17 47.8870000  0 10                     
G24  17757161.835    93314515.999        1469.849          46.000  
G27  22304636.297   117211647.379        -768.222          37.000  
G05  20998364.545   110347160.536       -3065.435          38.000  
G13  20378900.277   107091842.026       -3346.076          41.000  
G15  17913193.183    94134464.811       -2045.581          46.000  
G18  18084934.859    95036971.510       -1254.714          45.000  
G23  18545467.970    97457090.926        2026.105          45.000  
G32  22726607.952   119429122.865        2728.731          39.000  
G22  22587420.984   118697685.030         581.564          30.000  
G10  21487923.737   112919802.571        2853.754          40.000  
> 2024 07 04 09 17 47.9870000  0 10                     
G24  17757133.932    93314369.052        1469.379          46.000  
G27  22304650.937   117211724.245        -768.908          37.000  
G05  20998422.863   110347467.160       -3066.072          38.000  
G13  20378963.971   107092176.679       -3346.573          41.000  
G15  17913232.115    94134669.420       -2046.250          46.000  
G18  18084958.783    95037097.012       -1255.271          45.000  
G23  18545429.422    97456888.331        2025.821          45.000  
G32  22726556.160   119428850.069        2727.969          39.000  
G22  22587409.938   118697626.971         581.300          30.000  
G10  21487869.415   112919517.224        2853.651          40.000  
> 2024 07 04 09 17 48.0870000  0 10                     
G24  17757105.994    93314222.096        1469.420          46.000  
G27  22304665.526   117211801.091        -768.593          37.000  
G05  20998481.252   110347773.788       -3066.626          38.000  
G13  20379027.594   107092511.280       -3346.043          41.000  
G15  17913270.994    94134874.011       -2045.889          46.000  
G18  18084982.655    95037222.505       -1255.008          45.000  
G23  18545390.822    97456685.730        2025.950          45.000  
G32  22726504.175   119428577.238        2728.389          39.000  
G22  22587398.805   118697568.886         581.161          30.000  
G10  21487815.110   112919231.891        2853.315          40.000  
> 2024 07 04 09 17 48.1870000  0 10                     
G24  17757078.004    93314075.136        1469.481          46.000  
G27  22304680.184   117211877.952        -768.668          37.000  
G05  20998539.640   110348080.386       -3065.917          38.000  
G13  20379091.252   107092845.912       -3346.377          41.000  
G15  17913309.856    94135078.609       -2046.092          46.000  
G18  18085006.527    95037347.996       -1255.094          45.000  
G23  18545352.362    97456483.134        2025.792          45.000  
G32  22726452.243   119428304.451        2727.761          39.000  
G22  22587387.724   118697510.836         580.440          30.000  
G10  21487760.857   112918946.538        2853.372          40.000  
> 2024 07 04 09 17 48.2870000  0 10                     
G24  17757050.031    93313928.219        1469.057          46.000  
G27  22304694.825   117211954.819        -768.816          37.000  
G05  20998597.889   110348387.040       -3066.566          38.000  
G13  20379155.016   107093180.559       -3346.599          41.000  
G15  17913348.839    94135283.220       -2046.171          46.000  
G18  18085030.398    95037473.524       -1255.442          45.000  
G23  18545313.797    97456280.554        2025.699          45.000  
G32  22726400.207   119428031.639        2727.971          39.000  
G22  22587376.573   118697452.774         580.442          30.000  
G10  21487706.587   112918661.188        2853.386          40.000  
> 2024 07 04 09 17 48.3410000  0 10                     
G24  17757034.954    93313848.905        1468.733          46.000  
G27  22304702.747   117211996.377        -769.729          37.000  
G05  20998629.369   110348552.642       -3066.809          38.000  
G13  20379189.427   107093361.282       -3346.851          41.000  
G15  17913369.832    94135393.730       -2046.525          46.000  
G18  18085043.294    95037541.328       -1255.731          45.000  
G23  18545292.996    97456171.186        2025.314          45.000  
G32  22726372.130   119427884.340        2727.659          39.000  
G22  22587370.623   118697421.429         580.385          30.000  
G10  21487677.305   112918507.140        2852.715          40.000  
> 2024 07 04 09 17 48.4410000  0 10                     
G24  17757006.999    93313702.027        1468.681          46.000  
G27  22304717.423   117212073.294        -769.263          38.000  
G05  20998687.775   110348859.305       -3066.888          38.000  
G13  20379253.156   107093695.958       -3346.990          41.000  
G15  17913408.746    94135598.389       -2046.663          46.000  
G18  18085067.096    95037666.892       -1255.731          45.000  
G23  18545254.431    97455968.650        2025.189          45.000  
G32  22726320.163   119427611.581        2727.611          39.000  
G22  22587359.612   118697363.467         579.697          30.000  
G10  21487623.018   112918221.836        2853.023          40.000  
> 2024 07 04 09 17 48.5410000  0 10                     
G24  17756979.009    93313555.160        1468.571          46.000  
G27  22304732.064   117212150.224        -769.437          38.000  
G05  20998746.181   110349166.003       -3066.974          38.000  
G13  20379316.866   107094030.640       -3346.915          41.000  
G15  17913447.660    94135803.058       -2046.717          46.000  
G18  18085090.951    95037792.480       -1255.927          45.000  
G23  18545215.936    97455766.107        2025.410          45.000  
G32  22726268.161   119427338.809        2727.708          39.000  
G22  22587348.548   118697305.425         580.149          30.000  
G10  21487568.678   112917936.534        2852.893          40.000  
> 2024 07 04 09 17 48.6410000  0 10                     
G24  17756951.019    93313408.331        1468.049          46.000  
G27  22304746.757   117212227.209        -770.082          38.000  
G05  20998804.552   110349472.721       -3067.407          38.000  
G13  20379380.560   107094365.347       -3347.194          41.000  
G15  17913486.696    94136007.758       -2047.185          46.000  
G18  18085114.892    95037918.095       -1256.335          45.000  
G23  18545177.406    97455563.619        2024.682          45.000  
G32  22726216.177   119427066.104        2726.901          39.000  
G22  22587337.537   118697247.462         579.359          30.000  
G10  21487514.373   112917651.280        2852.491          40.000  
> 2024 07 04 09 17 48.7410000  0 10                     
G24  17756923.133    93313261.537        1467.919          46.000  
G27  22304761.397   117212304.215        -770.090          38.000  
G05  20998862.940   110349779.451       -3067.371          38.000  
G13  20379444.253   107094700.098       -3347.444          41.000  
G15  17913525.662    94136212.490       -2047.241          46.000  
G18  18085138.834    95038043.753       -1256.500          45.000  
G23  18545138.841    97455361.162        2024.528          45.000  
G32  22726164.210   119426793.417        2726.724          39.000  
G22  22587326.509   118697189.565         578.741          30.000  
G10  21487460.137   112917366.037        2852.613          40.000  
> 2024 07 04 09 17 48.8410000  0 10                     
G24  17756895.195    93313114.726        1468.270          46.000  
G27  22304776.021   117212381.188        -769.732          37.000  
G05  20998921.276   110350086.191       -3067.444          38.000  
G13  20379507.981   107095034.800       -3347.017          41.000  
G15  17913564.594    94136417.197       -2047.045          46.000  
G18  18085162.723    95038169.393       -1256.451          45.000  
G23  18545100.329    97455158.666        2024.950          45.000  
G32  22726112.261   119426520.703        2726.959          39.000  
G22  22587315.428   118697131.567         580.371          29.000  
G10  21487405.832   112917080.800        2852.244          40.000  
> 2024 07 04 09 17 48.9410000  0 10                     
G24  17756867.310    93312967.959        1467.481          46.000  
G27  22304790.661   117212458.225        -770.663          38.000  
G05  20998979.717   110350392.943       -3067.724          38.000  
G13  20379571.587   107095369.567       -3347.818          41.000  
G15  17913603.508    94136621.942       -2047.513          46.000  
G18  18085186.560    95038295.077       -1257.037          45.000  
G23  18545061.833    97454956.208        2024.458          45.000  
G32  22726060.277   119426248.023        2726.637          39.000  
G22  22587304.399   118697073.710         578.457          30.000  
G10  21487351.597   112916795.546        2852.512          40.000  
> 2024 07 04 09 17 49.0410000  0 10                     
G24  17756839.355    93312821.201        1467.534          46.000  
G27  22304805.285   117212535.269        -770.527          37.000  
G05  20999038.088   110350699.713       -3067.786          38.000  
G13  20379635.368   107095704.330       -3347.669          41.000  
G15  17913642.579    94136826.692       -2047.647          46.000  
G18  18085210.502    95038420.767       -1257.098          45.000  
G23  18545023.373    97454753.776        2024.284          45.000  
G32  22726008.292   119425975.340        2726.899          39.000  
G22  22587293.406   118697015.754         579.808          30.000  
G10  21487297.362   112916510.342        2852.069          40.000  
> 2024 07 04 09 17 49.1410000  0 10                     
G24  17756811.382    93312674.442        1467.578          46.000  
G27  22304819.908   117212612.303        -770.387          38.000  
G05  20999096.477   110351006.481       -3067.804          38.000  
G13  20379699.131   107096039.091       -3347.749          41.000  
G15  17913681.528    94137031.453       -2047.676          46.000  
G18  18085234.409    95038546.458       -1257.074          45.000  
G23  18544984.826    97454551.331        2024.369          45.000  
G32  22725956.343   119425702.668        2726.717          39.000  
G22  22587282.307   118696957.866         579.313          29.000  
G10  21487243.057   112916225.117        2852.170          40.000  
> 2024 07 04 09 17 49.2410000  0 10                     
G24  17756783.531    93312527.723        1467.111          46.000  
G27  22304834.758   117212689.365        -770.693          38.000  
G05  20999154.865   110351313.264       -3067.993          38.000  
G13  20379762.737   107096373.868       -3347.934          41.000  
G15  17913720.459    94137236.232       -2047.791          46.000  
G18  18085258.420    95038672.177       -1257.220          45.000  
G23  18544946.365    97454348.916        2023.963          45.000  
G32  22725904.429   119425430.024        2726.274          39.000  
G22  22587271.226   118696899.997         578.432          30.000  
G10  21487188.752   112915939.925        2851.844          40.000  
> 2024 07 04 09 17 49.3410000  0 10                     
G24  17756755.611    93312380.988        1467.284          46.000  
G27  22304849.486   117212766.440        -770.796          37.000  
G05  20999213.271   110351620.042       -3067.847          38.000  
G13  20379826.552   107096708.637       -3347.724          41.000  
G15  17913759.408    94137441.001       -2047.755          46.000  
G18  18085282.292    95038797.891       -1257.196          45.000  
G23  18544907.818    97454146.471        2024.333          45.000  
G32  22725852.479   119425157.351        2726.813          39.000  
G22  22587260.285   118696842.176         577.725          29.000  
G10  21487134.516   112915654.695        2852.219          40.000  
> 2024 07 04 09 17 49.4410000  0 10                     
G24  17756727.673    93312234.278        1467.020          46.000  
G27  22304864.074   117212843.518        -770.918          37.000  
G05  20999271.659   110351926.856       -3068.164          38.000  
G13  20379890.298   107097043.421       -3347.969          41.000  
G15  17913798.357    94137645.792       -2048.019          46.000  
G18  18085306.199    95038923.636       -1257.568          45.000  
G23  18544869.235    97453944.061        2024.051          45.000  
G32  22725800.652   119424884.703        2726.414          39.000  
G22  22587249.239   118696784.251         579.182          30.000  
G10  21487080.281   112915369.508        2851.865          40.000  
> 2024 07 04 09 17 49.5410000  0 10                     
G24  17756699.823    93312087.602        1466.536          46.000  
G27  22304878.698   117212920.620        -771.080          37.000  
G05  20999330.083   110352233.652       -3068.085          38.000  
G13  20379954.026   107097378.235       -3348.327          41.000  
G15  17913837.358    94137850.608       -2048.269          46.000  
G18  18085330.036    95039049.391       -1257.599          45.000  
G23  18544830.688    97453741.665        2023.947          45.000  
G32  22725748.721   119424612.076        2726.072          39.000  
G22  22587238.280   118696726.434         578.176          30.000  
G10  21487026.081   112915084.314        2852.034          40.000  
> 2024 07 04 09 17 49.6410000  0 10                     
G24  17756671.885    93311940.921        1466.636          46.000  
G27  22304893.373   117212997.729        -771.159          37.000  
G05  20999388.489   110352540.475       -3068.182          38.000  
G13  20380017.702   107097713.037       -3348.239          41.000  
G15  17913876.359    94138055.417       -2048.146          46.000  
G18  18085353.926    95039175.162       -1257.855          45.000  
G23  18544792.175    97453539.282        2023.775          45.000  
G32  22725696.789   119424339.432        2726.425          39.000  
G22  22587227.269   118696668.650         577.370          30.000  
G10  21486971.828   112914799.159        2851.605          40.000  
> 2024 07 04 09 17 49.7410000  0 10                     
G24  17756644.017    93311794.277        1466.268          46.000  
G27  22304908.066   117213074.882        -771.656          37.000  
G05  20999446.877   110352847.327       -3068.579          38.000  
G13  20380081.395   107098047.865       -3348.414          41.000  
G15  17913915.343    94138260.258       -2048.526          46.000  
G18  18085377.937    95039300.974       -1258.264          45.000  
G23  18544753.663    97453336.919        2023.510          45.000  
G32  22725644.874   119424066.860        2725.655          39.000  
G22  22587216.258   118696610.789         578.605          30.000  
G10  21486917.558   112914514.005        2851.334          40.000  
> 2024 07 04 09 17 49.8410000  0 10                     
G24  17756616.149    93311647.645        1466.246          46.000  
G27  22304922.829   117213152.052        -771.763          37.000  
G05  20999505.213   110353154.172       -3068.390          38.000  
G13  20380145.036   107098382.714       -3348.456          41.000  
G15  17913954.414    94138465.121       -2048.677          46.000  
G18  18085401.774    95039426.786       -1258.105          45.000  
G23  18544715.150    97453134.570        2023.503          45.000  
G32  22725592.995   119423794.271        2725.757          39.000  
G22  22587205.352   118696553.015         577.576          29.000  
G10  21486863.218   112914228.851        2851.587          40.000  
> 2024 07 04 09 17 49.9410000  0 10                     
G24  17756588.194    93311501.016        1466.172          46.000  
G27  22304937.488   117213229.196        -771.589          37.000  
G05  20999563.584   110353461.038       -3068.744          38.000  
G13  20380208.764   107098717.545       -3348.366          41.000  
G15  17913993.328    94138669.972       -2048.622          46.000  
G18  18085425.733    95039552.609       -1258.344          45.000  
G23  18544676.637    97452932.217        2023.409          45.000  
G32  22725541.098   119423521.669        2725.838          39.000  
G22  22587194.341   118696495.274         577.224          30.000  
G10  21486808.913   112913943.695        2851.531          40.000  
> 2024 07 04 09 17 50.0410000  0 10                     
G24  17756560.291    93311354.430        1465.731          46.000  
G27  22304952.163   117213306.410        -772.200          37.000  
G05  20999621.973   110353767.932       -3069.067          38.000  
G13  20380272.423   107099052.426       -3348.722          41.000  
G15  17914032.242    94138874.863       -2049.002          46.000  
G18  18085449.762    95039678.470       -1258.691          45.000  
G23  18544638.072    97452729.903        2023.025          45.000  
G32  22725489.131   119423249.101        2725.562          39.000  
G22  22587183.347   118696437.460         578.065          29.000  
G10  21486754.695   112913658.594        2850.784          40.000  
> 2024 07 04 09 17 50.1410000  0 10                     
G24  17756532.370    93311207.843        1465.751          46.000  
G27  22304966.874   117213383.584        -771.750          37.000  
G05  20999680.396   110354074.804       -3068.768          38.000  
G13  20380336.151   107099387.293       -3348.798          41.000  
G15  17914071.226    94139079.739       -2048.823          46.000  
G18  18085473.756    95039804.328       -1258.691          45.000  
G23  18544599.525    97452527.576        2023.197          45.000  
G32  22725437.252   119422976.556        2725.460          39.000  
G22  22587172.423   118696379.704         577.665          30.000  
G10  21486700.460   112913373.447        2851.423          40.000  
> 2024 07 04 09 17 50.2410000  0 10                     
G24  17756504.345    93311061.292        1465.284          46.000  
G27  22304981.549   117213460.830        -772.516          37.000  
G05  20999738.837   110354381.734       -3069.543          38.000  
G13  20380399.844   107099722.195       -3349.271          41.000  
G15  17914110.280    94139284.675       -2049.504          46.000  
G18  18085497.768    95039930.230       -1259.106          45.000  
G23  18544561.047    97452325.293        2022.659          45.000  
G32  22725385.337   119422704.023        2725.107          38.000  
G22  22587161.464   118696322.040         576.211          29.000  
G10  21486646.207   112913088.374        2850.418          40.000  
> 2024 07 04 09 17 50.3410000  0 10                     
G24  17756476.442    93310914.754        1465.387          46.000  
G27  22304996.190   117213538.050        -772.076          37.000  
G05  20999797.312   110354688.640       -3068.866          38.000  
G13  20380463.555   107100057.091       -3348.965          41.000  
G15  17914149.281    94139489.594       -2049.119          46.000  
G18  18085521.779    95040056.134       -1259.039          45.000  
G23  18544522.517    97452123.009        2022.905          45.000  
G32  22725333.388   119422431.482        2725.406          38.000  
G22  22587150.192   118696264.284         577.627          29.000  
G10  21486591.937   112912803.270        2851.065          40.000  
> 2024 07 04 09 17 50.4410000  0 10                     
G24  17756448.574    93310768.215        1465.318          46.000  
G27  22305010.970   117213615.324        -772.652          37.000  
G05  20999855.718   110354995.574       -3069.342          38.000  
G13  20380527.213   107100391.997       -3348.979          41.000  
G15  17914188.265    94139694.524       -2049.411          46.000  
G18  18085545.686    95040182.048       -1259.210          45.000  
G23  18544483.917    97451920.719        2022.842          45.000  
G32  22725281.456   119422158.952        2725.454          38.000  
G22  22587138.954   118696206.596         577.091          29.000  
G10  21486537.754   112912518.162        2851.158          40.000  
> 2024 07 04 09 17 50.5410000  0 10                     
G24  17756420.689    93310621.713        1464.877          46.000  
G27  22305025.629   117213692.589        -772.671          37.000  
G05  20999914.229   110355302.516       -3069.629          38.000  
G13  20380591.099   107100726.916       -3349.339          41.000  
G15  17914227.179    94139899.472       -2049.606          46.000  
G18  18085569.715    95040307.989       -1259.576          45.000  
G23  18544445.457    97451718.471        2022.350          45.000  
G32  22725229.559   119421886.445        2725.056          38.000  
G22  22587128.274   118696148.894         577.050          29.000  
G10  21486483.588   112912233.112        2850.332          40.000  
> 2024 07 04 09 17 50.6410000  0 10                     
G24  17756392.856    93310475.203        1465.119          46.000  
G27  22305040.217   117213769.870        -772.721          37.000  
G05  20999972.565   110355609.440       -3069.153          38.000  
G13  20380654.844   107101061.835       -3349.123          41.000  
G15  17914266.162    94140104.422       -2049.438          46.000  
G18  18085593.691    95040433.929       -1259.351          45.000  
G23  18544406.909    97451516.198        2022.820          45.000  
G32  22725177.540   119421613.911        2725.426          38.000  
G22  22587117.874   118696091.238         576.600          29.000  
G10  21486429.336   112911948.036        2850.817          40.000  
> 2024 07 04 09 17 50.7410000  0 10                     
G24  17756364.970    93310328.704        1464.896          46.000  
G27  22305054.910   117213847.138        -772.773          37.000  
G05  21000030.971   110355916.409       -3069.684          38.000  
G13  20380718.590   107101396.738       -3349.035          41.000  
G15  17914305.146    94140309.368       -2049.482          46.000  
G18  18085617.703    95040559.875       -1259.564          45.000  
G23  18544368.414    97451313.932        2022.598          45.000  
G32  22725125.643   119421341.416        2725.137          38.000  
G22  22587106.252   118696033.555         576.738          29.000  
G10  21486375.065   112911662.933        2851.043          40.000  
> 2024 07 04 09 17 50.8410000  0 10                     
G24  17756337.102    93310182.235        1464.523          46.000  
G27  22305069.621   117213924.458        -773.375          37.000  
G05  21000089.377   110356223.364       -3069.659          38.000  
G13  20380782.353   107101731.701       -3349.859          41.000  
G15  17914344.165    94140514.356       -2049.948          46.000  
G18  18085641.697    95040685.850       -1259.760          45.000  
G23  18544329.919    97451111.716        2021.978          45.000  
G32  22725073.659   119421068.934        2724.605          38.000  
G22  22587095.834   118695975.910         576.418          29.000  
G10  21486320.830   112911377.911        2849.999          40.000  
> 2024 07 04 09 17 50.9410000  0 10                     
G24  17756309.200    93310035.760        1464.827          46.000  
G27  22305084.366   117214001.752        -773.050          37.000  
G05  21000147.765   110356530.327       -3069.543          38.000  
G13  20380846.116   107102066.628       -3349.153          41.000  
G15  17914383.149    94140719.324       -2049.527          46.000  
G18  18085665.674    95040811.824       -1259.692          45.000  
G23  18544291.459    97450909.452        2022.765          45.000  
G32  22725021.884   119420796.447        2724.853          38.000  
G22  22587084.614   118695918.244         576.535          29.000  
G10  21486266.612   112911092.849        2850.560          40.000  
> 2024 07 04 09 17 51.0410000  0 10                     
G24  17756281.262    93309889.304        1464.456          46.000  
G27  22305099.129   117214079.062        -773.071          37.000  
G05  21000206.136   110356837.296       -3069.745          38.000  
G13  20380909.914   107102401.560       -3349.364          41.000  
G15  17914422.150    94140924.300       -2049.807          46.000  
G18  18085689.668    95040937.816       -1259.955          45.000  
G23  18544252.981    97450707.231        2022.111          45.000  
G32  22724970.074   119420523.953        2724.966          38.000  
G22  22587073.882   118695860.606         576.400          30.000  
G10  21486212.395   112910807.779        2850.675          40.000  
> 2024 07 04 09 17 51.1410000  0 10                     
G24  17756253.411    93309742.854        1464.433          46.000  
G27  22305113.822   117214156.395        -773.348          37.000  
G05  21000264.490   110357144.280       -3070.215          38.000  
G13  20380973.660   107102736.507       -3349.421          41.000  
G15  17914461.151    94141129.299       -2050.045          46.000  
G18  18085713.627    95041063.817       -1259.985          45.000  
G23  18544214.468    97450505.000        2022.257          45.000  
G32  22724918.125   119420251.476        2724.913          38.000  
G22  22587062.522   118695802.957         576.484          29.000  
G10  21486158.124   112910522.713        2850.787          40.000  
> 2024 07 04 09 17 51.2410000  0 10                     
G24  17756225.543    93309596.431        1464.052          46.000  
G27  22305128.567   117214233.746        -773.800          37.000  
G05  21000323.018   110357451.271       -3069.970          38.000  
G13  20381037.336   107103071.481       -3349.876          41.000  
G15  17914500.117    94141334.311       -2050.198          46.000  
G18  18085737.569    95041189.842       -1260.376          45.000  
G23  18544175.991    97450302.792        2021.954          45.000  
G32  22724866.315   119419978.994        2724.828          38.000  
G22  22587051.039   118695745.356         576.077          30.000  
G10  21486103.854   112910237.691        2850.082          40.000  
> 2024 07 04 09 17 51.3410000  0 10                     
G24  17756197.640    93309450.021        1463.869          46.000  
G27  22305143.226   117214311.093        -773.669          37.000  
G05  21000381.476   110357758.290       -3070.288          38.000  
G13  20381100.994   107103406.456       -3349.877          41.000  
G15  17914539.101    94141539.324       -2050.240          46.000  
G18  18085761.528    95041315.880       -1260.583          45.000  
G23  18544137.460    97450100.588        2021.989          45.000  
G32  22724814.383   119419706.560        2724.293          38.000  
G22  22587039.976   118695687.772         575.808          29.000  
G10  21486049.654   112909952.648        2850.407          40.000  
> 2024 07 04 09 17 51.4410000  0 10                     
G24  17756169.825    93309303.642        1463.713          46.000  
G27  22305157.954   117214388.504        -774.150          37.000  
G05  21000439.864   110358065.306       -3070.148          38.000  
G13  20381164.722   107103741.439       -3349.732          41.000  
G15  17914578.172    94141744.382       -2050.681          46.000  
G18  18085785.522    95041441.951       -1260.809          45.000  
G23  18544098.861    97449898.426        2021.664          45.000  
G32  22724762.487   119419434.135        2724.399          38.000  
G22  22587028.424   118695630.190         575.821          29.000  
G10  21485995.419   112909667.644        2850.082          40.000  
> 2024 07 04 09 17 51.5410000  0 10                     
G24  17756142.009    93309157.275        1463.646          46.000  
G27  22305172.716   117214465.894        -774.065          37.000  
G05  21000498.270   110358372.355       -3070.520          38.000  
G13  20381228.485   107104076.458       -3350.202          41.000  
G15  17914617.156    94141949.433       -2050.519          46.000  
G18  18085809.533    95041568.023       -1260.712          45.000  
G23  18544060.418    97449696.262        2021.723          45.000  
G32  22724710.607   119419161.705        2724.235          38.000  
G22  22587018.320   118695572.654         575.373          29.000  
G10  21485941.201   112909382.652        2849.897          40.000  
> 2024 07 04 09 17 51.6410000  0 10                     
G24  17756114.176    93309011.009        1461.612          46.000  
G27  22305187.479   117214543.393        -775.754          37.000  
G05  21000556.728   110358679.478       -3072.107          38.000  
G13  20381292.231   107104411.543       -3351.646          41.000  
G15  17914656.227    94142154.586       -2052.436          46.000  
G18  18085833.545    95041694.211       -1262.897          45.000  
G23  18544022.062    97449494.185        2020.029          45.000  
G32  22724658.693   119418889.378        2722.400          38.000  
G22  22587008.007   118695515.150         574.754          29.000  
G10  21485886.913   112909097.731        2848.434          40.000  
> 2024 07 04 09 17 51.7410000  0 10                     
G24  17756086.448    93308864.911        1460.933          46.000  
G27  22305202.260   117214621.065        -776.814          37.000  
G05  21000615.152   110358986.797       -3073.206          38.000  
G13  20381356.012   107104746.818       -3352.878          41.000  
G15  17914695.298    94142359.910       -2053.431          46.000  
G18  18085857.591    95041820.562       -1263.678          45.000  
G23  18543983.637    97449292.305        2018.645          45.000  
G32  22724606.848   119418617.219        2721.342          38.000  
G22  22586996.909   118695457.832         572.958          29.000  
G10  21485832.730   112908813.014        2847.074          40.000  
> 2024 07 04 09 17 51.8410000  0 10                     
G24  17756058.440    93308718.399        1466.232          46.000  
G27  22305216.970   117214698.308        -771.138          37.000  
G05  21000673.558   110359293.629       -3067.169          38.000  
G13  20381419.775   107105081.648       -3347.346          41.000  
G15  17914734.317    94142564.799       -2047.799          46.000  
G18  18085881.446    95041946.486       -1258.167          45.000  
G23  18543945.159    97449089.973        2024.334          45.000  
G32  22724554.969   119418344.630        2726.958          38.000  
G22  22586985.409   118695400.276         575.154          29.000  
G10  21485778.495   112908527.812        2853.174          40.000  
> 2024 07 04 09 17 51.9410000  0 10                     
G24  17756030.502    93308571.968        1463.764          44.000  
G27  22305231.681   117214775.605        -772.885          37.000  
G05  21000731.929   110359600.463       -3066.461          36.000  
G13  20381483.538   107105416.382       -3345.363          39.000  
G15  17914773.266    94142769.703       -2048.506          44.000  
G18  18085905.422                3      -1260.924          43.000  
G23  18543906.646    97448887.654        2023.620          44.000  
G32  22724503.019   119418072.143        2724.035          38.000  
G22  22586974.328   118695342.462         578.102          29.000  
G10  21485724.225   112908242.679        2851.872          40.000  
> 2024 07 04 09 17 52.0410000  0 10                     
G24  17756002.425                3       1459.193          38.000  
G27  22305245.868                3       -776.853          32.000  
G05  21000790.317   110359906.916       -3062.605          33.000  
G13  20381546.865                3      -3352.604          34.000  
G15  17914812.284                3      -2047.616          35.000  
G18  18085929.259                3      -1257.618          38.000  
G23  18543868.518                3       2015.803          36.000  
G32  22724451.820                3       2718.450          32.000  
G22  22586963.247                3        583.069          29.000  
G10  21485670.007   112907956.985        2857.742          35.000  
> 2024 07 04 09 17 52.1410000  0 10                     
G24  17755974.993                3       1465.432          42.000  
G27  22305260.282                3       -776.883          32.000  
G05  21000847.903                3      -3066.441          33.000  
G13  20381610.383                3      -3349.142          34.000  
G15  17914850.937                3      -2047.764          43.000  
G18  18085952.800                3      -1260.472          41.000  
G23  18543830.302                3       2023.983          40.000  
G32  22724400.080                3       2722.838          34.000  
G22  22586952.341                3        577.312          21.000  
G10  21485614.951   112907671.472        2853.490          37.000  
> 2024 07 04 09 17 52.2410000  0 10                     
G24  17755946.898                2       1463.757          45.000  
G27  22305274.207                2       -773.464          35.000  
G05  21000905.785                3      -3071.796          37.000  
G13  20381672.471                2      -3349.793          40.000  
G15  17914890.322                2      -2050.861          46.000  
G18  18085977.509                2      -1261.298          44.000  
G23  18543792.365                3       2021.985          45.000  
G32  22724348.358                2       2726.093          37.000  
G22  22586940.754                2        573.773          29.000  
G10  21485561.135   112907386.705        2846.536          40.000  
> 2024 07 04 09 17 52.3410000  0 10                     
G24  17755918.018                2       1462.434          45.000  
G27  22305292.146                2       -776.269          37.000  
G05  21000964.645                2      -3071.338          37.000  
G13  20381737.072                2      -3351.291          40.000  
G15  17914930.108                2      -2051.262          46.000  
G18  18086001.608                2      -1262.183          44.000  
G23  18543752.980                2       2020.746          45.000  
G32  22724296.409                2       2722.646          37.000  
G22  22586930.249                2        575.155          29.000  
G10  21485507.179   112907102.1443       2850.188          40.000  
> 2024 07 04 09 17 52.4410000  0 10                     
G24  17755890.883    93307831.8673       1461.860          45.000  
G27  22305305.251   117215178.3383       -775.145          37.000  
G05  21001021.916                2      -3071.179          37.000  
G13  20381800.469   107107086.0873      -3350.745          40.000  
G15  17914968.446    94143798.1623      -2051.965          46.000  
G18  18086023.264    95042705.6263      -1262.201          44.000  
G23  18543714.118    97447876.9813       2020.299          45.000  
G32  22724244.931                2       2723.125          37.000  
G22  22586919.587                2        575.244          29.000  
G10  21485451.774   112906817.2202       2849.014          40.000  
> 2024 07 04 09 17 52.5410000  0 10                     
G24  17755861.444    93307685.6262       1462.267          46.000  
G27  22305321.078   117215255.8612       -775.392          37.000  
G05  21001082.695   110361427.4773      -3071.375          37.000  
G13  20381865.296   107107421.1662      -3350.809          40.000  
G15  17915007.483    94144003.3182      -2051.686          46.000  
G18  18086046.402    95042831.8422      -1262.372          45.000  
G23  18543674.977    97447674.8982       2020.738          45.000  
G32  22724193.156   119416438.6753       2723.678          37.000  
G22  22586909.466                2        574.030          29.000  
G10  21485398.028   112906532.2992       2849.094          40.000  
> 2024 07 04 09 17 52.6410000  0 10                     
G24  17755834.693    93307539.4582       1461.431          46.000  
G27  22305336.906   117215333.4572       -776.225          37.000  
G05  21001140.682   110361734.6762      -3072.113          37.000  
G13  20381927.384   107107756.3102      -3351.590          40.000  
G15  17915046.972    94144208.5342      -2052.398          46.000  
G18  18086072.211    95042958.1252      -1263.000          45.000  
G23  18543637.896    97447472.8882       2019.905          45.000  
G32  22724138.833   119416166.4202       2722.011          37.000  
G22  22586898.298                2        573.587          29.000  
G10  21485345.293   112906247.4022       2848.918          40.000  
> 2024 07 04 09 17 52.7410000  0 10                     
G24  17755808.309    93307393.3292       1461.216          43.000  
G27  22305352.332   117215411.0812       -776.478          34.000  
G05  21001197.657   110362041.8862      -3072.394          35.000  
G13  20381992.648   107108091.4802      -3351.821          38.000  
G15  17915085.834    94144413.7732      -2052.548          43.000  
G18  18086096.520    95043084.4392      -1263.403          42.000  
G23  18543600.238    97447270.9112       2019.609          43.000  
G32  22724088.803   119415894.1212       2722.970          35.000  
G22  22586886.815   118694889.2173        573.144          29.000  
G10  21485290.866   112905962.5642       2848.357          38.000  
> 2024 07 04 09 17 52.8410000  0 10                     
G24  17755779.306    93307247.2342       1460.855          45.000  
G27  22305365.855   117215488.7622       -777.235          37.000  
G05  21001255.801   110362349.1502      -3073.065          37.000  
G13  20382055.940   107108426.6832      -3352.114          40.000  
G15  17915126.004    94144619.0702      -2053.130          46.000  
G18  18086119.763    95043210.8012      -1263.849          45.000  
G23  18543559.806    97447068.9662       2019.292          45.000  
G32  22724037.255   119415621.9352       2721.870          38.000  
G22  22586876.258   118694831.9012        572.919          29.000  
G10  21485235.741   112905677.7602       2847.824          39.000  
> 2024 07 04 09 17 52.9410000  0 10                     
G24  17755752.642    93307101.1852       1460.248          46.000  
G27  22305380.444   117215566.4372       -776.949          37.000  
G05  21001314.225   110362656.4392      -3073.333          37.000  
G13  20382120.191   107108761.9142      -3352.464          40.000  
G15  17915164.308    94144824.3792      -2053.287          46.000  
G18  18086143.565    95043337.1832      -1264.124          45.000  
G23  18543522.777    97446867.0522       2018.854          45.000  
G32  22723985.673   119415349.7432       2721.548          38.000  
G22  22586865.980   118694774.6072        572.701          29.000  
G10  21485182.099   112905392.9762       2847.591          40.000  
> 2024 07 04 09 17 53.0410000  0 10                     
G24  17755723.151    93306955.1962       1459.557          46.000  
G27  22305396.097   117215644.1732       -777.598          37.000  
G05  21001374.219   110362963.7542      -3073.547          37.000  
G13  20382185.543   107109097.1912      -3353.019          40.000  
G15  17915203.257    94145029.7502      -2053.943          46.000  
G18  18086169.200    95043463.6392      -1264.801          45.000  
G23  18543484.718    97446665.1862       2018.363          45.000  
G32  22723933.514   119415077.5932       2721.209          38.000  
G22  22586855.929   118694717.3832        572.135          29.000  
G10  21485127.323   112905108.2292       2847.319          40.000  
> 2024 07 04 09 17 53.1410000  0 10                     
G24  17755695.528    93306809.2222       1459.661          46.000  
G27  22305410.179   117215721.9832       -778.299          37.000  
G05  21001430.897   110363271.1132      -3073.950          37.000  
G13  20382249.236   107109432.5062      -3353.344          40.000  
G15  17915242.607    94145235.1422      -2054.012          46.000  
G18  18086192.496    95043590.1082      -1264.740          45.000  
G23  18543445.559    97446463.3492       2018.267          45.000  
G32  22723881.687   119414805.5022       2720.744          38.000  
G22  22586845.406   118694660.1992        571.734          29.000  
G10  21485071.482   112904823.5212       2847.048          40.000  
> 2024 07 04 09 17 53.2410000  0 10                     
G24  17755668.288    93306663.2682       1459.470          46.000  
G27  22305424.104   117215799.7632       -777.817          37.000  
G05  21001489.914   110363578.4732      -3073.633          37.000  
G13  20382311.132   107109767.8272      -3353.313          40.000  
G15  17915280.648    94145440.5622      -2054.324          46.000  
G18  18086216.717    95043716.6022      -1265.076          45.000  
G23  18543407.274    97446261.5222       2018.146          45.000  
G32  22723830.802   119414533.3682       2721.435          38.000  
G22  22586834.412   118694603.0222        571.478          29.000  
G10  21485018.869   112904538.8062       2847.088          40.000  
> 2024 07 04 09 17 53.3410000  0 10                     
G24  17755640.211    93306517.3752       1458.703          46.000  
G27  22305438.483   117215877.6192       -778.621          37.000  
G05  21001549.820   110363885.9172      -3074.774          37.000  
G13  20382375.157   107110103.1832      -3353.813          40.000  
G15  17915320.505    94145646.0182      -2054.716          46.000  
G18  18086243.520    95043843.1602      -1265.808          45.000  
G23  18543369.668    97446059.7592       2017.591          45.000  
G32  22723776.916   119414261.3432       2720.006          38.000  
G22  22586823.489   118694545.8952        571.112          29.000  
G10  21484966.641   112904254.1882       2845.955          40.000  
> 2024 07 04 09 17 53.4410000  0 10                     
G24  17755613.564    93306371.5172       1458.369          46.000  
G27  22305453.787   117215955.5232       -779.283          37.000  
G05  21001609.552   110364193.3392      -3074.377          37.000  
G13  20382436.581   107110438.6102      -3354.625          40.000  
G15  17915358.895    94145851.5182      -2055.223          46.000  
G18  18086266.624    95043969.7382      -1265.881          45.000  
G23  18543329.952    97445858.0132       2017.261          45.000  
G32  22723726.083   119413989.3102       2720.129          38.000  
G22  22586812.757   118694488.7622        571.293          29.000  
G10  21484912.161   112903969.5402       2846.219          40.000  
> 2024 07 04 09 17 53.5410000  0 10                     
G24  17755585.382    93306225.6722       1458.336          46.000  
G27  22305470.487   117216033.4102       -778.955          37.000  
G05  21001667.121   110364500.8362      -3075.201          37.000  
G13  20382501.374   107110773.9872      -3353.807          40.000  
G15  17915397.617    94146057.0212      -2055.141          46.000  
G18  18086291.264    95044096.3482      -1266.199          45.000  
G23  18543291.439    97445656.2852       2017.248          45.000  
G32  22723673.139   119413717.2962       2719.969          38.000  
G22  22586801.571   118694431.6862        570.762          29.000  
G10  21484858.816   112903684.9292       2845.941          40.000  
> 2024 07 04 09 17 53.6410000  0 10                     
G24  17755556.676    93306079.8632       1457.974          46.000  
G27  22305481.341   117216111.3442       -779.531          37.000  
G05  21001725.317   110364808.2942      -3074.579          37.000  
G13  20382566.167   107111109.4232      -3354.602          40.000  
G15  17915438.590    94146262.5502      -2055.374          46.000  
G18  18086313.286    95044222.9802      -1266.492          45.000  
G23  18543252.525    97445454.5832       2016.893          45.000  
G32  22723623.005   119413445.3032       2719.735          38.000  
G22  22586790.839   118694374.6702        570.095          29.000  
G10  21484803.447   112903400.3392       2845.749          40.000  
> 2024 07 04 09 17 53.7410000  0 10                     
G24  17755530.152    93305934.0592       1457.883          46.000  
G27  22305497.936   117216189.2732       -779.321          37.000  
G05  21001783.793   110365115.8212      -3075.299          37.000  
G13  20382630.087   107111444.8702      -3354.609          40.000  
G15  17915478.132    94146468.0962      -2055.606          46.000  
G18  18086338.484    95044349.6262      -1266.553          45.000  
G23  18543214.047    97445252.8862       2017.038          45.000  
G32  22723569.625   119413173.3292       2719.809          38.000  
G22  22586779.741   118694317.6102        570.286          29.000  
G10  21484750.904   112903115.7472       2845.831          40.000  
> 2024 07 04 09 17 53.8410000  0 10                     
G24  17755502.546    93305788.2972       1457.411          46.000  
G27  22305515.823   117216267.2682       -780.133          37.000  
G05  21001839.529   110365423.3382      -3075.213          38.000  
G13  20382694.478   107111780.3292      -3354.668          40.000  
G15  17915515.092    94146673.6732      -2055.955          46.000  
G18  18086362.566    95044476.3052      -1266.895          45.000  
G23  18543175.098    97445051.2182       2016.747          45.000  
G32  22723518.932   119412901.3732       2719.497          38.000  
G22  22586769.341   118694260.6152        569.890          29.000  
G10  21484695.622   112902831.2112       2845.243          40.000  
> 2024 07 04 09 17 53.9410000  0 10                     
G24  17755473.334    93305642.5512       1457.303          46.000  
G27  22305530.237   117216345.2632       -780.161          37.000  
G05  21001899.906   110365730.8882      -3075.635          38.000  
G13  20382758.747   107112115.8012      -3354.796          40.000  
G15  17915554.128    94146879.2522      -2055.885          46.000  
G18  18086387.048    95044603.0012      -1267.102          45.000  
G23  18543137.860    97444849.5732       2016.318          45.000  
G32  22723467.262   119412629.4452       2719.050          38.000  
G22  22586757.911   118694203.6092        569.870          29.000  
G10  21484640.863   112902546.6392       2845.598          40.000  
> 2024 07 04 09 17 54.0410000  0 10                     
G24  17755446.775    93305496.8142       1457.299          46.000  
G27  22305546.291   117216423.2682       -780.355          37.000  
G05  21001958.661   110366038.4462      -3075.805          38.000  
G13  20382821.760   107112451.2972      -3355.003          40.000  
G15  17915592.658    94147084.8532      -2056.118          46.000  
G18  18086411.199    95044729.7162      -1267.365          45.000  
G23  18543100.324    97444647.9402       2016.196          45.000  
G32  22723415.068   119412357.4862       2719.668          38.000  
G22  22586745.748   118694146.6592        569.456          29.000  
G10  21484586.680   112902262.0982       2845.268          40.000  
> 2024 07 04 09 17 54.1410000  0 10                     
G24  17755418.575    93305351.1272       1456.709          46.000  
G27  22305558.628   117216501.3192       -780.946          37.000  
G05  21002015.933   110366346.0302      -3076.074          38.000  
G13  20382885.994   107112786.8322      -3355.646          40.000  
G15  17915634.050    94147290.4962      -2056.683          46.000  
G18  18086435.385    95044856.4692      -1267.676          45.000  
G23  18543062.545    97444446.3332       2015.811          45.000  
G32  22723364.201   119412085.6112       2718.617          38.000  
G22  22586734.266   118694089.6992        569.380          29.000  
G10  21484532.218   112901977.6202       2844.659          40.000  
> 2024 07 04 09 17 54.2410000  0 10                     
G24  17755389.974    93305205.4272       1456.914          46.000  
G27  22305573.373   117216579.3412       -780.338          37.000  
G05  21002075.299   110366653.6052      -3075.824          38.000  
G13  20382951.136   107113122.3202      -3354.951          41.000  
G15  17915671.149    94147496.1152      -2056.188          46.000  
G18  18086460.706    95044983.2152      -1267.554          45.000  
G23  18543022.357    97444244.7112       2016.159          45.000  
G32  22723311.798   119411813.7142       2718.983          38.000  
G22  22586722.626   118694032.7732        569.147          29.000  
G10  21484479.239   112901693.0842       2845.333          40.000  
> 2024 07 04 09 17 54.3410000  0 10                     
G24  17755363.345    93305059.7652       1456.528          46.000  
G27  22305586.845   117216657.4402       -781.202          37.000  
G05  21002135.310   110366961.2202      -3076.733          38.000  
G13  20383013.608   107113457.8792      -3355.734          40.000  
G15  17915711.948    94147701.7762      -2056.798          46.000  
G18  18086482.815    95045110.0032      -1268.054          45.000  
G23  18542983.670    97444043.1382       2015.496          45.000  
G32  22723260.721   119411541.8232       2718.577          38.000  
G22  22586710.882   118693975.8392        569.183          29.000  
G10  21484426.312   112901408.5912       2844.845          40.000  
> 2024 07 04 09 17 54.4410000  0 10                     
G24  17755336.106    93304914.1442       1456.057          46.000  
G27  22305601.852   117216735.5282       -781.002          37.000  
G05  21002194.361   110367268.8532      -3076.392          38.000  
G13  20383077.912   107113793.4552      -3355.770          41.000  
G15  17915749.483    94147907.4742      -2057.071          46.000  
G18  18086508.449    95045236.8222      -1268.365          45.000  
G23  18542943.988    97443841.5802       2015.432          45.000  
G32  22723206.747   119411269.9842       2718.251          38.000  
G22  22586700.639   118693918.9632        568.646          29.000  
G10  21484370.803   112901124.1522       2844.336          40.000  
> 2024 07 04 09 17 54.5410000  0 10                     
G24  17755306.161    93304768.5412       1455.899          46.000  
G27  22305615.865   117216813.6662       -781.473          37.000  
G05  21002251.651   110367576.4932      -3076.337          38.000  
G13  20383141.797   107114129.0252      -3355.740          41.000  
G15  17915790.038    94148113.1842      -2057.254          46.000  
G18  18086530.262    95045363.6602      -1268.555          45.000  
G23  18542907.604    97443640.0532       2015.204          45.000  
G32  22723156.944   119410998.1602       2718.101          38.000  
G22  22586689.750   118693862.1062        568.354          29.000  
G10  21484316.830   112900839.6942       2844.447          40.000  
> 2024 07 04 09 17 54.6410000  0 10                     
G24  17755278.939    93304622.9582       1455.772          46.000  
G27  22305631.361   117216891.8062       -781.308          37.000  
G05  21002309.114   110367884.1822      -3076.782          38.000  
G13  20383205.909   107114464.6342      -3356.135          41.000  
G15  17915828.585    94148318.9112      -2057.332          46.000  
G18  18086555.478    95045490.5252      -1268.689          45.000  
G23  18542866.840    97443438.5262       2015.278          45.000  
G32  22723104.751   119410726.3362       2718.153          38.000  
G22  22586678.879   118693805.2732        568.278          29.000  
G10  21484263.921   112900555.2852       2844.102          40.000  
> 2024 07 04 09 17 54.7410000  0 10                     
G24  17755251.263    93304477.3842       1455.706          46.000  
G27  22305646.647   117216969.9802       -781.947          37.000  
G05  21002367.014   110368191.8732      -3077.057          38.000  
G13  20383271.033   107114800.2322      -3356.032          41.000  
G15  17915867.988    94148524.6492      -2057.380          46.000  
G18  18086579.908    95045617.3962      -1268.805          45.000  
G23  18542831.940    97443237.0172       2015.048          45.000  
G32  22723051.946   119410454.5262       2718.159          38.000  
G22  22586667.972   118693748.4262        568.446          29.000  
G10  21484209.267   112900270.8422       2844.323          40.000  
> 2024 07 04 09 17 54.8410000  0 10                     
G24  17755223.307    93304331.8472       1455.196          46.000  
G27  22305661.759   117217048.1882       -782.233          37.000  
G05  21002428.351   110368499.5732      -3076.996          38.000  
G13  20383334.674   107115135.8792      -3356.630          41.000  
G15  17915907.006    94148730.4122      -2057.699          46.000  
G18  18086603.082    95045744.3122      -1269.318          45.000  
G23  18542792.380    97443035.5602       2014.391          45.000  
G32  22722999.386   119410182.7662       2717.464          38.000  
G22  22586658.514   118693691.6412        567.882          29.000  
G10  21484153.757   112899986.4532       2843.727          40.000  
> 2024 07 04 09 17 54.9410000  0 10                     
G24  17755195.998    93304186.3242       1455.243          46.000  
G27  22305676.051   117217126.3812       -782.022          37.000  
G05  21002485.187   110368807.2942      -3077.209          38.000  
G13  20383399.537   107115471.5022      -3356.298          41.000  
G15  17915943.896    94148936.1892      -2057.814          46.000  
G18  18086628.542    95045871.2202      -1269.086          45.000  
G23  18542753.344    97442834.0652       2014.944          45.000  
G32  22722949.810   119409910.9822       2718.000          38.000  
G22  22586647.905   118693634.8632        567.709          29.000  
G10  21484099.470   112899702.0602       2843.624          40.000  
> 2024 07 04 09 17 55.0410000  0 10                     
G24  17755168.741    93304040.8082       1455.089          46.000  
G27  22305690.325   117217204.5812       -781.928          37.000  
G05  21002545.914   110369115.0282      -3077.521          38.000  
G13  20383461.433   107115807.1552      -3356.477          41.000  
G15  17915984.293    94149141.9532      -2057.530          46.000  
G18  18086651.384    95045998.1522      -1269.287          45.000  
G23  18542715.704    97442632.5992       2014.662          45.000  
G32  22722899.484   119409639.2262       2717.557          38.000  
G22  22586636.998   118693578.0402        567.998          29.000  
G10  21484045.636   112899417.6702       2843.974          40.000  
> 2024 07 04 09 17 55.1410000  0 10                     
G24  17755140.611    93303895.3012       1454.953          46.000  
G27  22305705.611   117217282.8302       -782.734          37.000  
G05  21002604.005   110369422.7362      -3077.222          38.000  
G13  20383525.894   107116142.8082      -3356.801          40.000  
G15  17916025.267    94149347.7462      -2057.999          46.000  
G18  18086676.722    95046125.0982      -1269.647          45.000  
G23  18542678.413    97442431.1392       2014.493          45.000  
G32  22722845.441   119409367.4372       2717.725          38.000  
G22  22586625.237   118693521.2632        567.786          29.000  
G10  21483990.703   112899133.2752       2843.792          40.000  
> 2024 07 04 09 17 55.2410000  0 10                     
G24  17755113.982    93303749.8292       1454.704          46.000  
G27  22305720.758   117217361.0672       -782.581          37.000  
G05  21002661.766   110369730.5082      -3077.924          38.000  
G13  20383589.849   107116478.4842      -3356.725          41.000  
G15  17916064.530    94149553.5672      -2058.204          46.000  
G18  18086701.972    95046252.0702      -1269.775          45.000  
G23  18542639.953    97442229.7162       2014.225          45.000  
G32  22722793.980   119409095.7432       2716.962          38.000  
G22  22586614.069   118693464.5452        567.260          29.000  
G10  21483937.357   112898848.9282       2843.397          40.000  
> 2024 07 04 09 17 55.3410000  0 10                     
G24  17755085.782    93303604.3622       1454.575          46.000  
G27  22305735.259   117217439.3242       -782.576          37.000  
G05  21002720.398   110370038.2452      -3077.399          38.000  
G13  20383653.211   107116814.1482      -3356.692          41.000  
G15  17916102.344    94149759.3832      -2058.278          46.000  
G18  18086724.884    95046379.0432      -1269.867          45.000  
G23  18542601.981    97442028.2742       2014.308          45.000  
G32  22722740.460   119408823.9832       2717.468          38.000  
G22  22586604.104   118693407.8082        567.152          29.000  
G10  21483882.372   112898564.5542       2843.744          40.000  
> 2024 07 04 09 17 55.4410000  0 10                     
G24  17755058.054    93303458.8822       1454.971          46.000  
G27  22305749.446   117217517.5782       -782.444          37.000  
G05  21002779.555   110370346.0072      -3077.631          38.000  
G13  20383716.625   107117149.8142      -3356.435          40.000  
G15  17916141.084    94149965.1842      -2057.902          46.000  
G18  18086748.023    95046506.0182      -1269.592          45.000  
G23  18542562.596    97441826.8322       2014.481          45.000  
G32  22722689.139   119408552.2382       2717.639          38.000  
G22  22586593.408   118693351.0462        567.566          29.000  
G10  21483827.700   112898280.1702       2844.009          40.000  
> 2024 07 04 09 17 55.5410000  0 10                     
G24  17755029.680                3       1452.969          37.000  
G27  22305764.820                3       -779.789          28.000  
G05  21002837.227   110370653.3842      -3072.595          34.000  
G13  20383780.964                3      -3359.973          36.000  
G15  17916180.696                3      -2061.358          38.000  
G18  18086772.157    95046632.9732      -1269.238          34.000  
G23  18542523.769    97441625.2002       2017.453          39.000  
G32  22722637.626   119408280.1422       2722.617          28.000  
G22  22586582.187   118693294.3452        567.061          29.000  
G10  21483773.447                3       2847.818          35.000  
> 2024 07 04 09 17 55.6410000  0 10                     
G24  17755002.283                3       1454.153          40.000  
G27  22305779.303                3       -781.697          29.000  
G05  21002895.581   110370960.8072      -3072.697          31.000  
G13  20383845.233                3      -3358.310          33.000  
G15  17916221.180                3      -2060.086          40.000  
G18  18086796.169    95046760.0092      -1270.477          43.000  
G23  18542485.431                2       2023.710          35.000  
G32  22722585.415                2       2724.154          29.000  
G22  22586571.542   118693237.6142        567.280          29.000  
G10  21483719.963                3       2843.905          32.000  
> 2024 07 04 09 17 55.7410000  0 10                     
G24  17754974.485                3       1453.540          45.000  
G27  22305793.333                3       -784.548          35.000  
G05  21002954.580                3      -3077.474          37.000  
G13  20383909.415                3      -3357.214          40.000  
G15  17916259.780                3      -2058.246          46.000  
G18  18086820.407    95046887.1222      -1271.393          45.000  
G23  18542447.616                3       2013.294          44.000  
G32  22722534.443                3       2716.131          37.000  
G22  22586560.514   118693180.9322        566.867          29.000  
G10  21483665.500                3       2842.371          40.000  
> 2024 07 04 09 17 55.8410000  0 10                     
G24  17754948.292                2       1455.651          44.000  
G27  22305809.318                2       -780.831          36.000  
G05  21003012.655                3      -3077.744          37.000  
G13  20383973.387                2      -3356.646          40.000  
G15  17916300.561                2      -2057.795          45.000  
G18  18086844.907    95047014.0742      -1268.805          43.000  
G23  18542410.919                3       2013.726          45.000  
G32  22722483.663                3       2717.244          37.000  
G22  22586549.904   118693124.2292        567.108          29.000  
G10  21483611.405                2       2845.556          40.000  
> 2024 07 04 09 17 55.9410000  0 10                     
G24  17754920.598                3       1453.760          45.000  
G27  22305823.610                3       -783.390          36.000  
G05  21003070.223                2      -3077.448          37.000  
G13  20384036.627   107118837.7663      -3356.840          40.000  
G15  17916338.306    94150992.9053      -2058.840          46.000  
G18  18086869.110    95047141.0972      -1270.599          44.000  
G23  18542371.795                2       2013.721          44.000  
G32  22722431.242                2       2717.174          37.000  
G22  22586539.085   118693067.5042        567.183          29.000  
G10  21483558.059                3       2843.295          40.000  
> 2024 07 04 09 17 56.0410000  0 10                     
G24  17754891.841    93302591.4293       1452.922          45.000  
G27  22305839.664   117217972.4513       -784.338          36.000  
G05  21003129.990                2      -3078.790          37.000  
G13  20384099.901   107119173.5512      -3358.100          40.000  
G15  17916377.883    94151198.8362      -2059.496          46.000  
G18  18086893.000    95047268.2282      -1271.613          44.000  
G23  18542334.312    97440619.9563       2013.064          45.000  
G32  22722379.869                2       2715.771          37.000  
G22  22586528.336   118693010.9042        565.876          29.000  
G10  21483503.196   112896574.6943       2842.233          40.000  
> 2024 07 04 09 17 56.1410000  0 10                     
G24  17754864.601    93302446.0122       1454.347          45.000  
G27  22305854.409   117218050.7292       -782.628          36.000  
G05  21003189.146   110372494.5163      -3077.252          38.000  
G13  20384162.739   107119509.2342      -3356.662          40.000  
G15  17916415.855    94151404.6802      -2058.289          46.000  
G18  18086917.011    95047395.2502      -1269.989          45.000  
G23  18542295.049    97440418.5422       2014.275          45.000  
G32  22722328.460   119406637.7483       2717.949          37.000  
G22  22586517.517   118692954.2642        566.123          29.000  
G10  21483448.804   112896290.2952       2844.205          40.000  
> 2024 07 04 09 17 56.2410000  0 10                     
G24  17754836.680    93302300.7012       1452.233          45.000  
G27  22305873.098   117218129.1182       -784.329          36.000  
G05  21003246.906   110372802.3762      -3079.193          38.000  
G13  20384225.770   107119845.0112      -3358.695          40.000  
G15  17916453.233    94151610.6232      -2060.403          46.000  
G18  18086940.866    95047522.3862      -1272.229          45.000  
G23  18542256.816    97440217.2082       2012.734          45.000  
G32  22722276.738   119406366.1492       2715.205          37.000  
G22  22586506.610   118692897.5432        566.814          29.000  
G10  21483394.603   112896006.0252       2842.302          40.000  
> 2024 07 04 09 17 56.3410000  0 10                     
G24  17754810.592    93302155.7272       1448.648          45.000  
G27  22305887.774   117218207.8892       -788.645          36.000  
G05  21003306.377   110373110.5922      -3082.965          38.000  
G13  20384289.096   107120181.1192      -3362.185          40.000  
G15  17916494.346    94151816.8902      -2063.852          46.000  
G18  18086967.634    95047649.8512      -1275.775          45.000  
G23  18542218.408    97440016.2442       2008.673          45.000  
G32  22722223.515   119406094.8292       2712.234          37.000  
G22  22586495.651   118692841.2792        562.831          29.000  
G10  21483341.869   112895722.1122       2838.016          40.000  
> 2024 07 04 09 17 56.4410000  0 10                     
G24  17754781.974    93302010.6552       1450.678          46.000  
G27  22305902.310   117218286.5172       -786.278          36.000  
G05  21003366.702   110373418.6802      -3080.933          38.000  
G13  20384355.198   107120517.1302      -3360.360          40.000  
G15  17916534.359    94152023.0602      -2061.674          46.000  
G18  18086990.564    95047777.2272      -1273.737          45.000  
G23  18542179.616    97439815.1532       2010.677          45.000  
G32  22722175.282   119405823.4172       2714.054          37.000  
G22  22586485.042   118692784.9912        561.987          29.000  
G10  21483287.180   112895438.0632       2840.426          40.000  
> 2024 07 04 09 17 56.5410000  0 10                     
G24  17754754.891    93301865.5902       1450.541          46.000  
G27  22305917.806   117218365.1682       -786.476          37.000  
G05  21003424.235   110373726.7992      -3081.299          38.000  
G13  20384421.107   107120853.1452      -3360.104          40.000  
G15  17916573.552    94152229.2542      -2061.983          46.000  
G18  18087014.663    95047904.6192      -1273.950          45.000  
G23  18542140.946    97439614.0802       2010.682          45.000  
G32  22722122.740   119405552.0612       2713.352          37.000  
G22  22586474.851   118692728.6562        562.641          29.000  
G10  21483232.752   112895154.0192       2840.526          40.000  
> 2024 07 04 09 17 56.6410000  0 10                     
G24  17754725.121    93301720.5672       1450.311          46.000  
G27  22305930.632   117218443.8662       -786.864          37.000  
G05  21003483.095   110374034.9322      -3081.519          38.000  
G13  20384484.138   107121189.1742      -3360.435          40.000  
G15  17916611.943    94152435.4592      -2062.043          46.000  
G18  18087038.639    95048032.0262      -1274.084          45.000  
G23  18542102.626    97439413.0202       2010.667          45.000  
G32  22722069.394   119405280.6562       2714.265          38.000  
G22  22586464.887   118692672.3142        563.277          29.000  
G10  21483179.808   112894870.0252       2839.941          40.000  
> 2024 07 04 09 17 56.7410000  0 10                     
G24  17754698.614    93301575.5292       1450.310          46.000  
G27  22305943.056   117218522.5342       -786.744          37.000  
G05  21003541.117   110374343.0472      -3081.091          38.000  
G13  20384547.848   107121525.2062      -3360.475          40.000  
G15  17916652.654    94152641.6622      -2062.105          46.000  
G18  18087065.042    95048159.4492      -1274.335          45.000  
G23  18542065.247    97439211.9662       2010.496          45.000  
G32  22722017.532   119405009.2742       2713.952          38.000  
G22  22586454.242   118692615.9652        563.445          29.000  
G10  21483124.683   112894585.9812       2840.503          40.000  
> 2024 07 04 09 17 56.8410000  0 10                     
G24  17754670.048    93301430.5272       1450.054          46.000  
G27  22305958.936   117218601.2302       -786.918          37.000  
G05  21003601.966   110374651.1862      -3081.225          38.000  
G13  20384612.117   107121861.2332      -3360.327          40.000  
G15  17916690.486    94152847.8822      -2062.232          46.000  
G18  18087086.470    95048286.8772      -1274.280          45.000  
G23  18542027.206    97439010.9282       2010.359          45.000  
G32  22721966.874   119404737.9312       2713.389          38.000  
G22  22586444.941   118692559.6282        563.384          29.000  
G10  21483070.518   112894301.9812       2840.042          40.000  
> 2024 07 04 09 17 56.9410000  0 10                     
G24  17754643.280    93301285.4942       1450.274          46.000  
G27  22305974.065   117218679.9152       -786.793          37.000  
G05  21003659.726   110374959.3112      -3081.476          38.000  
G13  20384677.294   107122197.2692      -3360.539          40.000  
G15  17916730.639    94153054.0852      -2062.017          46.000  
G18  18087113.204    95048414.2932      -1274.213          45.000  
G23  18541987.698    97438809.8612       2010.594          45.000  
G32  22721916.356   119404466.5212       2714.048          38.000  
G22  22586434.715   118692503.3022        563.195          29.000  
G10  21483016.474   112894017.9362       2840.493          40.000  
> 2024 07 04 09 17 57.0410000  0 10                     
G24  17754616.145    93301140.4962       1449.955          46.000  
G27  22305988.322   117218758.6122       -786.852          37.000  
G05  21003718.167   110375267.4682      -3081.500          38.000  
G13  20384740.987   107122533.3012      -3360.223          40.000  
G15  17916769.099    94153260.3082      -2062.196          46.000  
G18  18087135.296    95048541.7432      -1274.585          45.000  
G23  18541949.098    97438608.8302       2010.212          45.000  
G32  22721864.703   119404195.1822       2713.350          38.000  
G22  22586424.577   118692446.9952        563.049          29.000  
G10  21482959.011   112893733.9332       2839.939          40.000  
> 2024 07 04 09 17 57.1410000  0 10                     
G24  17754587.666    93300995.4992       1449.969          46.000  
G27  22306004.027   117218837.3382       -787.518          37.000  
G05  21003776.328   110375575.5902      -3081.207          38.000  
G13  20384804.367   107122869.3312      -3360.292          41.000  
G15  17916808.362    94153466.5312      -2062.294          46.000  
G18  18087159.465    95048669.1872      -1274.469          45.000  
G23  18541910.656    97438407.7742       2010.555          45.000  
G32  22721811.690   119403923.8022       2713.663          38.000  
G22  22586414.176   118692390.6922        562.996          29.000  
G10  21482904.985   112893449.9212       2840.031          40.000  
> 2024 07 04 09 17 57.2410000  0 10                     
G24  17754560.810    93300850.5192       1449.698          46.000  
G27  22306018.878   117218916.0582       -787.330          37.000  
G05  21003836.776   110375883.7492      -3081.592          38.000  
G13  20384866.768   107123205.3882      -3360.538          41.000  
G15  17916847.974    94153672.7682      -2062.453          46.000  
G18  18087183.947    95048796.6422      -1274.530          45.000  
G23  18541873.365    97438206.7492       2010.176          45.000  
G32  22721758.658   119403652.4542       2713.260          38.000  
G22  22586403.549   118692334.4092        562.760          29.000  
G10  21482851.954   112893165.9102       2839.971          40.000  
> 2024 07 04 09 17 57.3410000  0 10                     
G24  17754534.059    93300705.5332       1449.934          46.000  
G27  22306033.937   117218994.7772       -787.288          37.000  
G05  21003897.171   110376191.8842      -3081.110          38.000  
G13  20384930.758   107123541.4342      -3360.461          41.000  
G15  17916886.278    94153878.9942      -2062.156          46.000  
G18  18087209.302    95048924.1202      -1274.738          45.000  
G23  18541834.102    97438005.7272       2010.280          45.000  
G32  22721706.988   119403381.0862       2713.690          38.000  
G22  22586392.206   118692278.1072        562.920          29.000  
G10  21482796.671   112892881.8832       2840.403          40.000  
> 2024 07 04 09 17 57.4410000  0 10                     
G24  17754505.702    93300560.5712       1449.502          46.000  
G27  22306049.171   117219073.5172       -787.663          37.000  
G05  21003954.111   110376500.0492      -3081.793          38.000  
G13  20384995.638   107123877.4902      -3360.549          41.000  
G15  17916924.930    94154085.2372      -2062.515          46.000  
G18  18087232.337    95049051.5852      -1274.646          45.000  
G23  18541797.107    97437804.6852       2010.358          45.000  
G32  22721656.941   119403109.7312       2713.315          38.000  
G22  22586381.544   118692221.8312        562.829          29.000  
G10  21482745.001   112892597.8992       2839.760          40.000  
> 2024 07 04 09 17 57.5410000  0 10                     
G24  17754479.178    93300415.5942       1449.781          46.000  
G27  22306063.166   117219152.2292       -787.071          37.000  
G05  21004013.075   110376808.1902      -3081.525          38.000  
G13  20385057.674   107124213.5022      -3360.051          41.000  
G15  17916964.716    94154291.4682      -2062.230          46.000  
G18  18087256.750    95049179.0572      -1274.622          45.000  
G23  18541759.502    97437603.6572       2010.348          45.000  
G32  22721605.323   119402838.3492       2713.726          38.000  
G22  22586371.511   118692165.5202        563.098          29.000  
G10  21482692.389   112892313.8642       2840.351          40.000  
> 2024 07 04 09 17 57.6410000  0 10                     
G24  17754450.559    93300270.6292       1449.794          46.000  
G27  22306077.877   117219230.9572       -787.255          37.000  
G05  21004072.581   110377116.3362      -3081.512          38.000  
G13  20385122.711   107124549.5442      -3360.232          41.000  
G15  17917003.979    94154497.7002      -2062.200          46.000  
G18  18087281.110    95049306.5282      -1274.585          45.000  
G23  18541720.204    97437402.6102       2010.524          45.000  
G32  22721554.404   119402566.9762       2714.042          38.000  
G22  22586360.814   118692109.2482        562.788          29.000  
G10  21482635.309   112892029.8452       2840.192          40.000  
> 2024 07 04 09 17 57.7410000  0 10                     
G24  17754422.883    93300125.6592       1449.799          46.000  
G27  22306093.477   117219309.6932       -787.329          37.000  
G05  21004128.927   110377424.4852      -3081.354          38.000  
G13  20385186.142   107124885.5892      -3360.369          41.000  
G15  17917045.127    94154703.9382      -2062.392          46.000  
G18  18087305.680    95049434.0202      -1274.829          45.000  
G23  18541683.052    97437201.5732       2010.384          45.000  
G32  22721504.042   119402295.6122       2713.435          38.000  
G22  22586349.506   118692052.9512        562.870          29.000  
G10  21482581.528   112891745.8162       2840.552          40.000  
> 2024 07 04 09 17 57.8410000  0 10                     
G24  17754395.120    93299980.6892       1449.743          46.000  
G27  22306108.153   117219388.4342       -787.357          37.000  
G05  21004187.403   110377732.6222      -3081.384          38.000  
G13  20385250.063   107125221.6052      -3360.040          41.000  
G15  17917082.977    94154910.1562      -2062.164          46.000  
G18  18087331.192    95049561.4802      -1274.487          45.000  
G23  18541642.167    97437000.5412       2010.308          45.000  
G32  22721452.058   119402024.2372       2713.735          38.000  
G22  22586339.629   118691996.6922        562.519          29.000  
G10  21482530.242   112891461.7862       2840.352          40.000  
> 2024 07 04 09 17 57.9410000  0 10                     
G24  17754366.938    93299835.7132       1449.780          46.000  
G27  22306122.916   117219467.1262       -786.901          37.000  
G05  21004244.797   110378040.7342      -3081.183          38.000  
G13  20385314.995   107125557.6062      -3359.972          41.000  
G15  17917121.158    94155116.3652      -2062.098          46.000  
G18  18087355.884    95049688.9552      -1274.847          45.000  
G23  18541605.033    97436799.4702       2010.713          45.000  
G32  22721398.922   119401752.8182       2714.438          38.000  
G22  22586328.286   118691940.3952        562.799          29.000  
G10  21482475.361   112891177.7402       2840.402          40.000  
> 2024 07 04 09 17 58.0410000  0 10                     
G24  17754340.449    93299690.7332       1449.860          46.000  
G27  22306138.708   117219545.8592       -787.193          37.000  
G05  21004305.681   110378348.8602      -3081.451          38.000  
G13  20385380.014   107125893.6282      -3360.093          41.000  
G15  17917160.892    94155322.5822      -2062.171          46.000  
G18  18087381.292    95049816.4212      -1274.731          45.000  
G23  18541567.584    97436598.4032       2010.779          45.000  
G32  22721346.798   119401481.4542       2713.566          38.000  
G22  22586317.188   118691884.0752        563.148          29.000  
G10  21482421.300   112890893.6882       2840.363          40.000  
> 2024 07 04 09 17 58.1410000  0 10                     
G24  17754311.429    93299545.7752       1449.658          46.000  
G27  22306152.668   117219624.5972       -787.511          37.000  
G05  21004364.156   110378656.9722      -3081.085          38.000  
G13  20385443.359   107126229.6262      -3359.825          41.000  
G15  17917201.184    94155528.8002      -2062.134          46.000  
G18  18087404.640    95049943.8952      -1274.756          45.000  
G23  18541528.444    97436397.3622       2010.375          45.000  
G32  22721295.634   119401210.0372       2714.298          38.000  
G22  22586306.456   118691827.7542        563.302          29.000  
G10  21482367.065   112890609.6132       2840.840          40.000  
> 2024 07 04 09 17 58.2410000  0 10                     
G24  17754284.416    93299400.8012       1449.756          46.000  
G27  22306168.112   117219703.3112       -787.179          37.000  
G05  21004424.011   110378965.0842      -3081.049          38.000  
G13  20385509.216   107126565.6282      -3360.185          41.000  
G15  17917240.552    94155735.0122      -2062.122          46.000  
G18  18087428.739    95050071.3732      -1274.805          45.000  
G23  18541490.908    97436196.3002       2010.484          45.000  
G32  22721244.121   119400938.6272       2714.206          38.000  
G22  22586295.480   118691771.4472        563.140          29.000  
G10  21482312.061   112890325.5562       2840.462          40.000  
> 2024 07 04 09 17 58.3410000  0 10                     
G24  17754255.972    93299255.8402       1449.602          46.000  
G27  22306183.293   117219782.0292       -787.148          37.000  
G05  21004482.242   110379273.2082      -3081.268          38.000  
G13  20385572.473   107126901.6302      -3360.040          41.000  
G15  17917279.169    94155941.2262      -2062.140          46.000  
G18  18087451.791    95050198.8502      -1274.774          45.000  
G23  18541453.634    97435995.2252       2010.821          45.000  
G32  22721194.545   119400667.2422       2713.852          38.000  
G22  22586284.870   118691715.1752        562.805          29.000  
G10  21482259.327   112890041.5002       2840.568          40.000  
> 2024 07 04 09 17 58.4410000  0 10                     
G24  17754231.088    93299110.9122       1449.210          46.000  
G27  22306200.482   117219860.7872       -787.657          37.000  
G05  21004539.967   110379581.3572      -3081.677          38.000  
G13  20385636.463   107127237.6372      -3360.033          41.000  
G15  17917318.746    94156147.4562      -2062.417          46.000  
G18  18087477.757    95050326.3522      -1275.140          45.000  
G23  18541414.232    97435794.1972       2010.218          45.000  
G32  22721142.264   119400395.8602       2713.771          38.000  
G22  22586273.650   118691658.8932        562.758          29.000  
G10  21482205.371   112889757.4282       2840.671          40.000  
> 2024 07 04 09 17 58.5410000  0 10                     
G24  17754201.946    93298965.9822       1449.149          46.000  
G27  22306215.280   117219939.5582       -787.819          37.000  
G05  21004598.495   110379889.4812      -3081.250          38.000  
G13  20385699.702   107127573.6802      -3360.469          41.000  
G15  17917356.770    94156353.7072      -2062.680          46.000  
G18  18087500.424    95050453.8722      -1275.354          45.000  
G23  18541375.196    97435593.1562       2010.325          45.000  
G32  22721091.938   119400124.4852       2713.583          38.000  
G22  22586262.307   118691602.6372        562.509          29.000  
G10  21482152.357   112889473.4392       2839.588          40.000  
> 2024 07 04 09 17 58.6410000  0 10                     
G24  17754173.537    93298821.0802       1448.861          46.000  
G27  22306228.524   117220018.3492       -787.941          37.000  
G05  21004655.854   110380197.6602      -3081.982          38.000  
G13  20385763.710   107127909.7262      -3360.667          41.000  
G15  17917396.348    94156559.9772      -2062.882          46.000  
G18  18087525.361    95050581.4222      -1275.641          45.000  
G23  18541338.306    97435392.1522       2009.982          45.000  
G32  22721039.151   119399853.1302       2713.400          38.000  
G22  22586251.244   118691546.3962        562.300          29.000  
G10  21482097.668   112889189.3812       2840.368          40.000  
> 2024 07 04 09 17 58.7410000  0 10                     
G24  17754147.327    93298676.2262       1448.341          46.000  
G27  22306244.474   117220097.1732       -788.324          37.000  
G05  21004713.911   110380505.8502      -3082.019          38.000  
G13  20385827.403   107128245.7962      -3360.893          41.000  
G15  17917436.867    94156766.2762      -2063.107          46.000  
G18  18087549.093    95050709.0032      -1275.946          45.000  
G23  18541299.043    97435191.1802       2009.571          45.000  
G32  22720986.416   119399581.8062       2713.211          38.000  
G22  22586239.936   118691490.1942        561.969          29.000  
G10  21482042.124   112888905.3942       2839.695          40.000  
> 2024 07 04 09 17 58.8410000  0 10                     
G24  17754118.604    93298531.3922       1448.265          46.000  
G27  22306259.882   117220176.0372       -788.875          37.000  
G05  21004771.514   110380814.0922      -3082.544          38.000  
G13  20385891.341   107128581.9262      -3361.478          41.000  
G15  17917475.659    94156972.6052      -2063.450          46.000  
G18  18087571.743    95050836.6152      -1276.172          45.000  
G23  18541262.101    97434990.2332       2009.365          45.000  
G32  22720934.781   119399310.5142       2712.840          38.000  
G22  22586229.047   118691434.0162        561.726          29.000  
G10  21481988.849   112888621.4512       2839.305          40.000  
> 2024 07 04 09 17 58.9410000  0 10                     
G24  17754091.643    93298386.5812       1448.057          46.000  
G27  22306274.715   117220254.9012       -788.893          37.000  
G05  21004831.700   110381122.3062      -3082.135          38.000  
G13  20385954.144   107128918.0142      -3360.905          41.000  
G15  17917515.288    94157178.9482      -2063.515          46.000  
G18  18087596.662    95050964.2552      -1276.526          45.000  
G23  18541222.105    97434789.2862       2009.390          45.000  
G32  22720882.640   119399039.2312       2712.614          38.000  
G22  22586217.669   118691377.8592        561.475          29.000  
G10  21481934.631   112888337.4852       2839.518          40.000  
> 2024 07 04 09 17 59.0410000  0 10                     
G24  17754064.473    93298241.7722       1447.965          46.000  
G27  22306289.722   117220333.7832       -788.811          37.000  
G05  21004890.054   110381430.5592      -3082.556          38.000  
G13  20386019.286   107129254.1302      -3361.135          41.000  
G15  17917553.591    94157385.2902      -2063.428          46.000  
G18  18087621.529    95051091.8832      -1276.324          45.000  
G23  18541184.378    97434588.3522       2009.298          45.000  
G32  22720830.220   119398767.9372       2713.005          38.000  
G22  22586207.077   118691321.7282        561.218          29.000  
G10  21481881.093   112888053.5092       2839.818          40.000  
> 2024 07 04 09 17 59.1410000  0 10                     
G24  17754036.693    93298097.0142       1447.438          46.000  
G27  22306303.613   117220412.6872       -789.173          37.000  
G05  21004948.896   110381738.8572      -3082.953          38.000  
G13  20386083.956   107129590.2852      -3361.653          41.000  
G15  17917592.854    94157591.6732      -2063.944          46.000  
G18  18087645.017    95051219.5592      -1276.953          45.000  
G23  18541146.912    97434387.4592       2008.847          45.000  
G32  22720778.654   119398496.7012       2712.436          38.000  
G22  22586196.555   118691265.5962        561.225          29.000  
G10  21481827.923   112887769.6202       2838.680          40.000  
> 2024 07 04 09 17 59.2410000  0 10                     
G24  17754008.807    93297952.2732       1447.312          46.000  
G27  22306318.672   117220491.6302       -789.583          37.000  
G05  21005007.773   110382047.1192      -3082.495          38.000  
G13  20386146.637   107129926.4532      -3361.753          41.000  
G15  17917632.781    94157798.0752      -2064.181          46.000  
G18  18087670.320    95051347.2632      -1277.032          45.000  
G23  18541108.609    97434186.5712       2008.809          45.000  
G32  22720728.171   119398225.4612       2712.293          38.000  
G22  22586185.875   118691209.4882        561.014          29.000  
G10  21481773.164   112887485.6862       2839.409          40.000  
> 2024 07 04 09 17 59.3410000  0 10                     
G24  17753980.887    93297807.5082       1447.576          46.000  
G27  22306333.610   117220570.5402       -789.049          37.000  
G05  21005067.435   110382355.4232      -3083.350          38.000  
G13  20386211.203   107130262.5932      -3361.488          41.000  
G15  17917671.712    94158004.4532      -2063.812          46.000  
G18  18087694.471    95051474.9462      -1276.880          45.000  
G23  18541070.777    97433985.6742       2008.892          45.000  
G32  22720677.059   119397954.2142       2712.396          38.000  
G22  22586175.370   118691153.3732        561.011          29.000  
G10  21481719.679   112887201.7722       2839.188          40.000  
> 2024 07 04 09 17 59.4410000  0 10                     
G24  17753953.560    93297662.7972       1446.949          46.000  
G27  22306348.809   117220649.5172       -789.996          37.000  
G05  21005125.614   110382663.7262      -3083.294          38.000  
G13  20386275.280   107130598.7852      -3361.987          41.000  
G15  17917710.417    94158210.8742      -2064.341          46.000  
G18  18087717.558    95051602.6762      -1277.490          45.000  
G23  18541032.700    97433784.8082       2008.626          45.000  
G32  22720626.453   119397682.9912       2712.147          38.000  
G22  22586164.970   118691097.3292        560.484          29.000  
G10  21481665.566   112886917.8722       2838.947          40.000  
> 2024 07 04 09 17 59.5410000  0 10                     
G24  17753926.878    93297518.0892       1446.990          46.000  
G27  22306363.467   117220728.4852       -789.707          37.000  
G05  21005185.032   110382972.0452      -3083.173          38.000  
G13  20386340.282   107130934.9622      -3361.899          41.000  
G15  17917749.837    94158417.3002      -2064.246          46.000  
G18  18087741.377    95051730.4132      -1277.417          45.000  
G23  18540995.235    97433583.9482       2008.588          45.000  
G32  22720574.330   119397411.7932       2711.785          38.000  
G22  22586154.692   118691041.2672        560.504          29.000  
G10  21481611.208   112886634.0032       2838.542          40.000  
> 2024 07 04 09 17 59.6410000  0 10                     
G24  17753899.883    93297373.4022       1446.682          46.000  
G27  22306378.684   117220807.4752       -790.037          37.000  
G05  21005244.415   110383280.3772      -3083.447          38.000  
G13  20386404.168   107131271.1652      -3362.240          41.000  
G15  17917789.885    94158623.7402      -2064.567          46.000  
G18  18087765.807    95051858.1672      -1277.692          45.000  
G23  18540957.036    97433383.1172       2008.081          45.000  
G32  22720521.892   119397140.5962       2711.648          38.000  
G22  22586144.326   118690985.1962        560.651          29.000  
G10  21481556.729   112886350.1042       2838.785          40.000  
> 2024 07 04 09 17 59.7410000  0 10                     
G24  17753871.474    93297228.7252       1446.697          46.000  
G27  22306394.092   117220886.4792       -790.177          37.000  
G05  21005301.861   110383588.7072      -3083.307          38.000  
G13  20386467.547   107131607.3642      -3362.018          41.000  
G15  17917828.886    94158830.1992      -2064.644          46.000  
G18  18087790.604    95051985.9382      -1277.881          45.000  
G23  18540917.930    97433182.2712       2008.433          45.000  
G32  22720469.716   119396869.3782       2712.108          38.000  
G22  22586133.123   118690929.1772        560.200          29.000  
G10  21481503.767   112886066.2302       2838.754          40.000  
> 2024 07 04 09 17 59.8410000  0 10                     
G24  17753844.775    93297084.0802       1446.304          46.000  
G27  22306411.158   117220965.5102       -790.608          37.000  
G05  21005359.639   110383897.0622      -3083.496          38.000  
G13  20386532.113   107131943.5842      -3362.292          41.000  
G15  17917867.765    94159036.6692      -2064.828          46.000  
G18  18087815.959    95052113.7272      -1278.076          45.000  
G23  18540879.662    97432981.4592       2007.946          45.000  
G32  22720419.372   119396598.2312       2711.361          38.000  
G22  22586122.321   118690873.1672        559.915          29.000  
G10  21481448.747   112885782.3862       2838.328          40.000  
> 2024 07 04 09 17 59.9410000  0 10                     
G24  17753817.361    93296939.4722       1446.018          46.000  
G27  22306425.049   117221044.5702       -790.791          37.000  
G05  21005417.556   110384205.4772      -3084.106          38.000  
G13  20386595.003   107132279.8612      -3362.906          40.000  
G15  17917908.197    94159243.1872      -2065.349          46.000  
G18  18087839.360    95052241.5732      -1278.564          45.000  
G23  18540841.446    97432780.6912       2007.620          45.000  
G32  22720366.532   119396327.0942       2711.284          38.000  
G22  22586111.398   118690817.1642        559.821          29.000  
G10  21481394.843   112885498.5552       2838.284          40.000  
> 2024 07 04 09 18 00.0410000  0 10                     
G24  17753789.301    93296794.8742       1445.841          46.000  
G27  22306440.457   117221123.6462       -790.894          37.000  
G05  21005477.219   110384513.8792      -3084.058          38.000  
G13  20386658.888   107132616.1162      -3362.522          41.000  
G15  17917947.094    94159449.7052      -2065.229          46.000  
G18  18087863.372    95052369.4122      -1278.528          45.000  
G23  18540803.038    97432579.9192       2007.674          45.000  
G32  22720315.333   119396055.9562       2711.271          38.000  
G22  22586099.811   118690761.2462        559.146          29.000  
G10  21481340.730   112885214.7512       2837.977          40.000  
> 2024 07 04 09 18 00.1410000  0 10                     
G24  17753761.695    93296650.2862       1445.799          46.000  
G27  22306453.754   117221202.7242       -790.844          37.000  
G05  21005536.008   110384822.2812      -3084.167          38.000  
G13  20386722.145   107132952.3892      -3362.817          40.000  
G15  17917987.264    94159656.2252      -2065.310          46.000  
G18  18087888.203    95052496.7721      -1278.723          45.000  
G23  18540764.874    97432379.1622       2007.575          45.000  
G32  22720263.855   119395784.8472       2711.005          38.000  
G22  22586089.079   118690704.7671        559.474          29.000  
G10  21481286.547   112884930.9452       2838.042          40.000  
> 2024 07 04 09 18 00.2410000  0 10                     
G24  17753733.425    93296505.7452       1445.297          46.000  
G27  22306469.337   117221281.8672       -791.630          37.000  
G05  21005593.716   110385130.7382      -3084.839          38.000  
G13  20386786.641   107133288.6922      -3363.115          41.000  
G15  17918026.091    94159862.7952      -2065.806          46.000  
G18  18087912.529    95052624.664       -1279.010          45.000  
G23  18540726.327    97432178.4282       2007.190          45.000  
G32  22720211.993   119395513.7512       2710.608          38.000  
G22  22586078.748   118690648.878         558.843          29.000  
G10  21481232.643   112884647.1692       2837.679          40.000  
> 2024 07 04 09 18 00.3410000  0 10                     
G24  17753705.575    93296361.2062       1445.330          46.000  
G27  22306484.955   117221360.9772       -791.091          37.000  
G05  21005652.646   110385439.1782      -3084.570          38.000  
G13  20386850.457   107133624.9942      -3363.000          40.000  
G15  17918064.900    94160069.3532      -2065.601          46.000  
G18  18087936.907    95052752.577       -1279.248          45.000  
G23  18540688.111    97431977.7022       2007.149          45.000  
G32  22720160.498   119395242.6442       2710.949          38.000  
G22  22586068.034   118690592.953         558.938          29.000  
G10  21481179.246   112884363.3712       2838.028          40.000  
> 2024 07 04 09 18 00.4410000  0 10                     
G24  17753677.934    93296216.7062       1444.913          46.000  
G27  22306500.870   117221440.1362       -791.651          37.000  
G05  21005712.639   110385747.6602      -3085.010          38.000  
G13  20386913.103   107133961.3382      -3363.476          40.000  
G15  17918103.902    94160275.9612      -2066.178          46.000  
G18  18087961.285    95052880.512       -1279.443          45.000  
G23  18540649.703    97431777.0092       2006.933          45.000  
G32  22720108.252   119394971.5992       2710.382          38.000  
G22  22586057.145   118690537.069         558.851          29.000  
G10  21481125.150   112884079.6462       2837.484          40.000  
> 2024 07 04 09 18 00.5410000  0 10                     
G24  17753650.223    93296072.2112       1444.822          46.000  
G27  22306515.930   117221519.3202       -792.009          37.000  
G05  21005771.778   110386056.1362      -3084.839          38.000  
G13  20386977.599   107134297.6762      -3363.417          40.000  
G15  17918142.833    94160482.5592      -2066.053          46.000  
G18  18087985.052    95053008.468       -1279.663          45.000  
G23  18540612.133    97431576.3202       2006.858          45.000  
G32  22720056.704   119394700.5432       2710.400          38.000  
G22  22586046.361   118690481.191         558.805          29.000  
G10  21481070.897   112883795.9002       2837.566          40.000  
> 2024 07 04 09 18 00.6410000  0 10                     
G24  17753623.367    93295927.7532       1444.517          46.000  
G27  22306530.500   117221598.5302       -792.173          37.000  
G05  21005830.359   110386364.6452      -3085.065          38.000  
G13  20387042.409   107134634.0422      -3363.580          40.000  
G15  17918183.195    94160689.2022      -2066.532          46.000  
G18  18088010.302    95053136.448       -1279.889          45.000  
G23  18540574.388    97431375.6662       2006.492          45.000  
G32  22720006.308   119394429.5212       2710.254          38.000  
G22  22586035.123   118690425.360         558.280          29.000  
G10  21481016.854   112883512.1982       2836.896          40.000  
> 2024 07 04 09 18 00.7410000  0 10                     
G24  17753596.546    93295783.3072       1444.290          46.000  
G27  22306545.438   117221677.7332       -792.128          37.000  
G05  21005888.590   110386673.1782      -3085.266          38.000  
G13  20387107.429   107134970.4212      -3363.986          40.000  
G15  17918221.935    94160895.8442      -2066.530          46.000  
G18  18088035.117    95053264.442       -1280.084          45.000  
G23  18540536.399    97431175.0192       2006.234          45.000  
G32  22719955.039   119394158.4972       2709.752          38.000  
G22  22586024.635   118690369.522         558.218          29.000  
G10  21480963.107   112883228.4652       2837.308          40.000  
> 2024 07 04 09 18 00.8410000  0 10                     
G24  17753569.009    93295638.9212       1443.703          46.000  
G27  22306559.922   117221757.0122       -792.845          37.000  
G05  21005946.944   110386981.7392      -3085.675          38.000  
G13  20387169.517   107135306.8342      -3364.245          41.000  
G15  17918261.512    94161102.5312      -2066.996          46.000  
G18  18088058.692    95053392.498       -1280.701          45.000  
G23  18540498.200    97430974.4212       2005.860          45.000  
G32  22719903.124   119393887.5142       2709.859          38.000  
G22  22586013.467   118690313.725         557.872          29.000  
G10  21480907.930   112882944.8322       2835.968          40.000  
> 2024 07 04 09 18 00.9410000  0 10                     
G24  17753541.804    93295494.5052       1444.160          46.000  
G27  22306574.196   117221836.2592       -792.550          37.000  
G05  21006006.344   110387290.2972      -3085.687          38.000  
G13  20387233.978   107135643.2322      -3363.938          41.000  
G15  17918301.054    94161309.2162      -2066.870          46.000  
G18  18088083.715    95053520.532       -1280.371          45.000  
G23  18540460.333    97430773.7982       2006.172          45.000  
G32  22719851.175   119393616.5372       2709.562          38.000  
G22  22586003.102   118690258.008         557.014          29.000  
G10  21480854.881   112882661.1282       2836.960          40.000  
> 2024 07 04 09 18 01.0410000  0 10                     
G24  17753514.652    93295350.1372       1443.687          46.000  
G27  22306589.726   117221915.5472       -792.916          37.000  
G05  21006065.186   110387598.8682      -3085.870          38.000  
G13  20387298.055   107135979.6492      -3364.212          41.000  
G15  17918340.771    94161515.9132      -2066.987          46.000  
G18  18088108.722    95053648.599       -1280.750          45.000  
G23  18540422.257    97430573.2032       2005.813          45.000  
G32  22719799.994   119393345.5702       2709.496          38.000  
G22  22585992.387   118690202.210         557.571          29.000  
G10  21480800.576   112882377.4762       2836.597          40.000  
> 2024 07 04 09 18 01.1410000  0 10                     
G24  17753486.330    93295205.7802       1443.510          46.000  
G27  22306605.606   117221994.8662       -793.171          37.000  
G05  21006123.889   110387907.4742      -3086.212          38.000  
G13  20387361.923   107136316.1112      -3364.666          41.000  
G15  17918379.947    94161722.6322      -2067.257          46.000  
G18  18088132.489    95053776.692       -1280.963          45.000  
G23  18540383.797    97430372.6362       2005.629          45.000  
G32  22719748.114   119393074.6132       2709.576          38.000  
G22  22585982.057   118690146.460         557.447          29.000  
G10  21480746.131   112882093.8192       2836.408          40.000  
> 2024 07 04 09 18 01.2410000  0 10                     
G24  17753458.986    93295061.4512       1443.161          46.000  
G27  22306620.247   117222074.1962       -793.336          37.000  
G05  21006183.132   110388216.0622      -3085.852          38.000  
G13  20387426.174   107136652.5672      -3364.739          41.000  
G15  17918419.140    94161929.3812      -2067.618          46.000  
G18  18088157.059    95053904.804       -1281.250          45.000  
G23  18540345.895    97430172.0692       2005.602          45.000  
G32  22719696.653   119392803.6852       2709.262          38.000  
G22  22585970.801   118690090.705         557.487          29.000  
G10  21480692.245   112881810.2022       2836.091          40.000  
> 2024 07 04 09 18 01.3410000  0 10                     
G24  17753431.310    93294917.1382       1443.108          46.000  
G27  22306634.957   117222153.5212       -793.182          37.000  
G05  21006242.044   110388524.6852      -3086.267          38.000  
G13  20387490.461   107136989.0312      -3364.687          41.000  
G15  17918458.787    94162136.1222      -2067.413          46.000  
G18  18088181.506    95054032.927       -1281.287          45.000  
G23  18540307.277    97429971.5232       2005.481          45.000  
G32  22719645.385   119392532.7492       2709.311          38.000  
G22  22585960.732   118690035.027         556.851          29.000  
G10  21480638.411   112881526.5612       2836.522          40.000  
> 2024 07 04 09 18 01.4410000  0 10                     
G24  17753403.686    93294772.8442       1442.745          46.000  
G27  22306649.389   117222232.8862       -793.896          37.000  
G05  21006300.764   110388833.3372      -3086.591          38.000  
G13  20387554.591   107137325.5102      -3364.935          41.000  
G15  17918498.102    94162342.8972      -2067.992          46.000  
G18  18088205.466    95054161.083       -1281.641          45.000  
G23  18540269.585    97429771.0012       2004.928          45.000  
G32  22719593.837   119392261.8652       2708.497          38.000  
G22  22585949.948   118689979.349         556.550          29.000  
G10  21480584.333   112881242.9672       2835.886          40.000  
> 2024 07 04 09 18 01.5410000  0 10                     
G24  17753376.202    93294628.5792       1442.595          46.000  
G27  22306664.588   117222312.3002       -794.199          37.000  
G05  21006360.060   110389141.9782      -3086.212          38.000  
G13  20387619.209   107137662.0192      -3365.058          41.000  
G15  17918537.348    94162549.6852      -2067.821          46.000  
G18  18088229.896    95054289.249       -1281.671          45.000  
G23  18540230.968    97429570.4892       2005.143          45.000  
G32  22719542.673   119391990.9562       2709.423          38.000  
G22  22585940.281   118689923.658         556.760          29.000  
G10  21480530.831   112880959.3612       2835.994          40.000  
> 2024 07 04 09 18 01.6410000  0 10                     
G24  17753349.049    93294484.2782       1443.007          46.000  
G27  22306679.490   117222391.6262       -793.350          37.000  
G05  21006419.112   110389450.6352      -3086.542          39.000  
G13  20387683.879   107137998.4872      -3364.841          41.000  
G15  17918576.593    94162756.4512      -2067.769          46.000  
G18  18088254.745    95054417.403       -1281.635          45.000  
G23  18540192.472    97429369.9442       2005.391          45.000  
G32  22719490.933   119391720.0512       2708.911          38.000  
G22  22585929.828   118689867.983         556.736          29.000  
G10  21480477.625   112880675.7562       2835.948          40.000  
> 2024 07 04 09 18 01.7410000  0 10                     
G24  17753322.036    93294340.0442       1442.269          46.000  
G27  22306695.562   117222471.0692       -794.813          37.000  
G05  21006477.203   110389759.3062      -3086.676          39.000  
G13  20387747.974   107138335.0162      -3365.406          41.000  
G15  17918615.402    94162963.2732      -2068.308          46.000  
G18  18088278.931    95054545.602       -1282.062          45.000  
G23  18540154.832    97429169.4742       2004.605          45.000  
G32  22719439.978   119391449.1882       2708.589          38.000  
G22  22585920.091   118689812.315         556.694          29.000  
G10  21480423.250   112880392.1922       2835.537          40.000  
> 2024 07 04 09 18 01.8410000  0 10                     
G24  17753295.058    93294195.7872       1442.740          46.000  
G27  22306710.430   117222550.4702       -794.103          37.000  
G05  21006536.150   110390067.9742      -3086.633          39.000  
G13  20387811.824   107138671.5092      -3364.932          41.000  
G15  17918654.299    94163170.0582      -2067.765          46.000  
G18  18088303.361    95054673.788       -1281.812          45.000  
G23  18540116.826    97428968.9582       2005.210          45.000  
G32  22719388.587   119391178.2832       2709.404          38.000  
G22  22585909.446   118689756.680         556.350          29.000  
G10  21480369.503   112880108.5812       2836.112          40.000  
> 2024 07 04 09 18 01.9410000  0 10                     
G24  17753267.888    93294051.5542       1442.202          46.000  
G27  22306725.611   117222629.8602       -794.044          37.000  
G05  21006595.271   110390376.6542      -3087.073          39.000  
G13  20387876.024   107139008.0282      -3365.301          41.000  
G15  17918694.487    94163376.8832      -2068.338          46.000  
G18  18088327.460    95054802.005       -1282.281          45.000  
G23  18540078.784    97428768.4702       2004.770          45.000  
G32  22719337.162   119390907.4132       2708.787          38.000  
G22  22585898.348   118689701.024         556.333          29.000  
G10  21480316.193   112879825.0042       2835.673          40.000  
> 2024 07 04 09 18 02.0410000  0 10                     
G24  17753240.300    93293907.3452       1442.070          46.000  
G27  22306740.147   117222709.3172       -794.721          37.000  
G05  21006654.044   110390685.3322      -3086.786          39.000  
G13  20387939.909   107139344.5352      -3364.986          41.000  
G15  17918734.029    94163583.7032      -2068.182          46.000  
G18  18088351.821    95054930.226       -1282.208          45.000  
G23  18540040.272    97428567.9922       2004.803          45.000  
G32  22719285.526   119390636.5812       2708.281          38.000  
G22  22585887.982   118689645.397         556.135          29.000  
G10  21480262.150   112879541.4092       2835.934          40.000  
> 2024 07 04 09 18 02.1410000  0 10                     
G24  17753212.589    93293763.1262       1442.256          46.000  
G27  22306755.730   117222788.7342       -794.241          37.000  
G05  21006713.043   110390994.0262      -3086.975          39.000  
G13  20388003.986   107139681.0702      -3365.235          41.000  
G15  17918773.536    94163790.5272      -2068.238          46.000  
G18  18088375.832    95055058.447       -1282.092          45.000  
G23  18540002.108    97428367.5122       2004.758          45.000  
G32  22719234.467   119390365.7032       2709.058          38.000  
G22  22585878.001   118689589.777         556.180          29.000  
G10  21480207.827   112879257.8622       2835.448          40.000  
> 2024 07 04 09 18 02.2410000  0 10                     
G24  17753184.895    93293618.8972       1442.378          46.000  
G27  22306770.790   117222868.1592       -794.373          37.000  
G05  21006771.222   110391302.6842      -3086.517          39.000  
G13  20388067.784   107140017.5662      -3364.952          41.000  
G15  17918812.799    94163997.3322      -2067.973          46.000  
G18  18088399.844    95055186.667       -1282.098          45.000  
G23  18539963.613    97428167.0122       2005.013          45.000  
G32  22719182.553   119390094.8112       2708.797          38.000  
G22  22585866.536   118689534.153         556.283          29.000  
G10  21480154.220   112878974.2472       2836.137          40.000  
> 2024 07 04 09 18 02.3410000  0 10                     
G24  17753157.394    93293474.7062       1441.669          46.000  
G27  22306786.129   117222947.6192       -794.743          37.000  
G05  21006829.994   110391611.3852      -3087.317          39.000  
G13  20388131.931   107140354.1022      -3365.624          41.000  
G15  17918851.800    94164204.1712      -2068.491          46.000  
G18  18088424.396    95055314.917       -1282.660          45.000  
G23  18539925.292    97427966.5432       2004.516          45.000  
G32  22719130.725   119389823.9802       2707.991          38.000  
G22  22585856.659   118689478.502         556.423          29.000  
G10  21480100.403   112878690.6732       2835.668          40.000  
> 2024 07 04 09 18 02.4410000  0 10                     
G24  17753130.101    93293330.5452       1441.539          46.000  
G27  22306801.153   117223027.0922       -794.929          37.000  
G05  21006889.168   110391920.1122      -3087.427          39.000  
G13  20388195.694   107140690.6412      -3365.497          41.000  
G15  17918891.378    94164411.0342      -2068.740          46.000  
G18  18088449.036    95055443.191       -1282.794          45.000  
G23  18539887.373    97427766.1052       2004.317          45.000  
G32  22719079.073   119389553.1372       2708.224          38.000  
G22  22585846.032   118689422.931         555.713          29.000  
G10  21480046.919   112878407.1372       2835.332          40.000  
> 2024 07 04 09 18 02.5410000  0 10                     
G24  17753102.373    93293186.3822       1441.502          46.000  
G27  22306816.230   117223106.5652       -794.844          37.000  
G05  21006947.993   110392228.8252      -3087.250          39.000  
G13  20388259.492   107141027.2032      -3365.702          41.000  
G15  17918931.094    94164617.8932      -2068.647          46.000  
G18  18088473.553    95055571.473       -1282.898          45.000  
G23  18539849.192    97427565.6532       2004.373          45.000  
G32  22719027.664   119389282.2702       2708.553          38.000  
G22  22585835.928   118689367.362         555.451          29.000  
G10  21479992.631   112878123.5852       2835.463          40.000  
> 2024 07 04 09 18 02.6410000  0 10                     
G24  17753074.889    93293042.2482       1441.152          46.000  
G27  22306831.464   117223186.0852       -795.439          37.000  
G05  21007006.765   110392537.5582      -3087.433          39.000  
G13  20388323.534   107141363.7792      -3365.698          41.000  
G15  17918970.392    94164824.7882      -2069.021          46.000  
G18  18088498.088    95055699.780       -1283.124          45.000  
G23  18539811.342    97427365.2402       2004.063          45.000  
G32  22718976.012   119389011.4812       2707.896          38.000  
G22  22585825.720   118689311.826         555.261          29.000  
G10  21479938.483   112877840.0522       2835.218          40.000  
> 2024 07 04 09 18 02.7410000  0 10                     
G24  17753047.353    93292898.1222       1441.154          43.000  
G27  22306846.786   117223265.6062       -795.571          35.000  
G05  21007065.555   110392846.3032      -3087.665          37.000  
G13  20388387.839   107141700.3362      -3365.809          39.000  
G15  17919009.516    94165031.6772      -2068.984          44.000  
G18  18088522.641    95055828.108       -1283.411          42.000  
G23  18539773.039    97427164.8132       2004.159          43.000  
G32  22718924.307   119388740.6802       2708.078          35.000  
G22  22585815.006   118689256.296         555.205          29.000  
G10  21479884.998   112877556.5202       2834.952          38.000  
> 2024 07 04 09 18 02.8410000  0 10                     
G24  17753019.799    93292754.0622       1440.468          45.000  
G27  22306861.775   117223345.1822       -795.758          37.000  
G05  21007123.961   110393155.1012      -3088.098          39.000  
G13  20388451.881   107142036.9932      -3366.717          41.000  
G15  17919049.180    94165238.6342      -2069.806          46.000  
G18  18088546.792    95055956.475       -1283.783          45.000  
G23  18539734.893    97426964.4542       2003.435          46.000  
G32  22718872.933   119388469.9122       2707.575          37.000  
G22  22585804.204   118689200.764         555.150          29.000  
G10  21479830.955   112877273.0682       2834.336          40.000  
> 2024 07 04 09 18 02.9410000  0 10                     
G24  17752992.210    93292609.9932       1440.662          45.000  
G27  22306876.817   117223424.7362       -795.549          37.000  
G05  21007182.419   110393463.9052      -3087.952          39.000  
G13  20388516.080   107142373.5912      -3365.955          41.000  
G15  17919088.373    94165445.5642      -2069.310          47.000  
G18  18088571.414    95056084.850       -1283.765          45.000  
G23  18539696.729    97426764.0882       2003.654          46.000  
G32  22718821.071   119388199.1462       2707.640          37.000  
G22  22585792.966   118689145.294         554.575          29.000  
G10  21479776.754   112876989.5652       2834.936          40.000  
> 2024 07 04 09 18 03.0410000  0 10                     
G24  17752964.830    93292465.9542       1440.156          45.000  
G27  22306891.947   117223504.3362       -796.083          37.000  
G05  21007241.750   110393772.7122      -3088.190          39.000  
G13  20388580.210   107142710.2262      -3366.606          41.000  
G15  17919128.002    94165652.5412      -2070.013          46.000  
G18  18088595.722    95056213.252       -1284.290          45.000  
G23  18539658.513    97426563.7392       2003.256          45.000  
G32  22718769.471   119387928.4132       2707.375          37.000  
G22  22585782.758   118689089.817         554.523          29.000  
G10  21479722.868   112876706.1082       2834.301          40.000  
> 2024 07 04 09 18 03.1410000  0 10                     
G24  17752937.434    93292321.9182       1440.313          46.000  
G27  22306907.320   117223583.9632       -796.232          37.000  
G05  21007300.609   110394081.5202      -3087.842          39.000  
G13  20388644.182   107143046.8832      -3366.534          41.000  
G15  17919167.318    94165859.5082      -2069.677          46.000  
G18  18088620.135    95056341.665       -1284.161          45.000  
G23  18539620.175    97426363.4022       2003.444          45.000  
G32  22718717.888   119387657.6672       2707.500          37.000  
G22  22585772.584   118689034.366         554.384          29.000  
G10  21479668.807   112876422.6482       2834.616          40.000  
> 2024 07 04 09 18 03.2410000  0 10                     
G24  17752909.967    93292177.9102       1439.994          46.000  
G27  22306922.502   117223663.5572       -795.830          37.000  
G05  21007359.713   110394390.3532      -3088.275          39.000  
G13  20388708.225   107143383.5362      -3366.585          41.000  
G15  17919206.616    94166066.4892      -2069.844          46.000  
G18  18088644.286    95056470.092       -1284.357          45.000  
G23  18539582.099    97426163.0652       2003.356          45.000  
G32  22718666.253   119387386.9492       2707.056          38.000  
G22  22585761.748   118688978.919         554.409          29.000  
G10  21479614.956   112876139.1912       2834.560          40.000  
> 2024 07 04 09 18 03.3410000  0 10                     
G24  17752882.500    93292033.9382       1439.571          46.000  
G27  22306937.631   117223743.2322       -796.813          37.000  
G05  21007418.276   110394699.2192      -3088.635          39.000  
G13  20388772.267   107143720.2072      -3366.677          41.000  
G15  17919246.018    94166273.5082      -2070.304          46.000  
G18  18088668.961    95056598.542       -1284.662          45.000  
G23  18539544.319    97425962.7782       2002.745          45.000  
G32  22718614.932   119387116.2592       2706.540          38.000  
G22  22585751.417   118688923.485         554.208          29.000  
G10  21479561.052   112875855.7652       2834.270          40.000  
> 2024 07 04 09 18 03.4410000  0 10                     
G24  17752855.243    93291889.9442       1439.930          46.000  
G27  22306952.935   117223822.8712       -796.325          37.000  
G05  21007477.048   110395008.0752      -3088.489          39.000  
G13  20388836.222   107144056.8882      -3366.931          41.000  
G15  17919285.456    94166480.5012      -2069.902          46.000  
G18  18088693.478    95056727.012       -1284.784          45.000  
G23  18539506.103    97425762.4542       2003.215          45.000  
G32  22718563.279   119386845.5202       2707.308          38.000  
G22  22585740.197   118688868.046         554.320          29.000  
G10  21479506.974   112875572.3162       2834.484          40.000  
> 2024 07 04 09 18 03.5410000  0 10                     
G24  17752827.829    93291745.9842       1439.381          46.000  
G27  22306968.204   117223902.5232       -796.705          37.000  
G05  21007535.576   110395316.9422      -3088.904          39.000  
G13  20388900.212   107144393.5742      -3366.947          41.000  
G15  17919324.911    94166687.5332      -2070.469          46.000  
G18  18088717.996    95056855.479       -1284.857          45.000  
G23  18539468.149    97425562.1612       2002.830          45.000  
G32  22718511.731   119386574.8412       2706.634          38.000  
G22  22585730.198   118688812.628         554.279          29.000  
G10  21479453.088   112875288.8952       2834.130          40.000  
> 2024 07 04 09 18 03.6410000  0 10                     
G24  17752800.484    93291602.0632       1439.121          46.000  
G27  22306983.438   117223982.2682       -797.452          37.000  
G05  21007594.314   110395625.8702      -3089.423          39.000  
G13  20388964.184   107144730.3002      -3367.327          41.000  
G15  17919364.261    94166894.6062      -2070.723          46.000  
G18  18088742.461    95056984.000       -1285.321          45.000  
G23  18539429.898    97425361.9202       2002.341          45.000  
G32  22718460.463   119386304.1852       2706.379          38.000  
G22  22585719.989   118688757.285         553.561          29.000  
G10  21479399.358   112875005.5182       2833.851          40.000  
> 2024 07 04 09 18 03.7410000  0 10                     
G24  17752772.983    93291458.1332       1439.270          46.000  
G27  22306998.690   117224061.9442       -796.730          37.000  
G05  21007653.139   110395934.7462      -3088.763          39.000  
G13  20389028.262   107145066.9972      -3366.947          41.000  
G15  17919403.594    94167101.6432      -2070.379          46.000  
G18  18088766.874    95057112.508       -1285.077          45.000  
G23  18539391.682    97425161.6402       2002.869          45.000  
G32  22718409.089   119386033.4992       2707.022          38.000  
G22  22585710.374   118688701.937         553.408          29.000  
G10  21479345.490   112874722.1152       2834.087          40.000  
> 2024 07 04 09 18 03.8410000  0 10                     
G24  17752745.621    93291314.2452       1438.667          46.000  
G27  22307013.819   117224141.6962       -797.778          37.000  
G05  21007711.946   110396243.6662      -3089.374          39.000  
G13  20389092.426   107145403.7562      -3367.734          41.000  
G15  17919442.944    94167308.7482      -2071.259          46.000  
G18  18088791.322    95057241.071       -1285.876          45.000  
G23  18539353.553    97424961.4242       2001.995          45.000  
G32  22718357.751   119385762.8772       2705.891          38.000  
G22  22585699.555   118688646.579         553.437          29.000  
G10  21479291.516   112874438.7502       2833.496          40.000  
> 2024 07 04 09 18 03.9410000  0 10                     
G24  17752718.294    93291170.3742       1438.702          46.000  
G27  22307029.018   117224221.4522       -797.612          37.000  
G05  21007770.858   110396552.6062      -3089.233          39.000  
G13  20389156.416   107145740.4972      -3367.355          41.000  
G15  17919482.329    94167515.8352      -2070.941          46.000  
G18  18088815.839    95057369.630       -1285.571          45.000  
G23  18539315.494    97424761.1982       2002.249          45.000  
G32  22718306.290   119385492.2522       2706.156          38.000  
G22  22585689.992   118688591.266         553.147          29.000  
G10  21479237.560   112874155.3852       2833.548          40.000  
> 2024 07 04 09 18 04.0410000  0 10                     
G24  17752691.054    93291026.5322       1438.277          46.000  
G27  22307044.165   117224301.2492       -798.226          37.000  
G05  21007829.665   110396861.5922      -3090.118          39.000  
G13  20389220.545   107146077.2882      -3368.064          41.000  
G15  17919521.767    94167722.9672      -2071.421          46.000  
G18  18088840.357    95057498.229       -1286.121          45.000  
G23  18539277.435    97424561.0132       2001.670          45.000  
G32  22718254.864   119385221.6442       2706.104          38.000  
G22  22585679.871   118688535.970         552.882          29.000  
G10  21479183.761   112873872.0612       2833.145          40.000  
> 2024 07 04 09 18 04.1410000  0 10                     
G24  17752663.727    93290882.7012       1438.224          46.000  
G27  22307059.277   117224381.0232       -797.845          37.000  
G05  21007888.472   110397170.5382      -3089.404          39.000  
G13  20389284.640   107146414.0682      -3368.011          41.000  
G15  17919561.134    94167930.0982      -2071.351          46.000  
G18  18088864.857    95057626.839       -1286.145          45.000  
G23  18539239.324    97424360.8272       2001.751          45.000  
G32  22718203.491   119384951.0412       2705.894          38.000  
G22  22585669.506   118688480.695         552.631          29.000  
G10  21479129.805   112873588.7332       2833.162          40.000  
> 2024 07 04 09 18 04.2410000  0 10                     
G24  17752636.295    93290738.8912       1437.905          46.000  
G27  22307074.476   117224460.8372       -798.303          37.000  
G05  21007947.297   110397479.5442      -3090.070          39.000  
G13  20389348.735   107146750.8802      -3368.331          41.000  
G15  17919600.624    94168137.2602      -2071.813          46.000  
G18  18088889.252    95057755.475       -1286.517          45.000  
G23  18539201.213    97424160.6562       2001.527          45.000  
G32  22718152.047   119384680.4702       2705.563          38.000  
G22  22585658.983   118688425.451         552.324          29.000  
G10  21479075.884   112873305.3982       2833.417          40.000  
> 2024 07 04 09 18 04.3410000  0 10                     
G24  17752608.898    93290595.1072       1437.773          46.000  
G27  22307089.675   117224540.6912       -798.654          37.000  
G05  21008006.034   110397788.5592      -3090.314          39.000  
G13  20389412.882   107147087.6952      -3368.233          41.000  
G15  17919639.992    94168344.4302      -2071.772          47.000  
G18  18088913.683    95057884.133       -1286.725          45.000  
G23  18539163.119    97423960.5132       2001.336          45.000  
G32  22718100.569   119384409.9182       2705.521          38.000  
G22  22585648.600   118688370.196         552.393          29.000  
G10  21479021.963   112873022.1292       2832.665          40.000  
> 2024 07 04 09 18 04.4410000  0 10                     
G24  17752581.571    93290451.3352       1437.694          46.000  
G27  22307104.839   117224620.5382       -798.654          37.000  
G05  21008064.842   110398097.5672      -3090.057          39.000  
G13  20389476.959   107147424.5082      -3368.065          41.000  
G15  17919679.447    94168551.6102      -2071.827          47.000  
G18  18088938.165    95058012.786       -1286.554          45.000  
G23  18539124.973    97423760.3642       2001.484          45.000  
G32  22718049.091   119384139.3512       2705.766          38.000  
G22  22585638.427   118688314.962         552.315          29.000  
G10  21478967.989   112872738.8052       2833.292          40.000  
> 2024 07 04 09 18 04.5410000  0 10                     
G24  17752554.192    93290307.5762       1437.454          46.000  
G27  22307120.039   117224700.3902       -798.705          37.000  
G05  21008123.666   110398406.5902      -3090.375          39.000  
G13  20389541.019   107147761.3552      -3368.693          40.000  
G15  17919718.884    94168758.8102      -2072.147          46.000  
G18  18088962.613    95058141.485       -1287.103          45.000  
G23  18539086.949    97423560.2422       2001.106          45.000  
G32  22717997.700   119383868.8402       2704.966          38.000  
G22  22585628.079   118688259.746         552.200          29.000  
G10  21478914.068   112872455.5382       2832.646          40.000  
> 2024 07 04 09 18 04.6410000  0 10                     
G24  17752526.847    93290163.8552       1437.094          46.000  
G27  22307135.255   117224780.2882       -799.145          37.000  
G05  21008182.526   110398715.6572      -3090.839          39.000  
G13  20389605.166   107148098.2102      -3368.611          40.000  
G15  17919758.357    94168966.0342      -2072.323          46.000  
G18  18088987.061    95058270.194       -1287.152          45.000  
G23  18539048.872    97423360.1362       2000.969          45.000  
G32  22717946.292   119383598.2992       2705.350          38.000  
G22  22585617.836   118688204.557         551.837          29.000  
G10  21478860.025   112872172.2772       2832.466          40.000  
> 2024 07 04 09 18 04.7410000  0 10                     
G24  17752499.573    93290020.1322       1437.083          46.000  
G27  22307150.402   117224860.2012       -799.096          37.000  
G05  21008241.333   110399024.6972      -3090.472          39.000  
G13  20389669.383   107148435.0662      -3368.598          40.000  
G15  17919797.794    94169173.2562      -2072.353          46.000  
G18  18089011.509    95058398.915       -1287.366          45.000  
G23  18539010.813    97423160.0302       2000.964          45.000  
G32  22717894.936   119383327.7842       2705.072          38.000  
G22  22585607.296   118688149.362         551.735          29.000  
G10  21478806.156   112871889.0222       2832.478          40.000  
> 2024 07 04 09 18 04.8410000  0 10                     
G24  17752472.298    93289876.4472       1436.734          46.000  
G27  22307165.619   117224940.1032       -799.089          37.000  
G05  21008300.123   110399333.8002      -3091.180          39.000  
G13  20389733.477   107148771.9482      -3368.946          40.000  
G15  17919837.284    94169380.5062      -2072.635          46.000  
G18  18089036.044    95058527.669       -1287.604          45.000  
G23  18538972.720    97422959.9582       2000.678          45.000  
G32  22717843.388   119383057.2772       2704.970          38.000  
G22  22585596.930   118688094.199         551.566          29.000  
G10  21478752.269   112871605.7772       2832.433          40.000  
> 2024 07 04 09 18 04.9410000  0 10                     
G24  17752444.954    93289732.7572       1436.803          46.000  
G27  22307180.870   117225020.0462       -799.639          37.000  
G05  21008358.913   110399642.8592      -3090.753          39.000  
G13  20389797.467   107149108.8332      -3368.980          40.000  
G15  17919876.687    94169587.7572      -2072.634          46.000  
G18  18089060.579    95058656.421       -1287.549          45.000  
G23  18538934.643    97422759.8812       2000.749          45.000  
G32  22717791.875   119382786.7952       2704.651          38.000  
G22  22585587.280   118688039.073         551.317          29.000  
G10  21478698.366   112871322.5452       2832.128          40.000  
> 2024 07 04 09 18 05.0410000  0 10                     
G24  17752417.627    93289589.0962       1436.577          46.000  
G27  22307196.087   117225099.9912       -799.480          37.000  
G05  21008417.702   110399951.9572      -3090.930          39.000  
G13  20389861.579   107149445.7382      -3368.987          40.000  
G15  17919916.089    94169795.0272      -2072.719          46.000  
G18  18089085.026    95058785.196       -1287.830          45.000  
G23  18538896.602    97422559.8302       2000.443          45.000  
G32  22717740.397   119382516.3182       2704.746          38.000  
G22  22585576.496   118687983.938         551.244          29.000  
G10  21478644.497   112871039.3142       2832.259          40.000  
> 2024 07 04 09 18 05.1410000  0 10                     
G24  17752390.265    93289445.4482       1436.356          46.000  
G27  22307211.216   117225179.9522       -799.775          37.000  
G05  21008476.510   110400261.0772      -3091.364          39.000  
G13  20389925.726   107149782.6322      -3369.046          41.000  
G15  17919955.527    94170002.3112      -2072.902          46.000  
G18  18089109.579    95058913.989       -1288.037          45.000  
G23  18538858.543    97422359.7792       2000.483          45.000  
G32  22717688.954   119382245.8562       2704.471          38.000  
G22  22585565.659   118687928.811         551.140          29.000  
G10  21478590.558   112870756.0992       2832.023          40.000  
> 2024 07 04 09 18 05.2410000  0 10                     
G24  17752362.885    93289301.8492       1435.755          46.000  
G27  22307226.380   117225259.9872       -800.785          37.000  
G05  21008535.352   110400570.2112      -3091.388          39.000  
G13  20389989.769   107150119.5902      -3369.881          41.000  
G15  17919994.947    94170209.6332      -2073.468          46.000  
G18  18089134.184    95059042.831       -1288.739          45.000  
G23  18538820.501    97422159.7722       1999.877          45.000  
G32  22717637.545   119381975.4052       2704.424          38.000  
G22  22585555.085   118687873.712         550.912          29.000  
G10  21478536.620   112870472.9172       2831.789          40.000  
> 2024 07 04 09 18 05.3410000  0 10                     
G24  17752335.541    93289158.2592       1435.789          46.000  
G27  22307241.562   117225340.0062       -800.115          37.000  
G05  21008594.089   110400879.3952      -3091.931          39.000  
G13  20390053.968   107150456.5372      -3369.506          41.000  
G15  17920034.437    94170416.9712      -2073.439          46.000  
G18  18089158.736    95059171.684       -1288.605          45.000  
G23  18538782.442    97421959.7852       1999.823          45.000  
G32  22717586.154   119381704.9962       2704.286          38.000  
G22  22585544.388   118687818.672         550.278          29.000  
G10  21478482.768   112870189.7392       2832.032          40.000  
> 2024 07 04 09 18 05.4410000  0 10                     
G24  17752308.161    93289014.6622       1435.844          46.000  
G27  22307256.726   117225420.0042       -799.871          37.000  
G05  21008652.879   110401188.5222      -3091.266          39.000  
G13  20390118.028   107150793.4902      -3369.595          41.000  
G15  17920073.926    94170624.2972      -2073.390          46.000  
G18  18089183.254    95059300.533       -1288.593          45.000  
G23  18538744.401    97421759.7702       2000.074          45.000  
G32  22717534.694   119381434.5702       2704.098          38.000  
G22  22585533.726   118687763.628         550.181          29.000  
G10  21478428.882   112869906.5652       2831.864          40.000  
> 2024 07 04 09 18 05.5410000  0 10                     
G24  17752280.834    93288871.1102       1435.428          46.000  
G27  22307271.995   117225500.0802       -800.782          37.000  
G05  21008711.756   110401497.7212      -3092.126          39.000  
G13  20390182.192   107151130.4612      -3369.754          41.000  
G15  17920113.381    94170831.6392      -2073.407          46.000  
G18  18089207.876    95059429.406       -1288.885          45.000  
G23  18538706.290    97421559.7962       1999.684          45.000  
G32  22717483.285   119381164.1702       2703.734          38.000  
G22  22585523.221   118687708.557         550.377          29.000  
G10  21478374.996   112869623.4242       2831.633          40.000  
> 2024 07 04 09 18 05.6410000  0 10                     
G24  17752253.525    93288727.5552       1435.491          46.000  
G27  22307287.107   117225580.1262       -800.678          37.000  
G05  21008770.459   110401806.8802      -3091.522          39.000  
G13  20390246.304   107151467.4352      -3369.771          41.000  
G15  17920152.749    94171039.0102      -2073.832          46.000  
G18  18089232.463    95059558.306       -1289.185          45.000  
G23  18538668.161    97421359.8262       1999.663          45.000  
G32  22717431.825   119380893.7682       2703.881          38.000  
G22  22585512.454   118687653.520         550.260          29.000  
G10  21478321.040   112869340.2422       2831.689          40.000  
> 2024 07 04 09 18 05.7410000  0 10                     
G24  17752226.215    93288584.0362       1435.086          46.000  
G27  22307302.358   117225660.1822       -800.455          37.000  
G05  21008829.231   110402116.0832      -3092.072          39.000  
G13  20390310.364   107151804.4172      -3369.832          41.000  
G15  17920192.152    94171246.3872      -2073.879          46.000  
G18  18089257.033    95059687.207       -1289.099          45.000  
G23  18538630.102    97421159.8712       1999.519          45.000  
G32  22717380.364   119380623.4142       2703.351          38.000  
G22  22585502.228   118687598.513         549.924          29.000  
G10  21478267.188   112869057.1252       2831.143          40.000  
> 2024 07 04 09 18 05.8410000  0 10                     
G24  17752198.940    93288440.5212       1435.057          46.000  
G27  22307317.593   117225740.2972       -801.163          37.000  
G05  21008888.038   110402425.3012      -3092.224          39.000  
G13  20390374.528   107152141.4322      -3370.284          41.000  
G15  17920231.659    94171453.7802      -2074.001          46.000  
G18  18089281.655    95059816.140       -1289.459          45.000  
G23  18538592.130    97420959.9342       1999.321          45.000  
G32  22717328.886   119380353.0012       2704.146          38.000  
G22  22585492.281   118687543.503         549.925          29.000  
G10  21478213.337   112868773.9882       2831.311          40.000  
> 2024 07 04 09 18 05.9410000  0 10                     
G24  17752171.631    93288297.0312       1434.818          46.000  
G27  22307332.861   117225820.4092       -801.139          37.000  
G05  21008946.880   110402734.5252      -3092.248          39.000  
G13  20390438.640   107152478.4482      -3370.298          41.000  
G15  17920271.131    94171661.1892      -2074.159          46.000  
G18  18089306.121    95059945.092       -1289.673          45.000  
G23  18538554.054    97420760.0132       1999.079          45.000  
G32  22717277.425   119380082.6702       2703.097          38.000  
G22  22585481.724   118687488.513         549.796          29.000  
G10  21478159.486   112868490.8832       2830.916          40.000  
> 2024 07 04 09 18 06.0410000  0 10                     
G24  17752144.304    93288153.5312       1434.855          46.000  
G27  22307348.113   117225900.5262       -801.183          37.000  
G05  21009005.705   110403043.7412      -3092.261          39.000  
G13  20390502.735   107152815.4522      -3370.112          41.000  
G15  17920310.674    94171868.5882      -2073.987          46.000  
G18  18089330.673    95060074.030       -1289.423          45.000  
G23  18538515.995    97420560.0732       1999.347          45.000  
G32  22717225.999   119379812.2972       2703.827          38.000  
G22  22585470.852   118687433.554         549.493          29.000  
G10  21478105.547   112868207.7662       2831.127          40.000  
> 2024 07 04 09 18 06.1410000  0 10                     
G24  17752117.012    93288009.5621       1434.536          46.000  
G27  22307363.399   117225980.1501       -801.223          37.000  
G05  21009064.565   110403352.4791      -3092.261          39.000  
G13  20390566.830   107153152.474       -3370.424          41.000  
G15  17920350.163    94172075.5131      -2074.350          46.000  
G18  18089355.226    95060203.003       -1289.825          45.000  
G23  18538477.936    97420359.6661       1999.008          45.000  
G32  22717174.643   119379541.4351       2703.622          38.000  
G22  22585460.784   118687378.580         549.599          29.000  
G10  21478051.643   112867924.645        2831.237          40.000  
> 2024 07 04 09 18 06.2410000  0 10                     
G24  17752089.719    93287866.109        1434.422          46.000  
G27  22307378.616   117226060.299        -801.565          37.000  
G05  21009123.319   110403661.721       -3092.462          39.000  
G13  20390630.907   107153489.519       -3370.694          41.000  
G15  17920389.566    94172282.950       -2074.360          46.000  
G18  18089379.778    95060331.986       -1289.899          45.000  
G23  18538439.877    97420159.763        1998.899          45.000  
G32  22717123.200   119379271.131        2703.097          38.000  
G22  22585449.877   118687323.613         549.652          29.000  
G10  21477997.739   112867641.546        2830.938          40.000  
> 2024 07 04 09 18 06.3410000  0 10                     
G24  17752062.462    93287722.647        1434.539          46.000  
G27  22307393.833   117226140.444        -801.446          37.000  
G05  21009182.127   110403970.970       -3092.627          39.000  
G13  20390694.949   107153826.546       -3370.406          40.000  
G15  17920429.003    94172490.376       -2074.317          46.000  
G18  18089404.348    95060460.966       -1289.862          45.000  
G23  18538401.766    97419959.839        1999.318          45.000  
G32  22717071.792   119379000.753        2703.836          38.000  
G22  22585438.936   118687268.672         549.484          29.000  
G10  21477943.871   112867358.439        2831.197          40.000  
> 2024 07 04 09 18 06.4410000  0 10                     
G24  17752035.083    93287579.194        1434.564          46.000  
G27  22307409.049   117226220.581        -801.351          37.000  
G05  21009240.986   110404280.206       -3092.328          39.000  
G13  20390759.096   107154163.561       -3370.159          41.000  
G15  17920468.371    94172697.802       -2074.261          46.000  
G18  18089428.935    95060589.946       -1289.789          45.000  
G23  18538363.777    97419759.941        1998.994          45.000  
G32  22717020.331   119378730.432        2703.123          38.000  
G22  22585427.663   118687213.695         549.762          29.000  
G10  21477889.984   112867075.323        2831.059          40.000  
> 2024 07 04 09 18 06.5410000  0 10                     
G24  17752007.773    93287435.771        1434.121          46.000  
G27  22307424.353   117226300.763        -801.859          37.000  
G05  21009299.828   110404589.467       -3092.877          39.000  
G13  20390823.104   107154500.602       -3370.514          41.000  
G15  17920507.861    94172905.259       -2074.667          46.000  
G18  18089453.470    95060718.967       -1290.320          45.000  
G23  18538325.753    97419560.051        1998.776          45.000  
G32  22716968.923   119378460.098        2703.183          38.000  
G22  22585415.972   118687158.782         549.304          29.000  
G10  21477836.046   112866792.240        2830.671          40.000  
> 2024 07 04 09 18 06.6410000  0 10                     
G24  17751980.446    93287292.381        1433.712          46.000  
G27  22307439.639   117226380.964        -802.074          37.000  
G05  21009358.775   110404898.763       -3092.896          39.000  
G13  20390887.251   107154837.674       -3370.856          41.000  
G15  17920547.333    94173112.748       -2075.003          46.000  
G18  18089478.058    95060848.013       -1290.594          45.000  
G23  18538287.711    97419360.199        1998.374          45.000  
G32  22716917.602   119378189.811        2702.907          38.000  
G22  22585404.908   118687103.900         548.878          29.000  
G10  21477782.142   112866509.183        2830.413          40.000  
> 2024 07 04 09 18 06.7410000  0 10                     
G24  17751953.084    93287148.989        1433.781          46.000  
G27  22307454.943   117226461.171        -802.156          37.000  
G05  21009417.582   110405208.056       -3092.975          39.000  
G13  20390951.398   107155174.751       -3370.789          41.000  
G15  17920586.788    94173320.227       -2074.582          46.000  
G18  18089502.575    95060977.072       -1290.686          45.000  
G23  18538249.722    97419160.349        1998.450          45.000  
G32  22716866.228   119377919.502        2703.131          38.000  
G22  22585394.333   118687048.990         548.977          29.000  
G10  21477728.291   112866226.122        2830.536          40.000  
> 2024 07 04 09 18 06.8410000  0 10                     
G24  17751925.844    93287005.626        1433.555          46.000  
G27  22307470.230   117226541.401        -802.406          38.000  
G05  21009476.390   110405517.362       -3093.134          39.000  
G13  20391015.684   107155511.835       -3371.002          41.000  
G15  17920626.383    94173527.724       -2075.008          46.000  
G18  18089527.110    95061106.137       -1290.668          45.000  
G23  18538211.768    97418960.496        1998.468          45.000  
G32  22716814.837   119377649.227        2702.757          38.000  
G22  22585384.142   118686994.129         548.661          29.000  
G10  21477674.439   112865943.056        2830.614          40.000  
> 2024 07 04 09 18 06.9410000  0 10                     
G24  17751898.587    93286862.289        1433.261          46.000  
G27  22307485.568   117226621.654        -802.578          38.000  
G05  21009535.232   110405826.692       -3093.493          39.000  
G13  20391079.884   107155848.946       -3371.220          41.000  
G15  17920665.751    94173735.259       -2075.417          46.000  
G18  18089551.663    95061235.248       -1291.180          45.000  
G23  18538173.761    97418760.692        1997.859          45.000  
G32  22716763.446   119377378.979        2702.283          38.000  
G22  22585373.498   118686939.272         548.522          29.000  
G10  21477620.466   112865660.029        2830.103          40.000  
> 2024 07 04 09 18 07.0410000  0 10                     
G24  17751871.295    93286718.982        1432.937          46.000  
G27  22307500.855   117226701.936        -802.918          38.000  
G05  21009594.109   110406136.058       -3093.902          39.000  
G13  20391144.031   107156186.076       -3371.435          41.000  
G15  17920705.206    94173942.798       -2075.478          46.000  
G18  18089576.198    95061364.373       -1291.357          45.000  
G23  18538135.737    97418560.892        1997.908          45.000  
G32  22716712.038   119377108.728        2702.598          38.000  
G22  22585363.551   118686884.451         548.240          29.000  
G10  21477566.527   112865377.042        2829.639          40.000  
> 2024 07 04 09 18 07.1410000  0 10                     
G24  17751844.003    93286575.702        1432.638          46.000  
G27  22307516.106   117226782.261        -803.375          38.000  
G05  21009652.916   110406445.426       -3093.750          39.000  
G13  20391208.178   107156523.229       -3371.674          41.000  
G15  17920744.660    94174150.375       -2075.895          46.000  
G18  18089600.802    95061493.531       -1291.736          45.000  
G23  18538097.766    97418361.127        1997.481          45.000  
G32  22716660.630   119376838.520        2701.885          38.000  
G22  22585353.378   118686829.650         548.072          29.000  
G10  21477512.606   112865094.029        2830.140          40.000  
> 2024 07 04 09 18 07.2410000  0 10                     
G24  17751816.693    93286432.449        1432.388          46.000  
G27  22307531.393   117226862.584        -803.355          38.000  
G05  21009711.776   110406754.831       -3093.945          39.000  
G13  20391272.290   107156860.415       -3372.073          41.000  
G15  17920784.098    94174357.980       -2076.107          46.000  
G18  18089625.372    95061622.724       -1292.078          45.000  
G23  18538059.724    97418161.389        1997.309          45.000  
G32  22716609.291   119376568.351        2701.669          38.000  
G22  22585343.065   118686774.868         547.813          29.000  
G10  21477458.842   112864811.069        2829.585          40.000  
> 2024 07 04 09 18 07.3410000  0 10                     
G24  17751789.506    93286289.200        1432.551          46.000  
G27  22307546.679   117226942.937        -803.729          38.000  
G05  21009770.722   110407064.238       -3094.067          39.000  
G13  20391336.419   107157197.575       -3371.515          41.000  
G15  17920823.640    94174565.575       -2075.890          46.000  
G18  18089649.960    95061751.905       -1291.730          45.000  
G23  18538021.718    97417961.634        1997.615          45.000  
G32  22716557.900   119376298.147        2702.041          38.000  
G22  22585332.298   118686720.125         547.521          29.000  
G10  21477404.938   112864528.084        2829.991          40.000  
> 2024 07 04 09 18 07.4410000  0 10                     
G24  17751762.161    93286145.985        1431.978          46.000  
G27  22307561.983   117227023.294        -803.583          38.000  
G05  21009829.617   110407373.660       -3094.348          39.000  
G13  20391400.514   107157534.778       -3372.051          41.000  
G15  17920863.287    94174773.208       -2076.476          46.000  
G18  18089674.582    95061881.125       -1292.316          45.000  
G23  18537983.728    97417761.922        1997.011          45.000  
G32  22716506.457   119376027.974        2701.758          38.000  
G22  22585321.880   118686665.394         547.300          29.000  
G10  21477351.191   112864245.177        2829.185          40.000  
> 2024 07 04 09 18 07.5410000  0 10                     
G24  17751735.009    93286002.803        1431.699          46.000  
G27  22307577.322   117227103.695        -804.143          38.000  
G05  21009888.529   110407683.129       -3094.806          39.000  
G13  20391464.678   107157872.018       -3372.466          41.000  
G15  17920902.899    94174980.870       -2076.736          46.000  
G18  18089699.274    95062010.394       -1292.816          45.000  
G23  18537945.652    97417562.239        1996.687          45.000  
G32  22716455.101   119375757.851        2701.061          38.000  
G22  22585310.851   118686610.647         547.366          29.000  
G10  21477297.323   112863962.232        2829.268          40.000  
> 2024 07 04 09 18 07.6410000  0 10                     
G24  17751707.682    93285859.649        1431.362          46.000  
G27  22307592.608   117227184.122        -804.297          38.000  
G05  21009947.371   110407992.598       -3094.684          39.000  
G13  20391528.843   107158209.262       -3372.607          41.000  
G15  17920942.337    94175188.552       -2077.012          46.000  
G18  18089723.844    95062139.673       -1292.938          45.000  
G23  18537907.628    97417362.567        1996.601          45.000  
G32  22716403.728   119375487.748        2700.593          38.000  
G22  22585300.957   118686555.967         546.804          29.000  
G10  21477243.524   112863679.346        2828.694          40.000  
> 2024 07 04 09 18 07.7410000  0 10                     
G24  17751680.407    93285716.498        1431.414          42.000  
G27  22307607.964   117227264.562        -804.304          36.000  
G05  21010006.318   110408302.105       -3095.184          36.000  
G13  20391593.007   107158546.514       -3372.781          38.000  
G15  17920981.861    94175396.232       -2076.831          43.000  
G18  18089748.396    95062268.966       -1293.030          42.000  
G23  18537869.621    97417162.907        1996.525          42.000  
G32  22716352.284   119375217.621        2700.921          34.000  
G22  22585290.435   118686501.370         545.868          32.000  
G10  21477189.707   112863396.453        2828.710          37.000  
> 2024 07 04 09 18 07.8410000  0 10                     
G24  17751653.150    93285573.341        1431.549          42.000  
G27  22307623.268   117227344.986        -804.065          36.000  
G05  21010065.212   110408611.559       -3094.482          36.000  
G13  20391657.189   107158883.734       -3372.125          38.000  
G15  17921021.403    94175603.915       -2076.912          43.000  
G18  18089773.019    95062398.248       -1292.889          42.000  
G23  18537831.615    97416963.236        1996.616          42.000  
G32  22716300.946   119374947.492        2701.227          34.000  
G22  22585279.807   118686446.637         546.971          27.000  
G10  21477135.873   112863113.527        2829.451          37.000  
> 2024 07 04 09 18 07.9410000  0 10                     
G24  17751625.875    93285430.225        1431.063          42.000  
G27  22307638.589   117227425.469        -804.864          36.000  
G05  21010124.194   110408921.070       -3095.373          36.000  
G13  20391721.336   107159221.032       -3372.975          38.000  
G15  17921060.841    94175811.620       -2077.207          43.000  
G18  18089797.641    95062527.571       -1293.420          42.000  
G23  18537793.591    97416763.588        1996.508          42.000  
G32  22716249.485   119374677.399        2700.809          34.000  
G22  22585268.953   118686391.990         546.526          26.000  
G10  21477082.057   112862830.657        2828.687          37.000  
> 2024 07 04 09 18 08.0410000  0 10                     
G24  17751598.688    93285287.117        1431.084          43.000  
G27  22307653.876   117227505.938        -804.847          36.000  
G05  21010183.141   110409230.573       -3094.995          36.000  
G13  20391785.553   107159558.292       -3372.537          38.000  
G15  17921100.401    94176019.348       -2077.290          43.000  
G18  18089822.316    95062656.910       -1293.439          43.000  
G23  18537755.619    97416563.970        1996.076          42.000  
G32  22716198.042   119374407.335        2700.387          35.000  
G22  22585258.379   118686337.405         545.894          26.000  
G10  21477028.223   112862547.796        2828.615          37.000  
> 2024 07 04 09 18 08.1410000  0 10                     
G24  17751571.448    93285144.035        1430.635          43.000  
G27  22307669.197   117227586.430        -805.078          36.000  
G05  21010242.053   110409540.093       -3095.270          36.000  
G13  20391849.787   107159895.589       -3373.122          38.000  
G15  17921139.838    94176227.071       -2077.222          43.000  
G18  18089846.955    95062786.248       -1293.420          43.000  
G23  18537717.595    97416364.340        1996.267          42.000  
G32  22716146.599   119374137.218        2701.227          35.000  
G22  22585247.525   118686282.714         546.575          26.000  
G10  21476974.389   112862264.926        2828.652          37.000  
> 2024 07 04 09 18 08.2410000  0 10                     
G24  17751544.208    93285000.972        1430.453          43.000  
G27  22307684.553   117227666.946        -805.388          36.000  
G05  21010300.982   110409849.650       -3095.508          36.000  
G13  20391914.021   107160232.893       -3373.098          38.000  
G15  17921179.380    94176434.836       -2077.669          44.000  
G18  18089871.595    95062915.633       -1293.903          43.000  
G23  18537679.624    97416164.756        1995.779          43.000  
G32  22716095.225   119373867.183        2700.046          35.000  
G22  22585237.246   118686228.156         545.652          26.000  
G10  21476920.520   112861982.091        2828.340          37.000  
> 2024 07 04 09 18 08.3410000  0 10                     
G24  17751516.986    93284857.930        1430.339          43.000  
G27  22307699.962   117227747.475        -805.205          36.000  
G05  21010359.964   110410159.189       -3095.490          36.000  
G13  20391978.186   107160570.202       -3373.109          38.000  
G15  17921218.853    94176642.597       -2077.767          44.000  
G18  18089896.235    95063045.022       -1293.976          43.000  
G23  18537641.617    97415965.159        1995.873          43.000  
G32  22716043.817   119373597.157        2700.033          35.000  
G22  22585226.637   118686173.549         545.844          26.000  
G10  21476866.686   112861699.253        2828.438          37.000  
> 2024 07 04 09 18 08.4410000  0 10                     
G24  17751489.764    93284714.908        1430.001          43.000  
G27  22307715.283   117227828.025        -805.774          36.000  
G05  21010418.928   110410468.783       -3095.929          36.000  
G13  20392042.333   107160907.555       -3373.885          38.000  
G15  17921258.377    94176850.390       -2078.117          44.000  
G18  18089920.857    95063174.442       -1294.385          43.000  
G23  18537603.645    97415765.600        1995.438          43.000  
G32  22715992.408   119373327.104        2700.223          35.000  
G22  22585215.783   118686118.987         545.514          26.000  
G10  21476812.800   112861416.445        2827.639          37.000  
> 2024 07 04 09 18 08.5410000  0 10                     
G24  17751462.576    93284571.901        1429.892          43.000  
G27  22307730.604   117227908.605        -805.877          36.000  
G05  21010477.840   110410778.382       -3096.191          36.000  
G13  20392106.480   107161244.896       -3373.568          38.000  
G15  17921297.937    94177058.194       -2078.183          44.000  
G18  18089945.479    95063303.871       -1294.446          43.000  
G23  18537565.656    97415566.040        1995.489          43.000  
G32  22715941.087   119373057.107        2699.671          35.000  
G22  22585205.435   118686064.449         545.334          26.000  
G10  21476758.983   112861133.631        2827.893          37.000  
> 2024 07 04 09 18 08.6410000  0 10                     
G24  17751435.354    93284428.915        1429.802          43.000  
G27  22307745.873   117227989.187        -805.791          35.000  
G05  21010536.682   110411087.985       -3096.222          36.000  
G13  20392170.644   107161582.241       -3373.475          38.000  
G15  17921337.497    94177266.006       -2078.206          44.000  
G18  18089970.154    95063433.335       -1294.696          43.000  
G23  18537527.667    97415366.505        1995.331          43.000  
G32  22715889.662   119372787.083        2700.182          35.000  
G22  22585194.965   118686009.916         545.244          26.000  
G10  21476705.184   112860850.835        2828.070          37.000  
> 2024 07 04 09 18 08.7410000  0 10                     
G24  17751408.149    93284285.948        1429.594          43.000  
G27  22307761.160   117228069.802        -806.305          35.000  
G05  21010595.594   110411397.583       -3095.984          36.000  
G13  20392234.896   107161919.607       -3373.602          38.000  
G15  17921377.074    94177473.836       -2078.315          44.000  
G18  18089994.776    95063562.797       -1294.635          43.000  
G23  18537489.660    97415166.974        1995.323          43.000  
G32  22715838.288   119372517.082        2700.120          35.000  
G22  22585184.599   118685955.372         545.412          26.000  
G10  21476651.316   112860568.026        2828.509          37.000  
> 2024 07 04 09 18 08.8410000  0 10                     
G24  17751380.961    93284143.016        1429.165          44.000  
G27  22307776.586   117228150.438        -806.500          36.000  
G05  21010654.576   110411707.231       -3096.692          37.000  
G13  20392299.095   107162257.023       -3374.238          38.000  
G15  17921416.564    94177681.694       -2078.628          45.000  
G18  18090019.363    95063692.300       -1295.087          44.000  
G23  18537451.759    97414967.483        1994.790          44.000  
G32  22715786.985   119372247.131        2699.635          38.000  
G22  22585173.902   118685900.902         544.806          26.000  
G10  21476597.517   112860285.282        2827.395          38.000  
> 2024 07 04 09 18 08.9410000  0 10                     
G24  17751353.687    93284000.082        1429.240          46.000  
G27  22307791.872   117228231.052        -806.212          38.000  
G05  21010713.540   110412016.887       -3096.606          39.000  
G13  20392363.277   107162594.412       -3373.994          40.000  
G15  17921456.141    94177889.551       -2078.589          46.000  
G18  18090043.898    95063821.807       -1295.172          45.000  
G23  18537413.717    97414767.978        1995.063          45.000  
G32  22715735.698   119371977.151        2699.556          38.000  
G22  22585164.235   118685846.438         544.479          27.000  
G10  21476543.770   112860002.532        2827.346          39.000  
> 2024 07 04 09 18 09.0410000  0 10                     
G24  17751326.534    93283857.185        1428.984          46.000  
G27  22307807.228   117228311.747        -806.977          38.000  
G05  21010772.487   110412326.548       -3096.612          39.000  
G13  20392427.546   107162931.844       -3374.483          41.000  
G15  17921495.718    94178097.454       -2079.105          47.000  
G18  18090068.538    95063951.348       -1295.496          45.000  
G23  18537375.745    97414568.512        1994.660          45.000  
G32  22715684.342   119371707.244        2698.921          38.000  
G22  22585153.904   118685791.966         544.652          27.000  
G10  21476489.901   112859719.783        2827.373          39.000  
> 2024 07 04 09 18 09.1410000  0 10                     
G24  17751299.329    93283714.324        1428.469          46.000  
G27  22307822.549   117228392.430        -806.910          38.000  
G05  21010831.451   110412636.249       -3097.150          39.000  
G13  20392491.816   107163269.292       -3374.633          41.000  
G15  17921535.312    94178305.359       -2079.047          47.000  
G18  18090093.178    95064080.923       -1295.740          45.000  
G23  18537337.756    97414369.074        1994.257          45.000  
G32  22715632.951   119371437.288        2700.007          38.000  
G22  22585142.736   118685737.525         544.428          27.000  
G10  21476436.172   112859437.079        2827.226          40.000  
> 2024 07 04 09 18 09.2410000  0 10                     
G24  17751272.142    93283571.461        1428.545          46.000  
G27  22307837.923   117228473.148        -807.323          38.000  
G05  21010890.416   110412945.944       -3097.021          39.000  
G13  20392556.085   107163606.728       -3374.433          41.000  
G15  17921574.889    94178513.288       -2079.360          47.000  
G18  18090117.765    95064210.493       -1295.941          45.000  
G23  18537299.750    97414169.630        1994.352          45.000  
G32  22715581.578   119371167.407        2698.645          38.000  
G22  22585132.650   118685683.114         544.094          27.000  
G10  21476382.425   112859154.388        2826.782          40.000  
> 2024 07 04 09 18 09.3410000  0 10                     
G24  17751244.920    93283428.637        1427.948          46.000  
G27  22307853.367   117228553.885        -807.705          38.000  
G05  21010949.432   110413255.692       -3097.583          39.000  
G13  20392620.284   107163944.222       -3375.038          41.000  
G15  17921614.467    94178721.241       -2079.728          47.000  
G18  18090142.440    95064340.119       -1296.478          45.000  
G23  18537261.848    97413970.203        1994.293          45.000  
G32  22715530.135   119370897.524        2698.857          38.000  
G22  22585122.180   118685628.739         543.898          27.000  
G10  21476328.661   112858871.692        2826.617          40.000  
> 2024 07 04 09 18 09.4410000  0 10                     
G24  17751217.767    93283285.839        1427.897          46.000  
G27  22307868.688   117228634.645        -807.503          38.000  
G05  21011008.414   110413565.417       -3097.253          39.000  
G13  20392684.553   107164281.711       -3374.921          41.000  
G15  17921654.044    94178929.204       -2079.707          47.000  
G18  18090167.132    95064469.747       -1296.356          45.000  
G23  18537223.981    97413770.833        1993.684          45.000  
G32  22715478.692   119370627.673        2698.542          38.000  
G22  22585111.256   118685574.363         543.751          28.000  
G10  21476274.792   112858589.019        2826.703          40.000  
> 2024 07 04 09 18 09.5410000  0 10                     
G24  17751190.580    93283143.053        1427.645          46.000  
G27  22307884.114   117228715.444        -808.279          38.000  
G05  21011067.378   110413875.190       -3097.839          39.000  
G13  20392748.665   107164619.211       -3375.140          41.000  
G15  17921693.499    94179137.199       -2080.175          47.000  
G18  18090191.894    95064599.394       -1296.533          45.000  
G23  18537186.062    97413571.461        1993.492          45.000  
G32  22715427.283   119370357.802        2698.674          38.000  
G22  22585100.472   118685520.024         543.270          28.000  
G10  21476220.888   112858306.380        2826.299          40.000  
> 2024 07 04 09 18 09.6410000  0 10                     
G24  17751163.462    93283000.302        1427.334          46.000  
G27  22307899.575   117228796.226        -807.803          38.000  
G05  21011126.290   110414184.971       -3097.815          39.000  
G13  20392812.865   107164956.751       -3375.400          41.000  
G15  17921732.988    94179345.207       -2080.190          47.000  
G18  18090216.498    95064729.084       -1296.973          45.000  
G23  18537148.160    97413372.092        1993.672          45.000  
G32  22715375.892   119370087.982        2698.274          38.000  
G22  22585090.211   118685465.710         542.971          28.000  
G10  21476167.020   112858023.761        2826.009          40.000  
> 2024 07 04 09 18 09.7410000  0 10                     
G24  17751136.257    93282857.542        1427.570          46.000  
G27  22307914.879   117228877.052        -808.486          38.000  
G05  21011185.185   110414494.761       -3097.955          39.000  
G13  20392877.082   107165294.284       -3375.436          41.000  
G15  17921772.566    94179553.214       -2080.115          47.000  
G18  18090241.191    95064858.771       -1296.887          45.000  
G23  18537110.275    97413172.751        1993.259          45.000  
G32  22715324.414   119369818.160        2698.269          38.000  
G22  22585080.578   118685411.424         542.671          28.000  
G10  21476113.256   112857741.106        2826.512          40.000  
> 2024 07 04 09 18 09.8410000  0 10                     
G24  17751109.122    93282714.823        1427.096          46.000  
G27  22307930.182   117228957.905        -808.725          38.000  
G05  21011244.184   110414804.561       -3098.053          39.000  
G13  20392941.298   107165631.823       -3375.493          41.000  
G15  17921812.195    94179761.248       -2080.361          47.000  
G18  18090265.778    95064988.479       -1296.973          45.000  
G23  18537072.443    97412973.418        1993.368          46.000  
G32  22715273.076   119369548.348        2698.080          38.000  
G22  22585069.550   118685357.093         543.136          28.000  
G10  21476059.457   112857458.477        2826.377          40.000  
> 2024 07 04 09 18 09.9410000  0 10                     
G24  17751081.934    93282572.104        1427.080          46.000  
G27  22307945.574   117229038.721        -808.456          38.000  
G05  21011303.061   110415114.374       -3098.230          39.000  
G13  20393005.463   107165969.373       -3375.527          41.000  
G15  17921851.755    94179969.295       -2080.637          47.000  
G18  18090290.453    95065118.202       -1297.266          45.000  
G23  18537034.437    97412774.086        1993.332          46.000  
G32  22715221.737   119369278.548        2697.817          38.000  
G22  22585058.382   118685302.825         542.728          28.000  
G10  21476005.658   112857175.876        2825.853          40.000  
> 2024 07 04 09 18 10.0410000  0 10                     
G24  17751054.747    93282429.436        1426.410          46.000  
G27  22307960.982   117229119.604        -808.974          38.000  
G05  21011362.078   110415424.245       -3098.993          39.000  
G13  20393069.749   107166306.960       -3376.034          41.000  
G15  17921891.402    94180177.357       -2080.591          47.000  
G18  18090315.092    95065247.969       -1297.821          45.000  
G23  18536996.639    97412574.796        1992.814          46.000  
G32  22715170.294   119369008.786        2697.481          38.000  
G22  22585048.365   118685248.575         542.445          28.000  
G10  21475951.893   112856893.286        2825.871          40.000  
> 2024 07 04 09 18 10.1410000  0 10                     
G24  17751027.595    93282286.748        1426.937          46.000  
G27  22307976.373   117229200.453        -808.501          38.000  
G05  21011421.007   110415734.056       -3098.034          39.000  
G13  20393134.001   107166644.535       -3375.693          41.000  
G15  17921931.014    94180385.426       -2080.732          47.000  
G18  18090339.784    95065377.711       -1297.302          45.000  
G23  18536958.703    97412375.490        1993.103          45.000  
G32  22715118.885   119368738.969        2698.294          38.000  
G22  22585037.215   118685194.262         543.021          28.000  
G10  21475898.059   112856610.695        2825.804          40.000  
> 2024 07 04 09 18 10.2410000  0 10                     
G24  17751000.425    93282144.076        1426.707          46.000  
G27  22307991.747   117229281.354        -808.942          38.000  
G05  21011480.059   110416043.883       -3098.328          39.000  
G13  20393198.061   107166982.107       -3375.916          41.000  
G15  17921970.608    94180593.511       -2080.866          47.000  
G18  18090364.476    95065507.486       -1297.797          45.000  
G23  18536920.818    97412176.199        1992.617          45.000  
G32  22715067.512   119368469.223        2697.393          38.000  
G22  22585027.059   118685140.097         541.924          28.000  
G10  21475844.208   112856328.103        2825.742          40.000  
> 2024 07 04 09 18 10.3410000  0 10                     
G24  17750973.359    93282001.433        1426.302          46.000  
G27  22308007.190   117229362.285        -809.215          38.000  
G05  21011539.023   110416353.753       -3098.486          39.000  
G13  20393262.295   107167319.704       -3375.934          41.000  
G15  17922010.220    94180801.597       -2080.847          47.000  
G18  18090389.151    95065637.289       -1298.151          45.000  
G23  18536882.812    97411976.930        1992.669          45.000  
G32  22715016.191   119368199.438        2697.979          38.000  
G22  22585016.833   118685085.850         542.143          28.000  
G10  21475790.444   112856045.554        2825.353          40.000  
> 2024 07 04 09 18 10.4410000  0 10                     
G24  17750946.189    93281858.773        1426.730          46.000  
G27  22308022.616   117229443.160        -808.637          38.000  
G05  21011597.917   110416663.596       -3098.322          39.000  
G13  20393326.582   107167657.292       -3375.728          41.000  
G15  17922049.780    94181009.677       -2080.854          47.000  
G18  18090413.913    95065767.062       -1297.595          45.000  
G23  18536844.910    97411777.625        1993.168          45.000  
G32  22714964.730   119367929.685        2697.603          38.000  
G22  22585006.886   118685031.611         542.277          28.000  
G10  21475736.662   112855762.934        2826.115          40.000  
> 2024 07 04 09 18 10.5410000  0 10                     
G24  17750919.054    93281716.118        1426.500          46.000  
G27  22308038.060   117229524.046        -808.693          38.000  
G05  21011656.882   110416973.440       -3098.401          39.000  
G13  20393390.833   107167994.866       -3375.815          41.000  
G15  17922089.409    94181217.760       -2080.984          47.000  
G18  18090438.587    95065896.833       -1297.803          45.000  
G23  18536806.956    97411578.345        1992.774          45.000  
G32  22714913.462   119367659.918        2697.562          38.000  
G22  22584997.009   118684977.322         542.835          28.000  
G10  21475682.811   112855480.361        2825.626          40.000  
> 2024 07 04 09 18 10.6410000  0 10                     
G24  17750891.902    93281573.493        1426.176          46.000  
G27  22308053.503   117229604.969        -809.115          38.000  
G05  21011715.759   110417283.302       -3098.798          39.000  
G13  20393455.068   107168332.449       -3375.730          41.000  
G15  17922128.969    94181425.849       -2080.940          47.000  
G18  18090463.297    95066026.646       -1298.175          45.000  
G23  18536768.966    97411379.060        1992.803          45.000  
G32  22714862.158   119367390.126        2697.859          38.000  
G22  22584986.400   118684923.100         542.487          28.000  
G10  21475629.099   112855197.736        2826.282          40.000  
> 2024 07 04 09 18 10.7410000  0 10                     
G24  17750864.714    93281430.847        1426.323          46.000  
G27  22308068.824   117229685.898        -809.474          38.000  
G05  21011774.688   110417593.162       -3098.681          39.000  
G13  20393519.232   107168670.031       -3375.788          41.000  
G15  17922168.494    94181633.941       -2081.014          47.000  
G18  18090488.024    95066156.450       -1298.163          45.000  
G23  18536731.065    97411179.777        1992.756          45.000  
G32  22714810.767   119367120.394        2697.174          38.000  
G22  22584976.209   118684868.907         541.961          28.000  
G10  21475575.370   112854915.189        2825.403          40.000  
> 2024 07 04 09 18 10.8410000  0 10                     
G24  17750837.597    93281288.255        1425.944          46.000  
G27  22308084.146   117229766.827        -809.335          38.000  
G05  21011833.583   110417903.027       -3098.706          39.000  
G13  20393583.431   107169007.656       -3376.275          41.000  
G15  17922208.123    94181842.063       -2081.301          47.000  
G18  18090512.664    95066286.280       -1298.401          45.000  
G23  18536693.180    97410980.532        1992.384          45.000  
G32  22714759.411   119366850.640        2697.333          38.000  
G22  22584965.337   118684814.707         541.829          29.000  
G10  21475521.658   112854632.616        2825.650          40.000  
> 2024 07 04 09 18 10.9410000  0 10                     
G24  17750810.601    93281145.653        1425.951          46.000  
G27  22308099.572   117229847.782        -809.446          38.000  
G05  21011892.634   110418212.910       -3098.932          39.000  
G13  20393647.491   107169345.269       -3376.148          40.000  
G15  17922247.752    94182050.172       -2080.998          47.000  
G18  18090537.233    95066416.115       -1298.346          45.000  
G23  18536655.313    97410781.273        1992.582          45.000  
G32  22714708.055   119366580.871        2697.940          39.000  
G22  22584955.670   118684760.532         541.524          29.000  
G10  21475467.859   112854350.059        2825.599          40.000  
> 2024 07 04 09 18 11.0410000  0 10                     
G24  17750783.396    93281003.045        1426.018          46.000  
G27  22308114.945   117229928.723        -809.329          38.000  
G05  21011951.581   110418522.775       -3098.651          39.000  
G13  20393711.743   107169682.837       -3375.535          40.000  
G15  17922287.399    94182258.294       -2081.351          47.000  
G18  18090561.908    95066545.960       -1298.627          45.000  
G23  18536617.411    97410582.023        1992.415          45.000  
G32  22714656.612   119366311.123        2697.526          39.000  
G22  22584945.601   118684706.345         541.566          29.000  
G10  21475414.113   112854067.462        2825.910          40.000  
> 2024 07 04 09 18 11.1410000  0 10                     
G24  17750756.261    93280860.493        1425.380          46.000  
G27  22308130.371   117230009.718        -810.063          38.000  
G05  21012010.598   110418832.700       -3099.152          39.000  
G13  20393775.942   107170020.499       -3376.722          40.000  
G15  17922327.081    94182466.443       -2081.570          47.000  
G18  18090586.600    95066675.836       -1298.883          45.000  
G23  18536579.509    97410382.784        1992.222          45.000  
G32  22714605.203   119366041.445        2696.542          38.000  
G22  22584936.335   118684652.167         541.723          29.000  
G10  21475360.348   112853784.947        2824.914          40.000  
> 2024 07 04 09 18 11.2410000  0 10                     
G24  17750729.126    93280717.955        1425.353          46.000  
G27  22308145.693   117230090.743        -810.530          38.000  
G05  21012069.597   110419142.613       -3099.146          39.000  
G13  20393840.142   107170358.154       -3376.626          40.000  
G15  17922366.711    94182674.610       -2081.765          47.000  
G18  18090611.310    95066805.720       -1298.932          45.000  
G23  18536541.555    97410183.591        1991.752          45.000  
G32  22714553.865   119365771.701        2697.449          38.000  
G22  22584925.847   118684598.013         541.439          29.000  
G10  21475306.549   112853502.397        2825.444          40.000  
> 2024 07 04 09 18 11.3410000  0 10                     
G24  17750701.973    93280575.421        1425.217          46.000  
G27  22308161.101   117230171.707        -810.021          38.000  
G05  21012128.596   110419452.533       -3099.536          39.000  
G13  20393904.341   107170695.792       -3376.542          40.000  
G15  17922406.375    94182882.776       -2081.733          47.000  
G18  18090636.176    95066935.635       -1299.298          45.000  
G23  18536503.618    97409984.378        1991.948          45.000  
G32  22714502.526   119365501.999        2697.182          39.000  
G22  22584915.133   118684543.900         541.043          29.000  
G10  21475252.750   112853219.873        2825.094          40.000  
> 2024 07 04 09 18 11.4410000  0 10                     
G24  17750674.873    93280432.912        1424.880          46.000  
G27  22308176.545   117230252.747        -810.492          38.000  
G05  21012187.473   110419762.485       -3099.640          39.000  
G13  20393968.505   107171033.473       -3377.106          40.000  
G15  17922446.004    94183090.967       -2081.960          47.000  
G18  18090660.886    95067065.562       -1299.426          45.000  
G23  18536465.682    97409785.187        1991.761          45.000  
G32  22714451.223   119365232.341        2696.151          38.000  
G22  22584905.116   118684489.796         540.927          29.000  
G10  21475198.969   112852937.353        2825.271          40.000  
> 2024 07 04 09 18 11.5410000  0 10                     
G24  17750647.756    93280290.438        1424.563          46.000  
G27  22308191.971   117230333.842        -811.188          38.000  
G05  21012246.507   110420072.456       -3099.872          39.000  
G13  20394032.827   107171371.149       -3376.832          40.000  
G15  17922485.599    94183299.200       -2082.481          47.000  
G18  18090685.682    95067195.531       -1299.902          45.000  
G23  18536427.797    97409586.034        1991.400          45.000  
G32  22714399.884   119364962.659        2696.693          38.000  
G22  22584895.362   118684435.715         540.776          29.000  
G10  21475145.240   112852654.900        2824.317          40.000  
> 2024 07 04 09 18 11.6410000  0 10                     
G24  17750620.655    93280148.005        1424.172          46.000  
G27  22308207.449   117230414.933        -811.175          37.000  
G05  21012305.506   110420382.476       -3100.342          39.000  
G13  20394097.096   107171708.895       -3377.553          40.000  
G15  17922525.228    94183507.456       -2082.805          47.000  
G18  18090710.427    95067325.530       -1300.208          45.000  
G23  18536389.948    97409386.915        1990.995          45.000  
G32  22714348.528   119364693.048        2696.307          38.000  
G22  22584884.473   118684381.635         540.749          29.000  
G10  21475091.423   112852372.459        2824.119          40.000  
> 2024 07 04 09 18 11.7410000  0 10                     
G24  17750593.503    93280005.596        1424.003          46.000  
G27  22308222.927   117230496.046        -811.189          37.000  
G05  21012364.453   110420692.486       -3100.079          39.000  
G13  20394161.383   107172046.637       -3377.461          40.000  
G15  17922564.823    94183715.727       -2082.727          47.000  
G18  18090735.189    95067455.548       -1300.275          45.000  
G23  18536351.976    97409187.798        1991.229          45.000  
G32  22714297.207   119364423.469        2695.853          38.000  
G22  22584874.840   118684327.583         540.552          29.000  
G10  21475037.659   112852089.995        2824.504          40.000  
> 2024 07 04 09 18 11.8410000  0 10                     
G24  17750566.420    93279863.170        1424.250          46.000  
G27  22308238.318   117230577.173        -811.345          37.000  
G05  21012423.522   110421002.518       -3100.391          39.000  
G13  20394225.669   107172384.359       -3377.240          40.000  
G15  17922604.470    94183923.991       -2082.648          47.000  
G18  18090759.968    95067585.560       -1300.159          45.000  
G23  18536314.127    97408988.689        1991.094          45.000  
G32  22714245.886   119364153.834        2696.260          38.000  
G22  22584864.859   118684273.639         539.493          29.000  
G10  21474983.930   112851807.541        2824.360          40.000  
> 2024 07 04 09 18 11.9410000  0 10                     
G24  17750539.337    93279720.809        1423.543          46.000  
G27  22308253.779   117230658.345        -811.780          37.000  
G05  21012482.574   110421312.572       -3100.720          39.000  
G13  20394289.938   107172722.155       -3378.175          40.000  
G15  17922644.099    94184132.307       -2083.225          47.000  
G18  18090784.695    95067715.633       -1300.879          45.000  
G23  18536276.242    97408789.646        1990.165          45.000  
G32  22714194.617   119363884.295        2695.167          38.000  
G22  22584854.354   118684219.658         539.519          29.000  
G10  21474930.148   112851525.159        2823.802          40.000  
> 2024 07 04 09 18 12.0410000  0 10                     
G24  17750512.272    93279578.457        1423.467          46.000  
G27  22308269.258   117230739.519        -811.887          37.000  
G05  21012541.608   110421622.643       -3100.873          39.000  
G13  20394354.120   107173059.937       -3377.836          40.000  
G15  17922683.676    94184340.642       -2083.437          47.000  
G18  18090809.492    95067845.726       -1301.025          45.000  
G23  18536238.375    97408590.568        1990.619          45.000  
G32  22714143.348   119363614.705        2695.713          38.000  
G22  22584844.163   118684165.694         539.429          29.000  
G10  21474876.332   112851242.739        2824.262          40.000  
> 2024 07 04 09 18 12.1410000  0 10                     
G24  17750485.154    93279436.119        1423.277          46.000  
G27  22308284.666   117230820.719        -812.017          37.000  
G05  21012600.624   110421932.729       -3100.891          39.000  
G13  20394418.389   107173397.748       -3378.430          40.000  
G15  17922723.253    94184548.981       -2083.455          47.000  
G18  18090834.184    95067975.815       -1300.940          45.000  
G23  18536200.421    97408391.524        1990.384          45.000  
G32  22714092.010   119363345.172        2695.082          38.000  
G22  22584834.094   118684111.725         539.469          29.000  
G10  21474822.690   112850960.375        2823.577          40.000  
> 2024 07 04 09 18 12.2410000  0 10                     
G24  17750458.124    93279293.808        1423.051          46.000  
G27  22308300.092   117230901.947        -812.176          37.000  
G05  21012659.641   110422242.836       -3101.141          39.000  
G13  20394482.659   107173735.554       -3378.345          40.000  
G15  17922762.918    94184757.335       -2083.639          47.000  
G18  18090858.963    95068105.945       -1301.471          45.000  
G23  18536162.554    97408192.506        1990.011          45.000  
G32  22714040.706   119363075.643        2695.100          38.000  
G22  22584823.676   118684057.776         539.392          29.000  
G10  21474768.978   112850677.995        2823.725          40.000  
> 2024 07 04 09 18 12.3410000  0 10                     
G24  17750431.129    93279151.529        1422.727          46.000  
G27  22308315.501   117230983.188        -812.261          37.000  
G05  21012718.727   110422552.954       -3101.343          39.000  
G13  20394546.910   107174073.385       -3378.345          40.000  
G15  17922802.530    94184965.713       -2083.865          47.000  
G18  18090883.708    95068236.094       -1301.526          45.000  
G23  18536124.722    97407993.489        1990.141          45.000  
G32  22713989.403   119362806.117        2695.090          38.000  
G22  22584813.538   118684003.863         539.069          29.000  
G10  21474715.354   112850395.650        2823.159          40.000  
> 2024 07 04 09 18 12.4410000  0 10                     
G24  17750403.976    93279009.229        1422.937          46.000  
G27  22308330.892   117231064.440        -812.831          37.000  
G05  21012777.744   110422863.088       -3101.459          39.000  
G13  20394611.267   107174411.215       -3378.303          40.000  
G15  17922842.142    94185174.107       -2084.147          47.000  
G18  18090908.400    95068366.252       -1301.721          45.000  
G23  18536086.890    97407794.496        1989.846          45.000  
G32  22713937.994   119362536.611        2695.228          38.000  
G22  22584803.870   118683949.957         538.879          29.000  
G10  21474661.589   112850113.301        2823.273          40.000  
> 2024 07 04 09 18 12.5410000  0 10                     
G24  17750376.876    93278866.991        1422.199          46.000  
G27  22308346.440   117231145.708        -812.577          37.000  
G05  21012836.743   110423173.239       -3101.532          40.000  
G13  20394675.553   107174749.083       -3378.698          40.000  
G15  17922881.841    94185382.504       -2083.990          47.000  
G18  18090933.231    95068496.430       -1301.929          45.000  
G23  18536048.988    97407595.515        1989.781          45.000  
G32  22713886.708   119362267.095        2695.351          38.000  
G22  22584794.168   118683896.121         538.356          29.000  
G10  21474607.790   112849830.953        2823.197          40.000  
> 2024 07 04 09 18 12.6410000  0 10                     
G24  17750349.828    93278724.764        1422.191          45.000  
G27  22308361.883   117231226.992        -812.894          37.000  
G05  21012895.830   110423483.413       -3101.855          39.000  
G13  20394739.788   107175086.956       -3378.730          40.000  
G15  17922921.505    94185590.942       -2084.439          46.000  
G18  18090958.011    95068626.642       -1302.191          45.000  
G23  18536011.156    97407396.555        1989.441          45.000  
G32  22713835.405   119361997.653        2694.475          38.000  
G22  22584783.942   118683842.258         538.465          29.000  
G10  21474554.079   112849548.666        2822.789          40.000  
> 2024 07 04 09 18 12.7410000  0 10                     
G24  17750322.763    93278582.568        1421.699          44.000  
G27  22308377.309   117231308.339        -813.481          35.000  
G05  21012954.829   110423793.596       -3102.039          38.000  
G13  20394804.109   107175424.873       -3379.293          39.000  
G15  17922961.170    94185799.393       -2084.721          45.000  
G18  18090982.842    95068756.882       -1302.594          44.000  
G23  18535973.237    97407197.635        1989.028          43.000  
G32  22713784.083   119361728.222        2694.002          36.000  
G22  22584773.664   118683788.400         538.485          29.000  
G10  21474500.349   112849266.360        2822.588          39.000  
> 2024 07 04 09 18 12.8410000  0 10                     
G24  17750295.767    93278440.382        1421.937          46.000  
G27  22308392.753   117231389.677        -813.359          37.000  
G05  21013013.863   110424103.777       -3101.514          39.000  
G13  20394868.378   107175762.746       -3378.650          39.000  
G15  17923000.834    94186007.848       -2084.552          46.000  
G18  18091007.674    95068887.126       -1302.386          45.000  
G23  18535935.335    97406998.692        1989.408          45.000  
G32  22713732.884   119361458.765        2694.631          38.000  
G22  22584763.089   118683734.593         538.139          29.000  
G10  21474446.638   112848984.074        2822.937          40.000  
> 2024 07 04 09 18 12.9410000  0 10                     
G24  17750268.685    93278298.204        1421.658          46.000  
G27  22308408.196   117231471.028        -813.359          37.000  
G05  21013072.932   110424414.004       -3102.240          39.000  
G13  20394932.647   107176100.675       -3379.493          41.000  
G15  17923040.533    94186216.316       -2084.737          46.000  
G18  18091032.453    95069017.387       -1302.936          45.000  
G23  18535897.572    97406799.776        1988.998          45.000  
G32  22713681.511   119361189.330        2694.312          38.000  
G22  22584752.863   118683680.799         537.925          29.000  
G10  21474392.821   112848701.792        2822.636          40.000  
> 2024 07 04 09 18 13.0410000  0 10                     
G24  17750241.602    93278156.073        1421.181          46.000  
G27  22308423.640   117231552.393        -813.709          37.000  
G05  21013131.966   110424724.230       -3102.264          39.000  
G13  20394996.969   107176438.626       -3379.569          41.000  
G15  17923080.215    94186424.832       -2085.276          46.000  
G18  18091057.267    95069147.694       -1303.223          45.000  
G23  18535859.740    97406600.906        1988.636          45.000  
G32  22713630.207   119360919.950        2693.706          38.000  
G22  22584743.091   118683626.981         538.201          29.000  
G10  21474339.144   112848419.562        2822.456          40.000  
> 2024 07 04 09 18 13.1410000  0 10                     
G24  17750214.694    93278013.935        1421.288          46.000  
G27  22308439.048   117231633.828        -814.195          37.000  
G05  21013191.035   110425034.483       -3102.649          39.000  
G13  20395061.290   107176776.549       -3379.328          41.000  
G15  17923119.862    94186633.329       -2085.065          46.000  
G18  18091082.029    95069277.983       -1302.899          45.000  
G23  18535821.856    97406402.003        1988.919          45.000  
G32  22713578.956   119360650.541        2693.999          39.000  
G22  22584732.987   118683573.229         537.533          29.000  
G10  21474285.432   112848137.283        2822.765          40.000  
> 2024 07 04 09 18 13.2410000  0 10                     
G24  17750187.681    93277871.846        1420.710          46.000  
G27  22308454.561   117231715.221        -813.939          37.000  
G05  21013250.069   110425344.763       -3102.747          39.000  
G13  20395125.542   107177114.529       -3379.820          41.000  
G15  17923159.526    94186841.882       -2085.729          46.000  
G18  18091106.791    95069408.340       -1303.876          45.000  
G23  18535783.989    97406203.172        1988.045          45.000  
G32  22713527.775   119360381.174        2693.515          39.000  
G22  22584721.767   118683519.518         536.939          29.000  
G10  21474231.721   112847855.088        2821.669          40.000  
> 2024 07 04 09 18 13.3410000  0 10                     
G24  17750160.685    93277729.775        1420.733          45.000  
G27  22308470.110   117231796.691        -814.759          37.000  
G05  21013309.033   110425655.048       -3102.936          39.000  
G13  20395189.881   107177452.533       -3379.943          40.000  
G15  17923199.208    94187050.435       -2085.560          46.000  
G18  18091131.623    95069538.696       -1303.516          45.000  
G23  18535746.104    97406004.320        1988.474          45.000  
G32  22713476.454   119360111.822        2693.397          38.000  
G22  22584711.541   118683465.807         536.991          29.000  
G10  21474178.044   112847572.870        2822.126          40.000  
> 2024 07 04 09 18 13.4410000  0 10                     
G24  17750133.568    93277587.707        1420.560          45.000  
G27  22308485.623   117231878.148        -814.792          37.000  
G05  21013368.155   110425965.354       -3102.948          39.000  
G13  20395254.115   107177790.518       -3380.047          40.000  
G15  17923238.855    94187258.992       -2085.733          46.000  
G18  18091156.332    95069669.063       -1303.790          45.000  
G23  18535708.255    97405805.491        1988.243          45.000  
G32  22713425.202   119359842.467        2693.592          38.000  
G22  22584701.211   118683412.121         536.738          29.000  
G10  21474124.419   112847290.679        2821.759          39.000  
> 2024 07 04 09 18 13.5410000  0 10                     
G24  17750106.432    93277445.657        1420.445          45.000  
G27  22308501.066   117231959.578        -814.324          37.000  
G05  21013427.224   110426275.619       -3102.747          39.000  
G13  20395318.576   107178128.506       -3379.977          40.000  
G15  17923278.572    94187467.557       -2085.663          46.000  
G18  18091181.112    95069799.436       -1303.699          45.000  
G23  18535670.405    97405606.662        1988.427          45.000  
G32  22713373.951   119359573.130        2693.180          38.000  
G22  22584691.508   118683358.344         537.536          28.000  
G10  21474070.742   112847008.467        2822.244          40.000  
> 2024 07 04 09 18 13.6410000  0 10                     
G24  17750079.385    93277303.603        1420.526          45.000  
G27  22308516.527   117232041.064        -814.672          37.000  
G05  21013486.328   110426585.955       -3103.339          39.000  
G13  20395382.950   107178466.511       -3379.942          40.000  
G15  17923318.253    94187676.143       -2085.971          46.000  
G18  18091205.873    95069929.838       -1304.010          45.000  
G23  18535632.486    97405407.845        1988.102          45.000  
G32  22713322.682   119359303.776        2693.278          38.000  
G22  22584680.532   118683304.638         537.147          28.000  
G10  21474017.048   112846726.269        2822.031          40.000  
> 2024 07 04 09 18 13.7410000  0 10                     
G24  17750052.372    93277161.578        1420.231          45.000  
G27  22308532.006   117232122.550        -814.697          37.000  
G05  21013545.292   110426896.238       -3102.710          39.000  
G13  20395447.324   107178804.510       -3380.000          40.000  
G15  17923357.900    94187884.720       -2085.760          46.000  
G18  18091230.688    95070060.231       -1303.906          45.000  
G23  18535594.602    97405209.032        1988.203          45.000  
G32  22713271.344   119359034.424        2693.705          38.000  
G22  22584670.847   118683251.016         536.243          28.000  
G10  21473963.371   112846444.064        2822.133          40.000  
> 2024 07 04 09 18 13.8410000  0 10                     
G24  17750025.394    93277019.571        1419.881          45.000  
G27  22308547.484   117232204.060        -815.132          37.000  
G05  21013604.378   110427206.571       -3103.320          39.000  
G13  20395511.733   107179142.541       -3380.540          40.000  
G15  17923397.669    94188093.315       -2086.019          46.000  
G18  18091255.415    95070190.653       -1304.193          45.000  
G23  18535556.752    97405010.240        1987.803          45.000  
G32  22713220.057   119358765.125        2692.805          38.000  
G22  22584660.866   118683197.368         536.178          28.000  
G10  21473909.799   112846161.889        2821.719          40.000  
> 2024 07 04 09 18 13.9410000  0 10                     
G24  17749998.363    93276877.547        1420.178          45.000  
G27  22308562.962   117232285.543        -814.778          37.000  
G05  21013663.500   110427516.913       -3103.448          39.000  
G13  20395576.037   107179480.539       -3379.857          40.000  
G15  17923437.334    94188301.916       -2086.048          46.000  
G18  18091280.159    95070321.081       -1304.321          45.000  
G23  18535518.868    97404811.442        1987.892          45.000  
G32  22713168.632   119358495.785        2693.341          38.000  
G22  22584650.169   118683143.690         536.631          28.000  
G10  21473856.035   112845879.701        2822.016          40.000  
> 2024 07 04 09 18 14.0410000  0 10                     
G24  17749971.385    93276735.566        1419.828          45.000  
G27  22308578.493   117232367.072        -815.225          37.000  
G05  21013722.412   110427827.233       -3102.905          39.000  
G13  20395640.428   107179818.590       -3380.284          40.000  
G15  17923477.138    94188510.541       -2086.318          46.000  
G18  18091305.061    95070451.534       -1304.425          45.000  
G23  18535481.088    97404612.662        1987.792          45.000  
G32  22713117.345   119358226.449        2693.517          38.000  
G22  22584640.309   118683090.060         536.431          28.000  
G10  21473802.306   112845597.564        2821.318          40.000  
> 2024 07 04 09 18 14.1410000  0 10                     
G24  17749944.425    93276593.582        1419.848          45.000  
G27  22308593.919   117232448.603        -815.180          37.000  
G05  21013781.550   110428137.581       -3103.491          39.000  
G13  20395704.697   107180156.588       -3379.828          40.000  
G15  17923516.802    94188719.153       -2086.120          46.000  
G18  18091329.822    95070581.976       -1304.242          45.000  
G23  18535443.273    97404413.866        1988.034          45.000  
G32  22713066.129   119357957.181        2692.905          38.000  
G22  22584630.328   118683036.413         536.431          29.000  
G10  21473748.542   112845315.368        2822.012          40.000  
> 2024 07 04 09 18 14.2410000  0 10                     
G24  17749917.412    93276451.597        1419.768          45.000  
G27  22308609.415   117232530.139        -815.524          36.000  
G05  21013840.724   110428447.934       -3103.528          39.000  
G13  20395769.124   107180494.640       -3380.650          40.000  
G15  17923556.501    94188927.773       -2086.238          46.000  
G18  18091354.671    95070712.439       -1304.724          45.000  
G23  18535405.459    97404215.098        1987.745          45.000  
G32  22713014.773   119357687.856        2693.269          38.000  
G22  22584620.625   118682982.760         536.602          29.000  
G10  21473694.760   112845033.213        2821.419          40.000  
> 2024 07 04 09 18 14.3410000  0 10                     
G24  17749890.434    93276309.628        1419.696          45.000  
G27  22308624.928   117232611.670        -815.344          37.000  
G05  21013899.793   110428758.265       -3103.375          39.000  
G13  20395833.532   107180832.678       -3380.236          40.000  
G15  17923596.201    94189136.396       -2086.200          46.000  
G18  18091379.538    95070842.902       -1304.657          45.000  
G23  18535367.662    97404016.323        1987.734          45.000  
G32  22712963.487   119357418.554        2692.899          38.000  
G22  22584610.278   118682929.154         535.956          29.000  
G10  21473641.136   112844751.042        2821.571          40.000  
> 2024 07 04 09 18 14.4410000  0 10                     
G24  17749863.508    93276167.658        1419.832          45.000  
G27  22308640.494   117232693.226        -815.888          37.000  
G05  21013958.845   110429068.605       -3103.375          39.000  
G13  20395897.836   107181170.686       -3379.844          40.000  
G15  17923635.952    94189345.025       -2086.280          46.000  
G18  18091404.230    95070973.371       -1304.633          45.000  
G23  18535329.812    97403817.537        1987.808          45.000  
G32  22712912.218   119357149.253        2692.973          38.000  
G22  22584599.825   118682875.517         536.107          29.000  
G10  21473587.476   112844468.856        2821.735          40.000  
> 2024 07 04 09 18 14.5410000  0 10                     
G24  17749836.443    93276025.711        1419.406          45.000  
G27  22308656.007   117232774.753        -815.612          37.000  
G05  21014017.896   110429378.978       -3103.992          39.000  
G13  20395962.140   107181508.738       -3380.580          40.000  
G15  17923675.739    94189553.663       -2086.489          46.000  
G18  18091429.114    95071103.857       -1305.066          45.000  
G23  18535291.945    97403618.778        1987.490          45.000  
G32  22712860.915   119356879.931        2693.049          38.000  
G22  22584588.465   118682821.877         536.272          29.000  
G10  21473533.869   112844186.679        2821.664          40.000  
> 2024 07 04 09 18 14.6410000  0 10                     
G24  17749809.412    93275883.800        1419.003          45.000  
G27  22308671.537   117232856.367        -816.510          37.000  
G05  21014077.017   110429689.343       -3103.772          39.000  
G13  20396026.532   107181846.800       -3380.661          40.000  
G15  17923715.403    94189762.327       -2086.752          46.000  
G18  18091453.928    95071234.373       -1305.316          45.000  
G23  18535254.131    97403420.035        1987.328          45.000  
G32  22712809.628   119356610.682        2692.386          38.000  
G22  22584578.012   118682768.276         535.990          29.000  
G10  21473480.192   112843904.566        2820.955          40.000  
> 2024 07 04 09 18 14.7410000  0 10                     
G24  17749782.417    93275741.869        1419.288          45.000  
G27  22308687.016   117232937.910        -815.335          37.000  
G05  21014136.104   110429999.728       -3103.979          39.000  
G13  20396090.871   107182184.862       -3380.748          40.000  
G15  17923754.980    94189970.984       -2086.609          46.000  
G18  18091478.725    95071364.882       -1305.176          45.000  
G23  18535216.333    97403221.299        1987.372          45.000  
G32  22712758.342   119356341.379        2693.239          38.000  
G22  22584567.926   118682714.702         535.662          29.000  
G10  21473426.463   112843622.378        2821.905          40.000  
> 2024 07 04 09 18 14.8410000  0 10                     
G24  17749755.386    93275599.960        1418.973          45.000  
G27  22308702.512   117233019.524        -816.291          36.000  
G05  21014195.190   110430310.096       -3103.882          39.000  
G13  20396155.245   107182522.907       -3380.316          40.000  
G15  17923794.610    94190179.644       -2086.615          46.000  
G18  18091503.557    95071495.403       -1305.353          45.000  
G23  18535178.519    97403022.550        1987.432          45.000  
G32  22712707.021   119356072.107        2692.409          38.000  
G22  22584557.979   118682661.115         535.711          29.000  
G10  21473372.856   112843340.220        2821.520          40.000  
> 2024 07 04 09 18 14.9410000  0 10                     
G24  17749728.356    93275458.079        1418.674          45.000  
G27  22308718.095   117233101.142        -816.427          37.000  
G05  21014254.347   110430620.474       -3103.869          39.000  
G13  20396219.496   107182860.994       -3380.882          40.000  
G15  17923834.344    94190388.331       -2086.873          46.000  
G18  18091528.336    95071625.955       -1305.658          45.000  
G23  18535140.756    97402823.828        1987.152          45.000  
G32  22712655.665   119355802.862        2692.435          38.000  
G22  22584548.172   118682607.523         535.813          29.000  
G10  21473319.127   112843058.109        2821.252          40.000  
> 2024 07 04 09 18 15.0410000  0 10                     
G24  17749701.343    93275316.180        1418.877          45.000  
G27  22308733.643   117233182.730        -816.130          36.000  
G05  21014313.346   110430930.877       -3103.925          39.000  
G13  20396283.888   107183199.067       -3380.888          40.000  
G15  17923874.078    94190597.011       -2086.848          46.000  
G18  18091553.185    95071756.492       -1305.353          45.000  
G23  18535102.907    97402625.107        1987.141          45.000  
G32  22712604.466   119355533.577        2692.757          38.000  
G22  22584538.976   118682553.951         535.733          29.000  
G10  21473265.432   112842775.969        2821.423          40.000  
> 2024 07 04 09 18 15.1410000  0 10                     
G24  17749674.313    93275174.344        1418.258          45.000  
G27  22308749.086   117233264.393        -816.828          37.000  
G05  21014372.397   110431241.322       -3104.596          39.000  
G13  20396348.261   107183537.183       -3381.388          40.000  
G15  17923913.794    94190805.738       -2087.401          46.000  
G18  18091578.069    95071887.086       -1306.085          45.000  
G23  18535065.057    97402426.421        1986.647          45.000  
G32  22712553.197   119355264.366        2691.850          38.000  
G22  22584528.855   118682500.471         534.892          29.000  
G10  21473211.633   112842493.890        2820.537          40.000  
> 2024 07 04 09 18 15.2410000  0 10                     
G24  17749647.335    93275032.515        1418.174          45.000  
G27  22308764.652   117233346.071        -816.782          36.000  
G05  21014431.536   110431551.769       -3104.437          39.000  
G13  20396412.653   107183875.308       -3381.237          40.000  
G15  17923953.441    94191014.481       -2087.644          46.000  
G18  18091602.883    95072017.702       -1306.281          44.000  
G23  18535027.295    97402227.758        1986.407          45.000  
G32  22712501.859   119354995.143        2692.176          38.000  
G22  22584519.013   118682446.994         534.563          29.000  
G10  21473158.009   112842211.781        2820.970          40.000  
> 2024 07 04 09 18 15.3410000  0 10                     
G24  17749620.392    93274890.726        1417.702          45.000  
G27  22308780.165   117233427.756        -816.754          36.000  
G05  21014490.622   110431862.239       -3104.834          39.000  
G13  20396476.992   107184213.444       -3381.569          40.000  
G15  17923993.193    94191223.244       -2087.796          46.000  
G18  18091627.785    95072148.325       -1306.396          45.000  
G23  18534989.428    97402029.107        1986.335          45.000  
G32  22712450.590   119354725.956        2691.722          38.000  
G22  22584509.258   118682393.527         534.448          29.000  
G10  21473104.384   112841929.724        2820.391          40.000  
> 2024 07 04 09 18 15.4410000  0 10                     
G24  17749593.448    93274748.946        1417.661          45.000  
G27  22308795.661   117233509.474        -817.350          36.000  
G05  21014549.622   110432172.728       -3105.121          39.000  
G13  20396541.296   107184551.599       -3381.500          40.000  
G15  17924033.032    94191432.009       -2087.720          46.000  
G18  18091652.599    95072278.991       -1306.781          45.000  
G23  18534951.596    97401830.468        1986.310          45.000  
G32  22712399.304   119354456.772        2691.529          38.000  
G22  22584499.469   118682340.026         534.796          29.000  
G10  21473050.690   112841647.689        2820.019          40.000  
> 2024 07 04 09 18 15.5410000  0 10                     
G24  17749566.523    93274607.191        1417.423          45.000  
G27  22308811.244   117233591.236        -817.664          36.000  
G05  21014608.743   110432483.226       -3105.194          39.000  
G13  20396605.704   107184889.773       -3381.829          40.000  
G15  17924072.783    94191640.808       -2087.996          46.000  
G18  18091677.466    95072409.667       -1306.836          45.000  
G23  18534913.799    97401631.872        1985.712          45.000  
G32  22712348.105   119354187.630        2691.288          38.000  
G22  22584489.348   118682286.585         534.389          29.000  
G10  21472997.031   112841365.628        2820.497          40.000  
> 2024 07 04 09 18 15.6410000  0 10                     
G24  17749539.580    93274465.463        1417.092          45.000  
G27  22308826.792   117233672.992        -817.496          36.000  
G05  21014667.795   110432793.733       -3104.968          39.000  
G13  20396670.061   107185227.961       -3381.766          40.000  
G15  17924112.552    94191849.629       -2088.352          46.000  
G18  18091702.280    95072540.382       -1307.300          44.000  
G23  18534876.037    97401433.252        1986.249          45.000  
G32  22712296.924   119353918.467        2691.552          38.000  
G22  22584478.808   118682233.140         534.363          29.000  
G10  21472943.423   112841083.597        2820.161          40.000  
> 2024 07 04 09 18 15.7410000  0 10                     
G24  17749512.584    93274323.773        1416.539          45.000  
G27  22308842.358   117233754.792        -818.438          37.000  
G05  21014726.881   110433104.305       -3105.792          39.000  
G13  20396734.295   107185566.189       -3382.475          40.000  
G15  17924152.182    94192058.478       -2088.540          46.000  
G18  18091727.164    95072671.116       -1307.471          45.000  
G23  18534838.187    97401234.699        1985.426          45.000  
G32  22712245.725   119353649.396        2690.260          38.000  
G22  22584467.639   118682179.792         533.491          29.000  
G10  21472889.816   112840801.639        2819.466          40.000  
> 2024 07 04 09 18 15.8410000  0 10                     
G24  17749485.589    93274182.111        1416.291          45.000  
G27  22308857.888   117233836.618        -818.588          37.000  
G05  21014786.037   110433414.916       -3106.567          39.000  
G13  20396798.686   107185904.453       -3382.808          40.000  
G15  17924191.968    94192267.352       -2088.932          46.000  
G18  18091752.205    95072801.889       -1308.002          45.000  
G23  18534800.442    97401036.170        1985.004          45.000  
G32  22712194.473   119353380.295        2690.720          39.000  
G22  22584457.257   118682126.482         532.792          29.000  
G10  21472836.209   112840519.649        2819.616          40.000  
> 2024 07 04 09 18 15.9410000  0 10                     
G24  17749458.645    93274040.473        1416.295          45.000  
G27  22308873.471   117233918.459        -818.507          37.000  
G05  21014845.054   110433725.501       -3105.963          39.000  
G13  20396863.095   107186242.714       -3382.705          40.000  
G15  17924231.668    94192476.251       -2089.033          46.000  
G18  18091777.054    95072932.685       -1308.105          44.000  
G23  18534762.645    97400837.650        1985.202          45.000  
G32  22712143.222   119353111.216        2690.817          38.000  
G22  22584446.786   118682073.096         533.484          29.000  
G10  21472782.480   112840237.720        2819.131          40.000  
> 2024 07 04 09 18 16.0410000  0 10                     
G24  17749431.720    93273898.864        1416.038          45.000  
G27  22308889.020   117234000.329        -818.990          37.000  
G05  21014904.228   110434036.105       -3106.152          39.000  
G13  20396927.486   107186581.011       -3383.182          40.000  
G15  17924271.402    94192685.169       -2089.248          46.000  
G18  18091801.990    95073063.502       -1308.209          44.000  
G23  18534724.796    97400639.171        1984.560          45.000  
G32  22712091.988   119352842.195        2689.925          39.000  
G22  22584435.426   118682019.767         533.276          29.000  
G10  21472728.803   112839955.763        2819.398          40.000  
> 2024 07 04 09 18 16.1410000  0 10                     
G24  17749404.637    93273757.230        1416.203          45.000  
G27  22308904.655   117234082.191        -818.609          36.000  
G05  21014963.401   110434346.716       -3106.250          39.000  
G13  20396991.895   107186919.260       -3382.322          40.000  
G15  17924311.153    94192894.082       -2089.173          46.000  
G18  18091826.909    95073194.308       -1307.971          44.000  
G23  18534687.016    97400440.640        1985.246          45.000  
G32  22712040.807   119352573.123        2690.679          39.000  
G22  22584425.235   118681966.477         532.867          29.000  
G10  21472675.231   112839673.812        2819.792          40.000  
> 2024 07 04 09 18 16.2410000  0 10                     
G24  17749377.676    93273615.615        1416.100          45.000  
G27  22308920.238   117234164.085        -818.969          37.000  
G05  21015022.575   110434657.339       -3106.250          39.000  
G13  20397056.182   107187257.546       -3382.998          40.000  
G15  17924350.940    94193102.990       -2088.988          46.000  
G18  18091851.846    95073325.132       -1308.325          44.000  
G23  18534649.236    97400242.151        1984.843          45.000  
G32  22711989.538   119352304.052        2690.546          38.000  
G22  22584415.184   118681913.149         533.193          29.000  
G10  21472621.676   112839391.879        2819.439          40.000  
> 2024 07 04 09 18 16.3410000  0 10                     
G24  17749350.733    93273474.051        1415.461          45.000  
G27  22308935.873   117234245.978        -819.135          36.000  
G05  21015081.661   110434967.974       -3106.622          39.000  
G13  20397120.556   107187595.869       -3383.552          40.000  
G15  17924390.726    94193311.940       -2089.777          46.000  
G18  18091876.799    95073455.992       -1308.691          44.000  
G23  18534611.491    97400043.669        1984.576          45.000  
G32  22711938.339   119352035.032        2689.991          38.000  
G22  22584404.766   118681859.832         533.160          29.000  
G10  21472568.087   112839109.958        2819.045          40.000  
> 2024 07 04 09 18 16.4410000  0 10                     
G24  17749323.843    93273332.507        1415.367          45.000  
G27  22308951.474   117234327.939        -819.811          36.000  
G05  21015140.713   110435278.626       -3106.415          38.000  
G13  20397184.964   107187934.185       -3383.215          39.000  
G15  17924430.495    94193520.917       -2089.765          45.000  
G18  18091901.666    95073586.892       -1309.174          44.000  
G23  18534573.607    97399845.230        1984.393          44.000  
G32  22711887.105   119351766.027        2689.918          38.000  
G22  22584394.540   118681806.609         532.252          28.000  
G10  21472514.358   112838828.098        2818.401          39.000  
> 2024 07 04 09 18 16.5410000  0 10                     
G24  17749296.969    93273190.946        1415.557          45.000  
G27  22308966.952   117234409.852        -819.321          36.000  
G05  21015199.817   110435589.288       -3106.579          38.000  
G13  20397249.391   107188272.498       -3383.111          39.000  
G15  17924470.317    94193729.869       -2089.340          45.000  
G18  18091926.585    95073717.759       -1308.759          44.000  
G23  18534535.845    97399646.768        1984.822          44.000  
G32  22711835.871   119351497.014        2690.095          38.000  
G22  22584384.035   118681753.350         532.448          28.000  
G10  21472460.716   112838546.156        2819.396          39.000  
> 2024 07 04 09 18 16.6410000  0 10                     
G24  17749269.956    93273049.400        1415.428          45.000  
G27  22308982.553   117234491.789        -819.478          36.000  
G05  21015258.973   110435899.964       -3106.726          38.000  
G13  20397313.834   107188610.818       -3383.154          39.000  
G15  17924510.086    94193938.840       -2089.786          45.000  
G18  18091951.469    95073848.649       -1308.923          44.000  
G23  18534498.065    97399448.322        1984.459          44.000  
G32  22711784.620   119351228.012        2690.070          38.000  
G22  22584373.984   118681700.112         532.421          28.000  
G10  21472407.109   112838264.258        2819.063          39.000  
> 2024 07 04 09 18 16.7410000  0 10                     
G24  17749243.048    93272907.912        1414.685          45.000  
G27  22308998.188   117234573.765        -819.954          36.000  
G05  21015318.042   110436210.643       -3106.653          38.000  
G13  20397378.173   107188949.173       -3383.700          39.000  
G15  17924549.803    94194147.836       -2089.948          45.000  
G18  18091976.370    95073979.583       -1309.473          44.000  
G23  18534460.425    97399249.907        1983.929          44.000  
G32  22711733.404   119350959.019        2689.914          38.000  
G22  22584363.706   118681646.877         532.307          28.000  
G10  21472353.536   112837982.396        2818.373          39.000  
> 2024 07 04 09 18 16.8410000  0 10                     
G24  17749216.140    93272766.385        1415.335          45.000  
G27  22309013.806   117234655.737        -819.903          36.000  
G05  21015377.111   110436521.349       -3106.934          38.000  
G13  20397442.617   107189287.522       -3383.307          39.000  
G15  17924589.624    94194356.839       -2089.953          45.000  
G18  18092001.272    95074110.495       -1309.064          44.000  
G23  18534422.697    97399051.480        1984.246          44.000  
G32  22711682.257   119350690.047        2689.834          38.000  
G22  22584352.695   118681593.682         531.979          28.000  
G10  21472299.964   112837700.499        2819.041          39.000  
> 2024 07 04 09 18 16.9410000  0 10                     
G24  17749189.197    93272624.893        1414.779          45.000  
G27  22309029.354   117234737.695        -819.484          36.000  
G05  21015436.267   110436832.006       -3106.268          38.000  
G13  20397506.921   107189625.843       -3383.152          39.000  
G15  17924629.323    94194565.838       -2090.022          45.000  
G18  18092026.121    95074241.444       -1309.583          44.000  
G23  18534384.865    97398853.054        1984.293          44.000  
G32  22711631.076   119350421.059        2689.775          38.000  
G22  22584341.631   118681540.444         532.227          28.000  
G10  21472246.357   112837418.643        2818.639          39.000  
> 2024 07 04 09 18 17.0410000  0 10                     
G24  17749162.393    93272483.424        1414.628          45.000  
G27  22309044.955   117234819.721        -820.262          36.000  
G05  21015495.389   110437142.769       -3107.812          38.000  
G13  20397571.417   107189964.236       -3383.797          39.000  
G15  17924669.145    94194774.868       -2090.359          45.000  
G18  18092051.110    95074372.407       -1309.814          44.000  
G23  18534347.155    97398654.673        1983.673          44.000  
G32  22711579.894   119350152.111        2689.390          38.000  
G22  22584331.179   118681487.254         531.926          28.000  
G10  21472192.750   112837136.795        2818.260          39.000  
> 2024 07 04 09 18 17.1410000  0 10                     
G24  17749135.520    93272341.942        1414.900          45.000  
G27  22309060.590   117234901.740        -820.445          36.000  
G05  21015554.580   110437453.469       -3107.037          38.000  
G13  20397635.861   107190302.581       -3383.281          39.000  
G15  17924708.861    94194983.880       -2089.981          45.000  
G18  18092075.959    95074503.353       -1309.491          44.000  
G23  18534309.358    97398456.258        1984.166          44.000  
G32  22711528.678   119349883.123        2690.099          38.000  
G22  22584320.848   118681434.083         531.687          28.000  
G10  21472139.213   112836854.929        2818.762          39.000  
> 2024 07 04 09 18 17.2410000  0 10                     
G24  17749108.524    93272200.459        1414.856          45.000  
G27  22309076.191   117234983.695        -819.743          36.000  
G05  21015613.649   110437764.143       -3106.567          38.000  
G13  20397700.287   107190640.951       -3383.745          39.000  
G15  17924748.561    94195192.878       -2089.823          45.000  
G18  18092100.913    95074634.313       -1309.601          44.000  
G23  18534271.613    97398257.844        1984.174          44.000  
G32  22711477.479   119349614.150        2689.983          38.000  
G22  22584311.425   118681380.901         531.702          28.000  
G10  21472085.518   112836573.025        2819.051          39.000  
> 2024 07 04 09 18 17.3410000  0 10                     
G24  17749081.581    93272058.999        1414.561          45.000  
G27  22309091.774   117235065.733        -820.591          36.000  
G05  21015672.857   110438074.858       -3107.227          38.000  
G13  20397764.678   107190979.288       -3383.391          39.000  
G15  17924788.382    94195401.918       -2090.483          45.000  
G18  18092125.866    95074765.287       -1309.839          44.000  
G23  18534233.869    97398059.444        1984.008          44.000  
G32  22711426.297   119349345.177        2689.636          38.000  
G22  22584302.019   118681327.713         531.773          28.000  
G10  21472031.981   112836291.165        2818.577          39.000  
> 2024 07 04 09 18 17.4410000  0 10                     
G24  17749054.690    93271917.544        1414.402          45.000  
G27  22309107.374   117235147.758        -820.359          36.000  
G05  21015731.979   110438385.563       -3107.330          38.000  
G13  20397829.087   107191317.657       -3383.670          39.000  
G15  17924828.046    94195610.931       -2090.142          45.000  
G18  18092150.803    95074896.242       -1309.662          44.000  
G23  18534196.106    97397861.033        1984.037          44.000  
G32  22711375.063   119349076.211        2689.719          38.000  
G22  22584292.474   118681274.529         531.850          28.000  
G10  21471978.269   112836009.281        2818.910          39.000  
> 2024 07 04 09 18 17.5410000  0 10                     
G24  17749027.817    93271776.101        1414.360          45.000  
G27  22309122.957   117235229.750        -820.005          36.000  
G05  21015791.152   110438696.300       -3107.489          38.000  
G13  20397893.531   107191656.008       -3383.312          39.000  
G15  17924867.833    94195819.958       -2090.266          45.000  
G18  18092175.687    95075027.244       -1310.101          44.000  
G23  18534158.414    97397662.652        1983.709          44.000  
G32  22711323.952   119348807.238        2690.051          38.000  
G22  22584281.882   118681221.303         532.249          28.000  
G10  21471924.645   112835727.435        2818.508          39.000  
> 2024 07 04 09 18 17.6410000  0 10                     
G24  17749000.856    93271634.691        1413.874          45.000  
G27  22309138.488   117235311.814        -820.917          36.000  
G05  21015850.256   110439007.005       -3107.257          38.000  
G13  20397957.887   107191994.390       -3383.894          39.000  
G15  17924907.602    94196029.023       -2090.881          45.000  
G18  18092200.675    95075158.254       -1310.321          44.000  
G23  18534120.652    97397464.271        1983.646          44.000  
G32  22711272.753   119348538.303        2689.255          38.000  
G22  22584272.267   118681168.136         531.754          28.000  
G10  21471870.985   112835445.555        2818.607          39.000  
> 2024 07 04 09 18 17.7410000  0 10                     
G24  17748973.983    93271493.282        1413.938          45.000  
G27  22309154.123   117235393.897        -821.002          36.000  
G05  21015909.395   110439317.777       -3107.709          38.000  
G13  20398022.261   107192332.820       -3384.495          39.000  
G15  17924947.319    94196238.098       -2090.902          45.000  
G18  18092225.507    95075289.292       -1310.614          44.000  
G23  18534082.907    97397265.929        1983.281          44.000  
G32  22711221.606   119348269.401        2688.841          38.000  
G22  22584261.989   118681115.077         530.743          28.000  
G10  21471817.396   112835163.759        2817.849          39.000  
> 2024 07 04 09 18 17.8410000  0 10                     
G24  17748947.075    93271351.888        1413.896          45.000  
G27  22309169.741   117235475.960        -820.603          36.000  
G05  21015968.534   110439628.547       -3107.776          38.000  
G13  20398086.687   107192671.204       -3383.683          39.000  
G15  17924987.157    94196447.167       -2090.580          45.000  
G18  18092250.548    95075420.340       -1310.559          44.000  
G23  18534045.214    97397067.563        1983.694          44.000  
G32  22711170.390   119348000.469        2689.149          38.000  
G22  22584252.129   118681061.911         531.446          28.000  
G10  21471763.771   112834881.913        2818.352          39.000  
> 2024 07 04 09 18 17.9410000  0 10                     
G24  17748920.254    93271210.532        1413.578          45.000  
G27  22309185.342   117235558.043        -820.682          36.000  
G05  21016027.690   110439939.314       -3107.660          38.000  
G13  20398151.061   107193009.628       -3384.321          39.000  
G15  17925026.909    94196656.270       -2091.024          45.000  
G18  18092275.519    95075551.402       -1310.687          44.000  
G23  18534007.452    97396869.238        1983.326          44.000  
G32  22711119.208   119347731.551        2689.138          38.000  
G22  22584243.317   118681008.831         530.891          28.000  
G10  21471710.147   112834600.101        2818.188          39.000  
> 2024 07 04 09 18 18.0410000  0 10                     
G24  17748893.398    93271069.174        1413.443          45.000  
G27  22309200.925   117235640.175        -821.476          36.000  
G05  21016086.846   110440250.105       -3107.953          38.000  
G13  20398215.504   107193348.052       -3384.411          39.000  
G15  17925066.765    94196865.370       -2090.991          45.000  
G18  18092300.456    95075682.486       -1310.913          44.000  
G23  18533969.672    97396670.914        1983.252          44.000  
G32  22711068.027   119347462.668        2688.663          38.000  
G22  22584233.911   118680955.742         530.771          28.000  
G10  21471656.505   112834318.279        2818.383          39.000  
> 2024 07 04 09 18 18.1410000  0 10                     
G24  17748866.490    93270927.857        1412.947          45.000  
G27  22309216.525   117235722.305        -821.318          36.000  
G05  21016145.950   110440560.902       -3107.721          38.000  
G13  20398279.913   107193686.498       -3384.411          39.000  
G15  17925106.569    94197074.519       -2091.618          45.000  
G18  18092325.410    95075813.582       -1311.011          44.000  
G23  18533931.910    97396472.637        1982.576          44.000  
G32  22711016.810   119347193.791        2688.638          38.000  
G22  22584223.598   118680902.667         530.779          28.000  
G10  21471602.863   112834036.517        2817.396          39.000  
> 2024 07 04 09 18 18.2410000  0 10                     
G24  17748839.721    93270786.540        1413.265          45.000  
G27  22309232.108   117235804.471        -821.632          36.000  
G05  21016205.019   110440871.730       -3108.496          38.000  
G13  20398344.322   107194024.944       -3384.392          39.000  
G15  17925146.443    94197283.655       -2091.344          45.000  
G18  18092350.363    95075944.708       -1311.285          44.000  
G23  18533894.165    97396274.325        1983.123          44.000  
G32  22710965.594   119346924.920        2688.598          38.000  
G22  22584213.599   118680849.667         530.099          28.000  
G10  21471549.186   112833754.716        2817.977          39.000  
> 2024 07 04 09 18 18.3410000  0 10                     
G24  17748812.865    93270645.246        1412.870          45.000  
G27  22309247.709   117235886.651        -821.983          36.000  
G05  21016264.210   110441182.595       -3108.838          38.000  
G13  20398408.713   107194363.445       -3384.979          39.000  
G15  17925186.229    94197492.807       -2091.585          45.000  
G18  18092375.265    95076075.855       -1311.652          44.000  
G23  18533856.490    97396076.056        1982.662          44.000  
G32  22710914.500   119346656.085        2688.238          38.000  
G22  22584203.565   118680796.617         530.339          28.000  
G10  21471495.666   112833472.970        2817.611          39.000  
> 2024 07 04 09 18 18.4410000  0 10                     
G24  17748786.027    93270503.977        1412.645          45.000  
G27  22309263.362   117235968.823        -821.734          36.000  
G05  21016323.297   110441493.397       -3108.075          38.000  
G13  20398473.157   107194701.928       -3384.763          39.000  
G15  17925226.016    94197701.987       -2091.879          45.000  
G18  18092400.254    95076207.016       -1311.670          44.000  
G23  18533818.780    97395877.805        1982.379          44.000  
G32  22710863.301   119346387.221        2688.635          38.000  
G22  22584193.497   118680743.616         530.008          28.000  
G10  21471441.989   112833191.180        2818.061          39.000  
> 2024 07 04 09 18 18.5410000  0 10                     
G24  17748759.206    93270362.716        1412.504          45.000  
G27  22309278.927   117236051.029        -822.290          36.000  
G05  21016382.435   110441804.279       -3108.844          38.000  
G13  20398537.688   107195040.402       -3384.804          39.000  
G15  17925265.872    94197911.158       -2091.723          45.000  
G18  18092425.190    95076338.171       -1311.572          44.000  
G23  18533781.070    97395679.541        1982.528          44.000  
G32  22710812.154   119346118.399        2688.177          38.000  
G22  22584183.463   118680690.567         530.311          28.000  
G10  21471388.382   112832909.442        2817.470          39.000  
> 2024 07 04 09 18 18.6410000  0 10                     
G24  17748732.228    93270221.451        1412.578          45.000  
G27  22309294.580   117236133.218        -822.016          36.000  
G05  21016441.557   110442115.100       -3108.411          38.000  
G13  20398602.132   107195378.895       -3385.064          39.000  
G15  17925305.676    94198120.329       -2091.631          45.000  
G18  18092450.144    95076469.349       -1311.810          44.000  
G23  18533743.378    97395481.277        1982.663          44.000  
G32  22710761.025   119345849.535        2688.657          38.000  
G22  22584173.429   118680637.534         530.431          28.000  
G10  21471334.845   112832627.678        2817.695          39.000  
> 2024 07 04 09 18 18.7410000  0 10                     
G24  17748705.285    93270080.205        1412.543          45.000  
G27  22309310.233   117236215.407        -821.652          36.000  
G05  21016500.678   110442425.971       -3108.734          38.000  
G13  20398666.488   107195717.370       -3384.840          39.000  
G15  17925345.445    94198329.535       -2092.136          45.000  
G18  18092475.098    95076600.541       -1311.877          44.000  
G23  18533705.616    97395283.037        1982.420          44.000  
G32  22710709.861   119345580.718        2688.129          38.000  
G22  22584163.203   118680584.553         529.942          28.000  
G10  21471281.273   112832345.959        2817.039          39.000  
> 2024 07 04 09 18 18.8410000  0 10                     
G24  17748678.446    93269938.977        1412.260          45.000  
G27  22309325.973   117236297.650        -822.347          36.000  
G05  21016559.922   110442736.833       -3108.478          38.000  
G13  20398730.914   107196055.874       -3385.068          39.000  
G15  17925385.249    94198538.727       -2091.949          45.000  
G18  18092500.139    95076731.730       -1311.884          44.000  
G23  18533667.906    97395084.798        1982.485          44.000  
G32  22710658.715   119345311.890        2688.414          38.000  
G22  22584154.268   118680531.587         529.698          28.000  
G10  21471227.666   112832064.206        2817.558          39.000  
> 2024 07 04 09 18 18.9410000  0 10                     
G24  17748651.468    93269797.750        1412.119          45.000  
G27  22309341.539   117236379.874        -822.437          36.000  
G05  21016619.043   110443047.698       -3108.765          38.000  
G13  20398795.288   107196394.365       -3384.911          39.000  
G15  17925425.106    94198747.918       -2091.988          45.000  
G18  18092525.162    95076862.944       -1312.219          44.000  
G23  18533630.248    97394886.573        1982.106          44.000  
G32  22710607.446   119345043.069        2688.156          38.000  
G22  22584143.519   118680478.575         530.124          28.000  
G10  21471174.059   112831782.450        2817.345          39.000  
> 2024 07 04 09 18 19.0410000  0 10                     
G24  17748624.560    93269656.536        1412.121          45.000  
G27  22309357.122   117236462.124        -822.476          36.000  
G05  21016678.269   110443358.598       -3109.131          38.000  
G13  20398859.697   107196732.872       -3384.972          39.000  
G15  17925465.067    94198957.134       -2092.276          45.000  
G18  18092550.151    95076994.165       -1312.292          44.000  
G23  18533592.556    97394688.341        1982.274          44.000  
G32  22710556.369   119344774.284        2687.666          38.000  
G22  22584134.236   118680425.575         530.106          28.000  
G10  21471120.469   112831500.725        2817.099          39.000  
> 2024 07 04 09 18 19.1410000  0 10                     
G24  17748597.739    93269515.360        1411.611          45.000  
G27  22309372.705   117236544.389        -822.738          36.000  
G05  21016737.513   110443669.471       -3108.642          38.000  
G13  20398924.053   107197071.413       -3385.625          39.000  
G15  17925504.836    94199166.360       -2092.397          45.000  
G18  18092575.122    95077125.400       -1312.537          44.000  
G23  18533554.828    97394490.126        1982.106          44.000  
G32  22710505.205   119344505.456        2688.267          38.000  
G22  22584124.080   118680372.679         529.053          28.000  
G10  21471066.862   112831219.002        2817.164          39.000  
> 2024 07 04 09 18 19.2410000  0 10                     
G24  17748570.796    93269374.167        1411.840          45.000  
G27  22309388.270   117236626.671        -823.138          36.000  
G05  21016796.634   110443980.375       -3109.137          38.000  
G13  20398988.479   107197409.937       -3385.284          39.000  
G15  17925544.639    94199375.598       -2092.501          45.000  
G18  18092600.094    95077256.656       -1312.689          44.000  
G23  18533517.083    97394291.932        1981.956          44.000  
G32  22710454.041   119344236.664        2687.868          38.000  
G22  22584113.993   118680319.758         528.959          28.000  
G10  21471013.220   112830937.272        2817.134          39.000  
> 2024 07 04 09 18 19.3410000  0 10                     
G24  17748543.940    93269233.022        1411.436          45.000  
G27  22309403.923   117236708.950        -822.732          36.000  
G05  21016855.842   110444291.315       -3109.088          38.000  
G13  20399052.923   107197748.494       -3385.820          39.000  
G15  17925584.461    94199584.854       -2092.685          45.000  
G18  18092625.117    95077387.945       -1313.092          44.000  
G23  18533479.443    97394093.759        1981.593          44.000  
G32  22710402.964   119343967.931        2687.142          38.000  
G22  22584103.698   118680266.821         529.217          28.000  
G10  21470959.735   112830655.580        2816.833          39.000  
> 2024 07 04 09 18 19.4410000  0 10                     
G24  17748517.067    93269091.872        1411.425          45.000  
G27  22309419.489   117236791.254        -823.156          36.000  
G05  21016914.946   110444602.226       -3109.003          38.000  
G13  20399117.349   107198087.032       -3385.328          39.000  
G15  17925624.282    94199794.123       -2092.868          45.000  
G18  18092650.071    95077519.222       -1312.830          44.000  
G23  18533441.681    97393895.583        1981.619          44.000  
G32  22710351.800   119343699.136        2688.013          38.000  
G22  22584092.722   118680213.878         529.243          28.000  
G10  21470906.163   112830373.898        2816.795          39.000  
> 2024 07 04 09 18 19.5410000  0 10                     
G24  17748490.263    93268950.776        1410.842          45.000  
G27  22309435.194   117236873.609        -823.814          36.000  
G05  21016974.172   110444913.198       -3109.839          38.000  
G13  20399181.775   107198425.614       -3385.820          39.000  
G15  17925664.139    94200003.413       -2093.064          45.000  
G18  18092675.077    95077650.545       -1313.568          44.000  
G23  18533404.058    97393697.428        1981.431          44.000  
G32  22710300.653   119343430.401        2686.967          38.000  
G22  22584081.763   118680161.035         528.272          28.000  
G10  21470852.626   112830092.206        2816.667          39.000  
> 2024 07 04 09 18 19.6410000  0 10                     
G24  17748463.390    93268809.693        1410.740          45.000  
G27  22309450.899   117236955.940        -823.473          36.000  
G05  21017033.241   110445224.162       -3109.564          38.000  
G13  20399246.237   107198764.229       -3386.306          39.000  
G15  17925704.012    94200212.738       -2093.350          45.000  
G18  18092700.066    95077781.896       -1313.635          44.000  
G23  18533366.314    97393499.317        1980.991          44.000  
G32  22710249.559   119343161.677        2687.148          38.000  
G22  22584071.450   118680108.182         528.288          28.000  
G10  21470799.088   112829810.563        2816.443          39.000  
> 2024 07 04 09 18 19.7410000  0 10                     
G24  17748436.551    93268668.582        1411.122          45.000  
G27  22309466.534   117237038.284        -823.378          36.000  
G05  21017092.432   110445535.134       -3109.723          38.000  
G13  20399310.715   107199102.784       -3385.693          39.000  
G15  17925743.816    94200422.021       -2092.808          45.000  
G18  18092725.055    95077913.211       -1313.025          44.000  
G23  18533328.586    97393301.156        1981.555          44.000  
G32  22710198.430   119342892.926        2687.606          38.000  
G22  22584062.376   118680055.300         528.767          28.000  
G10  21470745.481   112829528.885        2816.731          39.000  
> 2024 07 04 09 18 19.8410000  0 10                     
G24  17748409.695    93268527.495        1410.701          45.000  
G27  22309482.222   117237120.663        -823.985          36.000  
G05  21017151.641   110445846.091       -3109.650          38.000  
G13  20399375.229   107199441.384       -3386.007          39.000  
G15  17925783.673    94200631.335       -2093.104          45.000  
G18  18092750.165    95078044.572       -1313.684          44.000  
G23  18533290.964    97393103.034        1981.137          44.000  
G32  22710147.231   119342624.202        2687.104          38.000  
G22  22584051.679   118680002.437         528.861          28.000  
G10  21470691.892   112829247.229        2816.398          39.000  
> 2024 07 04 09 18 19.9410000  0 10                     
G24  17748382.892    93268386.455        1410.244          45.000  
G27  22309497.770   117237203.055        -823.824          36.000  
G05  21017210.780   110446157.071       -3109.637          38.000  
G13  20399439.550   107199779.981       -3386.068          39.000  
G15  17925823.459    94200840.669       -2093.467          45.000  
G18  18092775.189    95078175.950       -1313.934          44.000  
G23  18533253.219    97392904.922        1980.950          44.000  
G32  22710096.102   119342355.495        2686.997          38.000  
G22  22584041.261   118679949.577         528.673          28.000  
G10  21470638.320   112828965.577        2816.435          39.000  
> 2024 07 04 09 18 20.0410000  0 10                     
G24  17748356.088    93268245.409        1410.430          45.000  
G27  22309513.423   117237285.431        -823.829          36.000  
G05  21017269.988   110446468.083       -3109.955          38.000  
G13  20399503.994   107200118.602       -3386.119          39.000  
G15  17925863.246    94201050.014       -2093.482          45.000  
G18  18092800.195    95078307.338       -1313.934          44.000  
G23  18533215.544    97392706.821        1980.857          44.000  
G32  22710044.990   119342086.779        2687.253          38.000  
G22  22584031.384   118679896.758         528.191          28.000  
G10  21470584.730   112828683.939        2816.489          39.000  
> 2024 07 04 09 18 20.1410000  0 10                     
G24  17748329.232    93268104.348        1410.590          45.000  
G27  22309529.024   117237367.844        -823.946          36.000  
G05  21017329.145   110446779.058       -3109.668          38.000  
G13  20399568.350   107200457.212       -3386.135          39.000  
G15  17925903.172    94201259.347       -2093.372          45.000  
G18  18092825.219    95078438.714       -1313.721          44.000  
G23  18533177.904    97392508.704        1981.183          44.000  
G32  22709993.931   119341818.090        2686.878          38.000  
G22  22584020.827   118679843.949         528.038          28.000  
G10  21470531.140   112828402.288        2816.683          39.000  
> 2024 07 04 09 18 20.2410000  0 10                     
G24  17748302.481    93267963.342        1409.926          45.000  
G27  22309544.694   117237450.260        -824.157          36.000  
G05  21017388.371   110447090.103       -3110.791          38.000  
G13  20399632.759   107200795.848       -3386.411          39.000  
G15  17925943.045    94201468.718       -2093.802          45.000  
G18  18092850.207    95078570.133       -1314.343          44.000  
G23  18533140.176    97392310.630        1980.695          44.000  
G32  22709942.854   119341549.402        2686.857          38.000  
G22  22584010.112   118679791.188         527.566          28.000  
G10  21470477.551   112828120.680        2815.742          39.000  
> 2024 07 04 09 18 20.3410000  0 10                     
G24  17748275.608    93267822.362        1409.708          45.000  
G27  22309560.382   117237532.718        -824.631          36.000  
G05  21017447.510   110447401.128       -3110.358          38.000  
G13  20399697.237   107201134.506       -3386.643          39.000  
G15  17925982.867    94201678.113       -2094.095          45.000  
G18  18092875.266    95078701.585       -1314.624          44.000  
G23  18533102.554    97392112.575        1980.459          44.000  
G32  22709891.795   119341280.748        2686.500          38.000  
G22  22584000.061   118679738.373         527.897          28.000  
G10  21470423.979   112827839.100        2815.721          39.000  
> 2024 07 04 09 18 20.4410000  0 10                     
G24  17748248.717    93267681.359        1409.923          45.000  
G27  22309576.104   117237615.168        -824.514          36.000  
G05  21017506.736   110447712.145       -3110.125          38.000  
G13  20399761.646   107201473.122       -3385.939          39.000  
G15  17926022.671    94201887.472       -2093.584          45.000  
G18  18092900.237    95078833.004       -1314.252          44.000  
G23  18533064.844    97391914.493        1980.822          44.000  
G32  22709840.596   119341012.067        2686.824          38.000  
G22  22583990.655   118679685.600         527.691          28.000  
G10  21470370.389   112827557.434        2816.807          39.000  
> 2024 07 04 09 18 20.5410000  0 10                     
G24  17748221.931    93267540.389        1409.635          45.000  
G27  22309591.792   117237697.597        -824.216          36.000  
G05  21017565.944   110448023.202       -3110.876          38.000  
G13  20399826.142   107201811.790       -3386.694          39.000  
G15  17926062.579    94202096.876       -2094.151          45.000  
G18  18092925.261    95078964.467       -1314.612          44.000  
G23  18533027.169    97391716.445        1980.317          44.000  
G32  22709789.449   119340743.404        2686.574          38.000  
G22  22583980.185   118679632.835         527.491          28.000  
G10  21470316.852   112827275.857        2815.856          39.000  
> 2024 07 04 09 18 20.6410000  0 10                     
G24  17748195.075    93267399.436        1409.427          45.000  
G27  22309607.462   117237780.117        -825.272          36.000  
G05  21017625.118   110448334.269       -3110.504          38.000  
G13  20399890.586   107202150.468       -3386.712          39.000  
G15  17926102.436    94202306.283       -2094.198          45.000  
G18  18092950.302    95079095.953       -1315.015          44.000  
G23  18532989.494    97391518.399        1980.338          44.000  
G32  22709738.285   119340474.748        2686.559          38.000  
G22  22583970.064   118679580.103         527.221          28.000  
G10  21470263.297   112826994.257        2816.146          39.000  
> 2024 07 04 09 18 20.7410000  0 10                     
G24  17748168.324    93267258.516        1409.097          45.000  
G27  22309623.080   117237862.624        -825.199          36.000  
G05  21017684.239   110448645.352       -3110.962          38.000  
G13  20399955.047   107202489.142       -3386.631          39.000  
G15  17926142.275    94202515.725       -2094.404          45.000  
G18  18092975.273    95079227.454       -1315.100          44.000  
G23  18532951.749    97391320.385        1980.129          44.000  
G32  22709687.191   119340206.148        2686.121          38.000  
G22  22583960.013   118679527.351         527.403          28.000  
G10  21470209.690   112826712.688        2815.689          39.000  
> 2024 07 04 09 18 20.8410000  0 10                     
G24  17748141.433    93267117.592        1409.166          45.000  
G27  22309638.838   117237945.126        -825.034          36.000  
G05  21017743.518   110448956.439       -3111.169          38.000  
G13  20400019.491   107202827.844       -3387.028          39.000  
G15  17926182.148    94202725.153       -2094.275          45.000  
G18  18093000.262    95079358.964       -1315.216          44.000  
G23  18532914.091    97391122.380        1980.034          44.000  
G32  22709636.062   119339937.508        2686.466          38.000  
G22  22583949.351   118679474.664         526.801          28.000  
G10  21470156.240   112826431.145        2815.448          39.000  
> 2024 07 04 09 18 20.9410000  0 10                     
G24  17748114.665    93266976.704        1408.780          45.000  
G27  22309654.543   117238027.679        -825.880          36.000  
G05  21017802.709   110449267.537       -3111.145          38.000  
G13  20400083.917   107203166.568       -3387.228          39.000  
G15  17926221.952    94202934.632       -2095.007          45.000  
G18  18093025.286    95079490.518       -1315.771          44.000  
G23  18532876.469    97390924.386        1979.833          44.000  
G32  22709585.020   119339668.921        2685.659          38.000  
G22  22583939.317   118679421.988         526.610          28.000  
G10  21470102.668   112826149.593        2815.625          39.000  
> 2024 07 04 09 18 21.0410000  0 10                     
G24  17748087.913    93266835.853        1408.396          45.000  
G27  22309670.248   117238110.269        -825.936          36.000  
G05  21017861.882   110449578.679       -3111.444          38.000  
G13  20400148.343   107203505.310       -3387.586          39.000  
G15  17926261.878    94203144.113       -2094.855          45.000  
G18  18093050.327    95079622.082       -1315.820          44.000  
G23  18532838.776    97390726.438        1979.426          44.000  
G32  22709533.891   119339400.340        2686.037          39.000  
G22  22583929.387   118679369.307         526.621          28.000  
G10  21470049.165   112825868.072        2814.930          39.000  
> 2024 07 04 09 18 21.1410000  0 10                     
G24  17748061.075    93266694.990        1408.563          45.000  
G27  22309685.866   117238192.783        -825.333          36.000  
G05  21017921.091   110449889.800       -3111.401          38.000  
G13  20400212.699   107203844.040       -3387.486          39.000  
G15  17926301.787    94203353.606       -2095.028          45.000  
G18  18093075.368    95079753.638       -1315.674          44.000  
G23  18532801.171    97390528.456        1979.808          44.000  
G32  22709482.814   119339131.789        2685.676          39.000  
G22  22583919.720   118679316.667         526.408          28.000  
G10  21469995.576   112825586.545        2815.268          39.000  
> 2024 07 04 09 18 21.2410000  0 10                     
G24  17748034.271    93266554.168        1408.071          45.000  
G27  22309701.676   117238275.416        -826.145          36.000  
G05  21017980.265   110450200.948       -3111.444          38.000  
G13  20400277.230   107204182.786       -3387.344          39.000  
G15  17926341.643    94203563.116       -2095.143          45.000  
G18  18093100.356    95079885.256       -1316.370          44.000  
G23  18532763.478    97390330.523        1979.325          44.000  
G32  22709431.633   119338863.196        2685.890          38.000  
G22  22583909.773   118679263.992         526.733          28.000  
G10  21469941.986   112825305.031        2815.032          39.000  
> 2024 07 04 09 18 21.3410000  0 10                     
G24  17748007.450    93266413.349        1408.117          45.000  
G27  22309717.381   117238358.005        -825.923          35.000  
G05  21018039.438   110450512.135       -3112.170          38.000  
G13  20400341.744   107204521.563       -3387.760          39.000  
G15  17926381.482    94203772.644       -2095.357          45.000  
G18  18093125.415    95080016.862       -1316.101          44.000  
G23  18532725.838    97390132.597        1979.139          44.000  
G32  22709380.538   119338594.691        2684.861          39.000  
G22  22583899.879   118679211.399         526.049          28.000  
G10  21469888.501   112825023.543        2814.875          39.000  
> 2024 07 04 09 18 21.4410000  0 10                     
G24  17747980.717    93266272.569        1407.625          45.000  
G27  22309733.191   117238440.665        -826.719          35.000  
G05  21018098.682   110450823.297       -3111.591          38.000  
G13  20400406.135   107204860.352       -3388.031          39.000  
G15  17926421.373    94203982.193       -2095.689          45.000  
G18  18093150.438    95080148.516       -1316.736          44.000  
G23  18532688.216    97389934.684        1978.974          44.000  
G32  22709329.374   119338326.147        2685.300          38.000  
G22  22583889.741   118679158.817         525.628          28.000  
G10  21469834.877   112824742.035        2815.140          39.000  
> 2024 07 04 09 18 21.5410000  0 10                     
G24  17747953.948    93266131.785        1407.719          45.000  
G27  22309748.862   117238523.299        -826.446          36.000  
G05  21018157.908   110451134.488       -3111.743          38.000  
G13  20400470.666   107205199.136       -3387.810          39.000  
G15  17926461.247    94204191.737       -2095.471          45.000  
G18  18093175.514    95080280.158       -1316.479          44.000  
G23  18532650.506    97389736.777        1979.092          44.000  
G32  22709278.228   119338057.612        2685.503          38.000  
G22  22583879.567   118679106.210         525.709          28.000  
G10  21469781.304   112824460.583        2814.550          39.000  
> 2024 07 04 09 18 21.6410000  0 10                     
G24  17747927.145    93265991.032        1407.364          45.000  
G27  22309764.532   117238605.972        -826.866          35.000  
G05  21018217.064   110451445.713       -3112.384          38.000  
G13  20400535.075   107205537.951       -3388.050          39.000  
G15  17926501.121    94204401.311       -2095.853          45.000  
G18  18093200.556    95080411.833       -1316.907          44.000  
G23  18532612.848    97389538.901        1978.680          44.000  
G32  22709227.134   119337789.117        2684.762          39.000  
G22  22583869.516   118679053.630         525.728          28.000  
G10  21469727.645   112824179.131        2814.441          39.000  
> 2024 07 04 09 18 21.7410000  0 10                     
G24  17747900.324    93265850.213        1408.584          45.000  
G27  22309780.220   117238688.581        -825.691          36.000  
G05  21018276.308   110451756.853       -3110.876          38.000  
G13  20400599.501   107205876.700       -3387.244          39.000  
G15  17926541.047    94204610.824       -2094.706          45.000  
G18  18093225.527    95080543.449       -1315.894          44.000  
G23  18532575.086    97389340.946        1979.917          44.000  
G32  22709175.952   119337520.558        2685.921          38.000  
G22  22583859.447   118679001.036         525.963          28.000  
G10  21469674.055   112823897.619        2815.656          39.000  
> 2024 07 04 09 18 21.8410000  0 10                     
G24  17747873.485    93265709.336        1408.845          45.000  
G27  22309795.838   117238771.135        -825.710          35.000  
G05  21018335.551   110452067.938       -3110.919          38.000  
G13  20400663.927   107206215.331       -3386.132          39.000  
G15  17926580.833    94204820.262       -2094.278          45.000  
G18  18093250.638    95080675.000       -1315.509          44.000  
G23  18532537.358    97389142.931        1980.317          44.000  
G32  22709124.875   119337251.913        2686.428          38.000  
G22  22583849.256   118678948.318         527.212          28.000  
G10  21469620.483   112823615.987        2816.176          39.000  
> 2024 07 04 09 18 21.9410000  0 10                     
G24  17747846.629    93265568.502        1408.267          45.000  
G27  22309811.578   117238853.680        -825.373          35.000  
G05  21018394.760   110452379.043       -3110.919          38.000  
G13  20400728.423   107206554.081       -3387.298          39.000  
G15  17926620.707    94205029.739       -2094.741          45.000  
G18  18093275.644    95080806.588       -1315.784          44.000  
G23  18532499.631    97388944.959        1979.629          44.000  
G32  22709073.781   119336983.327        2685.771          38.000  
G22  22583838.507   118678895.648         527.102          28.000  
G10  21469567.016   112823334.468        2815.364          39.000  
> 2024 07 04 09 18 22.0410000  0 10                     
G24  17747819.878    93265427.792        1406.479          45.000  
G27  22309827.283   117238936.417        -827.753          35.000  
G05  21018453.986   110452690.284       -3112.927          39.000  
G13  20400792.867   107206892.894       -3388.508          39.000  
G15  17926660.616    94205239.343       -2096.578          45.000  
G18  18093300.772    95080938.311       -1317.822          44.000  
G23  18532462.008    97388747.091        1978.184          44.000  
G32  22709022.704   119336714.829        2684.545          39.000  
G22  22583828.508   118678843.038         526.229          28.000  
G10  21469513.391   112823053.008        2813.965          39.000  
> 2024 07 04 09 18 22.1410000  0 10                     
G24  17747793.109    93265287.160        1406.068          45.000  
G27  22309843.093   117239019.197        -827.605          35.000  
G05  21018513.316   110453001.600       -3113.312          39.000  
G13  20400857.345   107207231.795       -3389.075          39.000  
G15  17926700.490    94205449.030       -2097.013          45.000  
G18  18093325.900    95081070.110       -1318.182          44.000  
G23  18532424.333    97388549.316        1977.549          44.000  
G32  22708971.593   119336446.422        2683.981          39.000  
G22  22583819.102   118678790.661         523.896          28.000  
G10  21469459.871   112822771.643        2813.308          39.000  
> 2024 07 04 09 18 22.2410000  0 10                     
G24  17747766.341    93265146.472        1406.832          45.000  
G27  22309858.815   117239101.908        -827.058          36.000  
G05  21018572.455   110453312.813       -3111.871          39.000  
G13  20400921.824   107207570.643       -3388.580          39.000  
G15  17926740.433    94205658.641       -2096.171          45.000  
G18  18093350.976    95081201.851       -1317.358          44.000  
G23  18532386.728    97388351.469        1978.489          44.000  
G32  22708920.516   119336177.962        2684.559          39.000  
G22  22583809.662   118678738.236         523.568          28.000  
G10  21469406.247   112822490.192        2814.472          39.000  
> 2024 07 04 09 18 22.3410000  0 10                     
G24  17747739.642    93265005.772        1407.057          45.000  
G27  22309874.590   117239184.638        -827.208          35.000  
G05  21018631.734   110453624.076       -3112.469          39.000  
G13  20400986.355   107207909.467       -3388.085          39.000  
G15  17926780.289    94205868.236       -2095.798          45.000  
G18  18093376.105    95081333.577       -1317.041          44.000  
G23  18532349.088    97388153.601        1978.920          44.000  
G32  22708869.491   119335909.469        2685.229          39.000  
G22  22583799.854   118678685.608         525.894          28.000  
G10  21469352.657   112822208.756        2814.496          39.000  
> 2024 07 04 09 18 22.4410000  0 10                     
G24  17747712.891    93264865.121        1406.256          45.000  
G27  22309890.348   117239267.426        -828.089          35.000  
G05  21018691.012   110453935.341       -3112.933          39.000  
G13  20401050.764   107208248.327       -3388.938          39.000  
G15  17926820.198    94206077.897       -2096.864          45.000  
G18  18093401.233    95081465.362       -1318.170          44.000  
G23  18532311.500    97387955.801        1977.666          44.000  
G32  22708818.397   119335641.038        2683.871          39.000  
G22  22583790.396   118678633.121         525.407          28.000  
G10  21469299.137   112821927.347        2813.656          39.000  
> 2024 07 04 09 18 22.5410000  0 10                     
G24  17747686.262    93264724.576        1405.019          45.000  
G27  22309906.088   117239350.277        -829.059          35.000  
G05  21018750.203   110454246.737       -3114.239          39.000  
G13  20401115.120   107208587.285       -3389.826          39.000  
G15  17926860.142    94206287.644       -2097.730          45.000  
G18  18093426.361    95081597.243       -1319.073          44.000  
G23  18532273.825    97387758.095        1976.672          44.000  
G32  22708767.390   119335372.694        2683.217          39.000  
G22  22583780.642   118678580.743         523.983          28.000  
G10  21469245.722   112821646.043        2812.659          39.000  
> 2024 07 04 09 18 22.6410000  0 10                     
G24  17747659.528    93264584.057        1405.095          42.000  
G27  22309921.776   117239433.140        -828.974          35.000  
G05  21018809.499   110454558.114       -3113.873          36.000  
G13  20401179.686   107208926.275       -3390.001          37.000  
G15  17926900.103    94206497.417       -2097.872          43.000  
G18  18093451.507    95081729.146       -1319.153          42.000  
G23  18532236.203    97387560.386        1976.916          43.000  
G32  22708716.278   119335104.384        2682.835          39.000  
G22  22583770.084   118678528.365         523.586          28.000  
G10  21469192.150   112821364.742        2812.778          37.000  
> 2024 07 04 09 18 22.7410000  0 10                     
G24  17747632.812    93264443.509        1405.625          44.000  
G27  22309937.568   117239516.030        -828.582          35.000  
G05  21018868.760   110454869.450       -3113.129          37.000  
G13  20401244.182   107209265.208       -3389.036          37.000  
G15  17926939.959    94206707.148       -2096.990          45.000  
G18  18093476.566    95081861.028       -1318.536          43.000  
G23  18532198.597    97387362.658        1977.385          43.000  
G32  22708665.237   119334835.988        2684.174          37.000  
G22  22583759.841   118678476.071         522.702          28.000  
G10  21469138.630   112821083.409        2813.436          37.000  
> 2024 07 04 09 18 22.8410000  0 10                     
G24  17747606.061    93264302.970        1404.911          45.000  
G27  22309953.291   117239598.894        -828.879          35.000  
G05  21018928.021   110455180.865       -3114.618          39.000  
G13  20401308.730   107209604.168       -3389.951          39.000  
G15  17926979.920    94206916.901       -2097.952          45.000  
G18  18093501.694    95081992.927       -1319.324          44.000  
G23  18532160.853    97387164.933        1976.999          44.000  
G32  22708614.212   119334567.662        2682.881          39.000  
G22  22583750.244   118678423.670         523.581          28.000  
G10  21469085.128   112820802.087        2813.110          39.000  
> 2024 07 04 09 18 22.9410000  0 10                     
G24  17747579.379    93264162.478        1405.235          45.000  
G27  22309969.153   117239681.825        -828.915          35.000  
G05  21018987.247   110455492.255       -3113.330          39.000  
G13  20401373.209   107209943.168       -3389.393          39.000  
G15  17927019.759    94207126.698       -2097.584          45.000  
G18  18093526.805    95082124.868       -1319.055          44.000  
G23  18532123.265    97386967.280        1976.901          44.000  
G32  22708563.083   119334299.346        2683.562          39.000  
G22  22583740.698   118678371.305         523.846          28.000  
G10  21469031.538   112820520.817        2812.957          39.000  
> 2024 07 04 09 18 23.0410000  0 10                     
G24  17747552.645    93264021.912        1405.510          45.000  
G27  22309984.893   117239764.623        -827.851          35.000  
G05  21019046.525   110455803.569       -3113.062          39.000  
G13  20401437.722   107210282.060       -3388.868          39.000  
G15  17927059.737    94207336.392       -2097.077          45.000  
G18  18093551.881    95082256.721       -1318.549          44.000  
G23  18532085.590    97386769.472        1978.156          44.000  
G32  22708512.041   119334030.937        2683.953          39.000  
G22  22583730.874   118678318.905         524.057          28.000  
G10  21468978.019   112820239.419        2814.016          39.000  
> 2024 07 04 09 18 23.1410000  0 10                     
G24  17747525.877    93263881.452        1404.437          45.000  
G27  22310000.686   117239847.602        -829.999          35.000  
G05  21019105.769   110456115.017       -3114.532          39.000  
G13  20401502.096   107210621.083       -3390.114          39.000  
G15  17927099.646    94207546.216       -2098.359          45.000  
G18  18093577.079    95082388.696       -1319.916          44.000  
G23  18532048.002    97386571.866        1976.102          44.000  
G32  22708460.964   119333762.669        2682.617          39.000  
G22  22583720.962   118678266.628         522.939          28.000  
G10  21468924.464   112819958.172        2812.558          39.000  
> 2024 07 04 09 18 23.2410000  0 10                     
G24  17747499.178    93263740.963        1404.983          45.000  
G27  22310016.478   117239930.514        -829.118          35.000  
G05  21019164.943   110456426.415       -3113.788          39.000  
G13  20401566.557   107210960.073       -3389.791          39.000  
G15  17927139.589    94207756.000       -2097.733          45.000  
G18  18093602.137    95082520.645       -1319.507          44.000  
G23  18532010.397    97386374.163        1976.972          44.000  
G32  22708409.888   119333494.335        2683.336          39.000  
G22  22583711.399   118678214.312         523.048          28.000  
G10  21468870.874   112819676.860        2813.049          39.000  
> 2024 07 04 09 18 23.3410000  0 10                     
G24  17747472.479    93263600.511        1404.285          45.000  
G27  22310032.288   117240013.442        -829.167          35.000  
G05  21019224.151   110456737.840       -3114.221          39.000  
G13  20401631.088   107211299.074       -3390.155          39.000  
G15  17927179.568    94207965.799       -2098.099          45.000  
G18  18093627.388    95082652.607       -1319.745          44.000  
G23  18531972.809    97386176.497        1976.508          44.000  
G32  22708358.828   119333226.039        2682.866          39.000  
G22  22583701.662   118678162.018         522.932          28.000  
G10  21468817.442   112819395.588        2812.704          39.000  
> 2024 07 04 09 18 23.4410000  0 10                     
G24  17747445.728    93263460.085        1404.129          45.000  
G27  22310048.098   117240096.445        -829.946          35.000  
G05  21019283.499   110457049.284       -3114.673          39.000  
G13  20401695.532   107211638.090       -3390.300          39.000  
G15  17927219.459    94208175.647       -2098.563          45.000  
G18  18093652.464    95082784.609       -1320.148          44.000  
G23  18531935.221    97385978.863        1976.338          44.000  
G32  22708307.786   119332957.770        2682.552          39.000  
G22  22583691.855   118678109.691         523.312          28.000  
G10  21468763.887   112819114.354        2812.173          39.000  
> 2024 07 04 09 18 23.5410000  0 10                     
G24  17747419.047    93263319.670        1403.983          45.000  
G27  22310063.978   117240179.412        -829.885          35.000  
G05  21019342.760   110457360.758       -3114.642          39.000  
G13  20401760.010   107211977.127       -3390.332          39.000  
G15  17927259.368    94208385.493       -2098.530          45.000  
G18  18093677.540    95082916.626       -1320.245          44.000  
G23  18531897.616    97385781.250        1976.019          44.000  
G32  22708256.849   119332689.496        2682.681          39.000  
G22  22583682.013   118678057.436         522.740          28.000  
G10  21468710.489   112818833.073        2812.708          39.000  
> 2024 07 04 09 18 23.6410000  0 10                     
G24  17747392.313    93263179.301        1403.474          45.000  
G27  22310079.787   117240262.462        -830.696          35.000  
G05  21019402.091   110457672.267       -3115.350          39.000  
G13  20401824.506   107212316.209       -3391.141          39.000  
G15  17927299.329    94208595.374       -2099.115          45.000  
G18  18093702.633    95083048.684       -1320.868          44.000  
G23  18531859.993    97385583.656        1975.698          44.000  
G32  22708205.772   119332421.255        2682.408          39.000  
G22  22583671.421   118678005.232         521.923          28.000  
G10  21468657.039   112818551.896        2811.468          39.000  
> 2024 07 04 09 18 23.7410000  0 10                     
G24  17747365.631    93263038.961        1403.231          45.000  
G27  22310095.615   117240345.495        -830.263          35.000  
G05  21019461.422   110457983.778       -3115.204          39.000  
G13  20401889.037   107212655.308       -3391.224          39.000  
G15  17927339.290    94208805.292       -2099.332          45.000  
G18  18093727.796    95083180.777       -1321.063          44.000  
G23  18531822.406    97385386.091        1975.542          44.000  
G32  22708154.765   119332153.069        2681.688          39.000  
G22  22583661.230   118677953.032         521.760          28.000  
G10  21468603.502   112818270.687        2811.967          39.000  
> 2024 07 04 09 18 23.8410000  0 10                     
G24  17747338.950    93262898.627        1403.357          45.000  
G27  22310111.425   117240428.596        -830.946          35.000  
G05  21019520.648   110458295.300       -3115.118          39.000  
G13  20401953.516   107212994.408       -3390.945          39.000  
G15  17927379.233    94209015.198       -2098.991          45.000  
G18  18093752.925    95083312.869       -1320.990          44.000  
G23  18531784.888    97385188.529        1975.610          44.000  
G32  22708103.741   119331884.873        2681.785          39.000  
G22  22583651.510   118677900.838         521.827          28.000  
G10  21468549.982   112817989.470        2812.223          39.000  
> 2024 07 04 09 18 23.9410000  0 10                     
G24  17747312.269    93262758.313        1403.142          45.000  
G27  22310127.235   117240511.649        -830.635          35.000  
G05  21019579.944   110458606.870       -3116.040          39.000  
G13  20402018.064   107213333.514       -3391.198          39.000  
G15  17927419.124    94209225.130       -2099.368          45.000  
G18  18093778.140    95083444.988       -1321.313          44.000  
G23  18531747.282    97384991.001        1975.021          44.000  
G32  22708052.716   119331616.656        2682.178          39.000  
G22  22583642.331   118677848.679         521.432          28.000  
G10  21468496.567   112817708.349        2811.019          39.000  
> 2024 07 04 09 18 24.0410000  0 10                     
G24  17747285.570    93262618.026        1402.799          45.000  
G27  22310143.079   117240594.794        -831.733          35.000  
G05  21019639.152   110458918.431       -3115.820          39.000  
G13  20402082.560   107213672.662       -3391.577          39.000  
G15  17927459.068    94209435.100       -2099.734          45.000  
G18  18093803.216    95083577.136       -1321.631          44.000  
G23  18531709.660    97384793.478        1975.060          44.000  
G32  22708001.727   119331348.511        2681.383          39.000  
G22  22583632.140   118677796.530         521.359          28.000  
G10  21468443.082   112817427.188        2811.494          39.000  
> 2024 07 04 09 18 24.1410000  0 10                     
G24  17747258.871    93262477.768        1402.519          45.000  
G27  22310158.907   117240677.877        -830.822          35.000  
G05  21019698.535   110459230.015       -3116.095          39.000  
G13  20402147.073   107214011.804       -3391.570          39.000  
G15  17927499.064    94209645.067       -2099.788          45.000  
G18  18093828.345    95083709.301       -1321.826          44.000  
G23  18531672.055    97384595.979        1974.797          44.000  
G32  22707950.702   119331080.337        2681.870          39.000  
G22  22583622.508   118677744.413         521.057          28.000  
G10  21468389.527   112817146.030        2811.348          39.000  
> 2024 07 04 09 18 24.2410000  0 10                     
G24  17747232.242    93262337.533        1402.268          45.000  
G27  22310174.752   117240761.052        -831.613          35.000  
G05  21019757.779   110459541.588       -3115.796          39.000  
G13  20402211.657   107214350.956       -3391.548          39.000  
G15  17927538.990    94209855.055       -2099.922          45.000  
G18  18093853.578    95083841.483       -1321.936          44.000  
G23  18531634.502    97384398.488        1974.740          44.000  
G32  22707899.678   119330812.207        2681.273          39.000  
G22  22583613.242   118677692.291         521.094          28.000  
G10  21468335.990   112816864.931        2810.758          39.000  
> 2024 07 04 09 18 24.3410000  0 10                     
G24  17747205.561    93262197.286        1402.466          45.000  
G27  22310190.614   117240844.227        -831.877          35.000  
G05  21019817.109   110459853.210       -3116.254          39.000  
G13  20402276.223   107214690.138       -3391.773          39.000  
G15  17927578.934    94210065.050       -2099.877          45.000  
G18  18093878.636    95083973.674       -1321.936          44.000  
G23  18531596.896    97384200.992        1975.000          44.000  
G32  22707848.689   119330544.088        2681.463          39.000  
G22  22583602.667   118677640.183         520.881          28.000  
G10  21468282.435   112816583.793        2811.173          39.000  
> 2024 07 04 09 18 24.4410000  0 10                     
G24  17747178.827    93262057.060        1402.263          45.000  
G27  22310206.406   117240927.358        -831.316          35.000  
G05  21019876.353   110460164.799       -3115.796          39.000  
G13  20402340.858   107215029.286       -3391.327          39.000  
G15  17927618.877    94210275.041       -2099.983          45.000  
G18  18093903.834    95084105.870       -1322.083          44.000  
G23  18531559.344    97384003.514        1974.768          44.000  
G32  22707797.751   119330275.936        2681.247          39.000  
G22  22583593.366   118677588.087         520.842          28.000  
G10  21468228.881   112816302.649        2811.518          39.000  
> 2024 07 04 09 18 24.5410000  0 10                     
G24  17747152.163    93261916.864        1401.735          45.000  
G27  22310222.286   117241010.565        -832.379          35.000  
G05  21019935.666   110460476.408       -3115.961          39.000  
G13  20402405.389   107215368.467       -3391.977          39.000  
G15  17927658.873    94210485.062       -2100.265          45.000  
G18  18093928.963    95084238.095       -1322.302          44.000  
G23  18531521.773    97383806.045        1974.634          44.000  
G32  22707746.779   119330007.856        2680.527          39.000  
G22  22583583.524   118677536.021         520.576          28.000  
G10  21468175.448   112816021.547        2810.948          39.000  
> 2024 07 04 09 18 24.6410000  0 10                     
G24  17747125.516    93261776.667        1401.904          45.000  
G27  22310238.113   117241093.736        -831.940          35.000  
G05  21019995.032   110460788.072       -3116.711          39.000  
G13  20402469.868   107215707.678       -3392.072          39.000  
G15  17927698.851    94210695.100       -2100.447          45.000  
G18  18093954.161    95084370.330       -1322.424          44.000  
G23  18531484.081    97383608.601        1974.418          44.000  
G32  22707695.702   119329739.719        2681.313          39.000  
G22  22583574.345   118677483.979         520.229          28.000  
G10  21468121.893   112815740.461        2811.042          39.000  
> 2024 07 04 09 18 24.7410000  0 10                     
G24  17747098.783    93261636.497        1401.442          45.000  
G27  22310254.028   117241176.976        -832.513          35.000  
G05  21020054.345   110461099.690       -3116.412          39.000  
G13  20402534.433   107216046.890       -3392.089          39.000  
G15  17927738.882    94210905.148       -2100.619          45.000  
G18  18093979.289    95084502.592       -1322.650          44.000  
G23  18531446.598    97383411.181        1974.020          44.000  
G32  22707644.661   119329471.616        2680.752          39.000  
G22  22583564.067   118677431.909         520.410          27.000  
G10  21468068.409   112815459.370        2810.719          39.000  
> 2024 07 04 09 18 24.8410000  0 10                     
G24  17747072.171    93261496.344        1401.408          45.000  
G27  22310269.925   117241260.198        -832.272          35.000  
G05  21020113.711   110461411.369       -3116.809          39.000  
G13  20402598.982   107216386.071       -3391.952          39.000  
G15  17927778.791    94211115.200       -2100.637          45.000  
G18  18094004.435    95084634.862       -1322.815          44.000  
G23  18531409.062    97383213.737        1974.288          44.000  
G32  22707593.706   119329203.560        2680.646          39.000  
G22  22583554.452   118677379.798         520.968          27.000  
G10  21468014.889   112815178.304        2810.426          39.000  
> 2024 07 04 09 18 24.9410000  0 10                     
G24  17747045.542    93261356.205        1401.447          45.000  
G27  22310285.630   117241343.434        -832.437          35.000  
G05  21020172.972   110461723.026       -3116.418          39.000  
G13  20402663.530   107216725.322       -3392.623          39.000  
G15  17927818.839    94211325.273       -2100.789          45.000  
G18  18094029.650    95084767.156       -1323.090          44.000  
G23  18531371.492    97383016.334        1973.922          44.000  
G32  22707542.559   119328935.474        2680.822          39.000  
G22  22583544.575   118677327.868         519.468          27.000  
G10  21467961.421   112814897.206        2811.028          39.000  
> 2024 07 04 09 18 25.0410000  0 10                     
G24  17747018.913    93261216.073        1401.237          45.000  
G27  22310301.580   117241426.701        -832.752          35.000  
G05  21020232.337   110462034.700       -3116.980          39.000  
G13  20402728.044   107217064.535       -3392.268          39.000  
G15  17927858.818    94211535.340       -2100.640          45.000  
G18  18094054.796    95084899.454       -1323.138          44.000  
G23  18531333.904    97382818.912        1974.233          44.000  
G32  22707491.622   119328667.424        2680.259          39.000  
G22  22583534.838   118677275.842         520.013          27.000  
G10  21467908.041   112814616.168        2810.394          39.000  
> 2024 07 04 09 18 25.1410000  0 10                     
G24  17746992.197    93261075.964        1401.092          45.000  
G27  22310317.407   117241509.984        -833.022          35.000  
G05  21020291.581   110462346.382       -3116.864          39.000  
G13  20402792.609   107217403.785       -3392.683          39.000  
G15  17927898.883    94211745.418       -2100.937          45.000  
G18  18094079.942    95085031.760       -1323.187          44.000  
G23  18531296.404    97382621.527        1973.767          44.000  
G32  22707440.598   119328399.348        2680.420          39.000  
G22  22583524.333   118677223.834         520.115          27.000  
G10  21467854.539   112814335.083        2810.664          39.000  
> 2024 07 04 09 18 25.2410000  0 10                     
G24  17746965.515    93260935.852        1401.142          45.000  
G27  22310333.200   117241593.256        -832.899          35.000  
G05  21020350.912   110462658.072       -3116.895          39.000  
G13  20402857.158   107217743.026       -3392.487          39.000  
G15  17927938.774    94211955.520       -2101.101          45.000  
G18  18094105.157    95085164.085       -1323.303          44.000  
G23  18531258.711    97382424.122        1973.972          44.000  
G32  22707389.608   119328131.295        2680.397          39.000  
G22  22583514.107   118677171.885         519.388          27.000  
G10  21467801.071   112814054.048        2810.146          39.000  
> 2024 07 04 09 18 25.3410000  0 10                     
G24  17746938.851    93260795.802        1400.380          45.000  
G27  22310349.062   117241676.573        -833.498          35.000  
G05  21020410.347   110462969.787       -3117.328          39.000  
G13  20402921.706   107218082.296       -3392.684          39.000  
G15  17927978.718    94212165.649       -2101.401          45.000  
G18  18094130.338    95085296.448       -1323.712          44.000  
G23  18531221.141    97382226.773        1973.389          44.000  
G32  22707338.671   119327863.276        2680.024          39.000  
G22  22583504.754   118677119.851         520.081          27.000  
G10  21467747.516   112813773.008        2810.340          39.000  
> 2024 07 04 09 18 25.4410000  0 10                     
G24  17746912.205    93260655.750        1400.414          45.000  
G27  22310364.889   117241759.906        -833.459          35.000  
G05  21020469.695   110463281.547       -3117.548          39.000  
G13  20402986.272   107218421.582       -3392.925          39.000  
G15  17928018.731    94212375.794       -2101.509          45.000  
G18  18094155.571    95085428.841       -1323.981          44.000  
G23  18531183.623    97382029.431        1973.451          44.000  
G32  22707287.629   119327595.279        2679.951          39.000  
G22  22583494.476   118677067.940         519.213          27.000  
G10  21467693.979   112813492.016        2809.976          39.000  
> 2024 07 04 09 18 25.5410000  0 10                     
G24  17746885.558    93260515.722        1400.168          45.000  
G27  22310380.751   117241843.246        -833.494          35.000  
G05  21020529.061   110463593.286       -3117.426          39.000  
G13  20403050.890   107218760.886       -3393.239          39.000  
G15  17928058.797    94212585.953       -2101.693          45.000  
G18  18094180.752    95085561.230       -1324.011          44.000  
G23  18531145.983    97381832.092        1973.285          44.000  
G32  22707236.640   119327327.270        2679.940          39.000  
G22  22583483.988   118677016.027         518.941          27.000  
G10  21467640.564   112813211.005        2810.101          39.000  
> 2024 07 04 09 18 25.6410000  0 10                     
G24  17746858.964    93260375.734        1399.597          45.000  
G27  22310396.561   117241926.636        -834.006          35.000  
G05  21020588.427   110463905.065       -3117.859          39.000  
G13  20403115.473   107219100.213       -3393.375          39.000  
G15  17928098.758    94212796.142       -2102.042          45.000  
G18  18094205.967    95085693.664       -1324.567          44.000  
G23  18531108.412    97381634.808        1972.668          44.000  
G32  22707185.737   119327059.311        2679.555          39.000  
G22  22583473.780   118676964.162         518.467          27.000  
G10  21467587.044   112812930.045        2809.437          39.000  
> 2024 07 04 09 18 25.7410000  0 10                     
G24  17746832.370    93260235.735        1399.871          45.000  
G27  22310412.406   117242010.001        -833.833          35.000  
G05  21020647.688   110464216.829       -3117.694          39.000  
G13  20403179.987   107219439.525       -3393.208          39.000  
G15  17928138.789    94213006.333       -2101.972          45.000  
G18  18094231.113    95085826.095       -1324.359          44.000  
G23  18531070.895    97381437.493        1973.038          44.000  
G32  22707134.730   119326791.337        2679.732          39.000  
G22  22583462.943   118676912.262         518.655          27.000  
G10  21467533.577   112812649.054        2809.759          39.000  
> 2024 07 04 09 18 25.8410000  0 10                     
G24  17746805.724    93260095.763        1399.607          45.000  
G27  22310428.233   117242093.405        -834.263          35.000  
G05  21020707.053   110464528.614       -3117.749          39.000  
G13  20403244.553   107219778.883       -3393.677          39.000  
G15  17928178.785    94213216.521       -2102.004          45.000  
G18  18094256.363    95085958.551       -1324.585          44.000  
G23  18531033.307    97381240.205        1972.824          44.000  
G32  22707083.741   119326523.367        2679.626          39.000  
G22  22583453.886   118676860.377         518.716          27.000  
G10  21467480.057   112812368.091        2809.429          39.000  
> 2024 07 04 09 18 25.9410000  0 10                     
G24  17746779.112    93259955.803        1399.411          45.000  
G27  22310444.131   117242176.844        -834.783          35.000  
G05  21020766.419   110464840.432       -3118.347          39.000  
G13  20403309.118   107220118.210       -3393.139          39.000  
G15  17928218.763    94213426.742       -2102.236          45.000  
G18  18094281.509    95086091.017       -1324.762          44.000  
G23  18530995.771    97381042.930        1972.711          44.000  
G32  22707032.734   119326255.433        2679.099          39.000  
G22  22583444.184   118676808.548         518.280          27.000  
G10  21467426.624   112812087.127        2809.608          39.000  
> 2024 07 04 09 18 26.0410000  0 10                     
G24  17746752.483    93259815.866        1399.185          45.000  
G27  22310459.958   117242260.253        -834.049          35.000  
G05  21020825.802   110465152.239       -3118.317          39.000  
G13  20403373.614   107220457.591       -3394.005          39.000  
G15  17928258.707    94213636.968       -2102.371          45.000  
G18  18094306.760    95086223.507       -1325.085          44.000  
G23  18530958.253    97380845.662        1972.568          44.000  
G32  22706981.762   119325987.500        2679.208          39.000  
G22  22583435.232   118676756.726         518.046          27.000  
G10  21467373.244   112811806.200        2809.103          39.000  
