     3.03           OBSERVATION DATA    M: Mixed            RINEX VERSION / TYPE
RTKCONV 2.4.3 b34                       20240829 025903 UTC PGM / RUN BY / DATE 
format: u-blox UBX                                          COMMENT             
log: E:\Seafile\GNSS\gnss.workspace\antispooflib\data\originCOMMENT             
                                                            MARKER NAME         
                                                            MARKER NUMBER       
                                                            MARKER TYPE         
                                                            OBSERVER / AGENCY   
                                                            REC # / TYPE / VERS 
                                                            ANT # / TYPE        
        0.0000        0.0000        0.0000                  APPROX POSITION XYZ 
        0.0000        0.0000        0.0000                  ANTENNA: DELTA H/E/N
G    8 C1C L1C D1C S1C C2L L2L D2L S2L                      SYS / # / OBS TYPES 
  2024    08    28    03    21   44.8560000     GPS         TIME OF FIRST OBS   
  2024    08    28    03    23   22.4060000     GPS         TIME OF LAST OBS    
G L1C                                                       SYS / PHASE SHIFT   
G L2L  0.00000                                              SYS / PHASE SHIFT   
  0                                                         GLONASS SLOT / FRQ #
 C1C    0.000 C1P    0.000 C2C    0.000 C2P    0.000        GLONASS COD/PHS/BIS 
                                                            END OF HEADER       
> 2024 08 28 03 21 44.8560000  0 11                     
G13  21743459.349   114262651.4631       -399.834          47.000                                                                  
G24  27268735.919   143298199.9521       3599.174          34.000    27268735.850   111660915.4371       2804.410          34.000  
G05  22558779.865   118547190.0891      -1236.469          46.000    22558764.290    92374366.5861       -963.660          46.000  
G30  25739368.509   135261302.5121       -981.006          40.000    25739357.000   105398724.5641       -764.209          38.000  
G29  23851891.801   125342543.5211      -2063.037          45.000    23851877.749    97669710.7301      -1607.735          42.000  
G20  23885764.625   125520543.6791      -2231.448          43.000                                                                  
G23  26832328.550   141004847.4971       2557.212          40.000    26832320.860   109874213.3571       1992.400          38.000  
G18  24451759.610   128494869.4951       2780.382          45.000    24451745.948   100125994.1521       2166.759          45.000  
G15  22210844.723   116718782.1931       1700.529          47.000    22210829.491    90949638.8361       1325.108          45.000  
G11  25202729.234   132441240.3481      -3328.119          41.000    25202719.058   103200911.9161      -2593.637          41.000  
G07  27612845.117                       -2145.609          32.000    27612831.369                       -1672.353          31.000  
> 2024 08 28 03 21 44.9060000  0 11                     
G13  21743463.139   114262671.446        -399.732          47.000                                                                  
G24  27268701.683   143298019.993        3599.129          34.000    27268701.598   111660775.210        2804.381          34.000  
G05  22558791.616   118547251.917       -1236.548          46.000    22558776.046    92374414.757        -963.513          46.000  
G30  25739377.848   135261351.546        -980.804          40.000    25739366.333   105398762.786        -764.392          38.000  
G29  23851911.416   125342646.669       -2063.006          45.000    23851897.373    97669791.092       -1607.426          42.000  
G20  23885785.854   125520655.273       -2231.727          43.000                                                                  
G23  26832304.233   141004719.628        2557.331          40.000    26832296.530   109874113.724        1992.575          38.000  
G18  24451733.137   128494730.453        2780.678          45.000    24451719.463   100125885.810        2166.770          45.000  
G15  22210828.555   116718697.159        1700.579          47.000    22210813.300    90949572.581        1325.066          45.000  
G11  25202760.891   132441406.756       -3328.119          41.000    25202750.712   103201041.566       -2593.255          41.000  
G07  27612865.580                       -2144.703          32.000    27612851.780                       -1671.655          31.000  
> 2024 08 28 03 21 44.9560000  0 11                     
G13  21743466.951   114262691.432        -399.746          47.000                                                                  
G24  27268667.430   143297839.996        3599.799          34.000    27268667.351   111660634.989        2804.247          34.000  
G05  22558803.363   118547313.745       -1236.578          46.000    22558787.814    92374462.934        -963.562          46.000  
G30  25739387.192   135261400.589        -980.847          40.000    25739375.663   105398801.014        -764.581          38.000  
G29  23851931.037   125342749.810       -2062.896          45.000    23851917.016    97669871.460       -1607.358          42.000  
G20  23885807.073   125520766.855       -2231.681          43.000                                                                  
G23  26832279.897   141004591.761        2557.364          40.000    26832272.173   109874014.068        1993.012          38.000  
G18  24451706.690   128494591.410        2780.834          45.000    24451693.002   100125777.466        2166.858          45.000  
G15  22210812.376   116718612.118        1700.770          47.000    22210797.108    90949506.317        1325.183          45.000  
G11  25202792.549   132441573.162       -3328.119          41.000    25202782.360   103201171.228       -2593.213          41.000  
G07  27612885.994                       -2145.642          32.000    27612872.206                       -1671.879          31.000  
> 2024 08 28 03 21 45.0060000  0 11                     
G13  21743470.733   114262711.424        -399.865          47.000                                                                  
G24  27268633.212   143297660.040        3599.313          34.000    27268633.081   111660494.723        2805.078          34.000  
G05  22558815.137   118547375.578       -1236.676          46.000    22558799.564    92374511.109        -963.580          46.000  
G30  25739396.523   135261449.635        -980.951          40.000    25739384.980   105398839.230        -764.545          38.000  
G29  23851950.671   125342852.952       -2062.860          45.000    23851936.633    97669951.831       -1607.461          42.000  
G20  23885828.302   125520878.442       -2231.792          43.000                                                                  
G23  26832255.542   141004463.900        2557.149          40.000    26832247.838   109873914.431        1992.784          38.000  
G18  24451680.242   128494452.379        2780.679          45.000    24451666.545   100125669.135        2166.655          45.000  
G15  22210796.215   116718527.087        1700.658          47.000    22210780.932    90949440.058        1325.177          45.000  
G11  25202824.226   132441739.564       -3328.083          41.000    25202814.043   103201300.902       -2593.435          41.000  
G07  27612906.443                       -2145.762          32.000    27612892.638                       -1672.010          31.000  
> 2024 08 28 03 21 45.0560000  0 11                     
G13  21743474.534   114262731.411        -399.839          47.000                                                                  
G24  27268598.973   143297480.066        3599.447          34.000    27268598.816   111660354.473        2804.995          34.000  
G05  22558826.913   118547437.398       -1236.505          46.000    22558811.335    92374559.293        -963.715          46.000  
G30  25739405.858   135261498.694        -981.171          40.000    25739394.331   105398877.451        -764.539          38.000  
G29  23851970.305   125342956.110       -2063.113          45.000    23851956.277    97670032.217       -1607.716          42.000  
G20  23885849.541   125520990.022       -2231.686          43.000                                                                  
G23  26832231.204   141004336.029        2557.303          40.000    26832223.533   109873814.815        1992.301          38.000  
G18  24451653.784   128494313.346        2780.622          45.000    24451640.072   100125560.796        2166.689          45.000  
G15  22210780.031   116718442.057        1700.572          47.000    22210764.743    90949373.803        1325.084          45.000  
G11  25202855.877   132441905.960       -3327.879          41.000    25202845.708   103201430.564       -2593.342          41.000  
G07  27612926.862                       -2145.742          32.000    27612913.089                       -1672.628          31.000  
> 2024 08 28 03 21 45.1060000  0 11                     
G13  21743478.357   114262751.412        -400.045          47.000                                                                  
G24  27268564.725   143297300.115        3599.121          34.000    27268564.555   111660214.268        2804.085          34.000  
G05  22558838.665   118547499.238       -1236.780          46.000    22558823.095    92374607.482        -963.873          46.000  
G30  25739415.171   135261547.759        -981.366          40.000    25739403.648   105398915.686        -764.783          38.000  
G29  23851989.954   125343059.272       -2063.302          45.000    23851975.899    97670112.592       -1607.604          42.000  
G20  23885870.749   125521101.616       -2231.859          43.000                                                                  
G23  26832206.881   141004208.162        2557.309          40.000    26832199.189   109873715.160        1992.754          38.000  
G18  24451627.332   128494174.323        2780.413          45.000    24451613.605   100125452.467        2166.576          45.000  
G15  22210763.858   116718357.038        1700.326          47.000    22210748.575    90949307.553        1324.979          45.000  
G11  25202887.559   132442072.381       -3328.324          41.000    25202877.380   103201560.253       -2593.680          41.000  
G07  27612947.293                       -2146.686          32.000    27612933.498                       -1671.867          31.000  
> 2024 08 28 03 21 45.1560000  0 11                     
G13  21743482.182   114262771.419        -400.185          47.000                                                                  
G24  27268530.463   143297120.118        3599.824          34.000    27268530.306   111660074.039        2804.326          34.000  
G05  22558850.434   118547561.080       -1236.908          46.000    22558834.862    92374655.663        -963.727          46.000  
G30  25739424.504   135261596.814        -981.250          40.000    25739412.975   105398953.887        -764.172          38.000  
G29  23852009.564   125343162.431       -2063.267          45.000    23851995.525    97670192.989       -1607.850          42.000  
G20  23885891.969   125521213.208       -2231.901          43.000                                                                  
G23  26832182.551   141004080.301        2557.225          40.000    26832174.871   109873615.539        1992.389          38.000  
G18  24451600.862   128494035.297        2780.457          45.000    24451587.144   100125344.134        2166.604          45.000  
G15  22210747.688   116718272.025        1700.192          47.000    22210732.401    90949241.308        1324.870          45.000  
G11  25202919.230   132442238.809       -3328.568          41.000    25202909.045   103201689.918       -2593.488          41.000  
G07  27612967.749                       -2146.332          32.000    27612953.902                       -1672.354          31.000  
> 2024 08 28 03 21 45.2060000  0 11                     
G13  21743485.980   114262791.419        -400.082          47.000                                                                  
G24  27268496.229   143296940.169        3599.162          34.000    27268496.050   111659933.805        2804.534          34.000  
G05  22558862.216   118547622.924       -1236.981          46.000    22558846.614    92374703.844        -963.623          46.000  
G30  25739433.830   135261645.878        -981.287          40.000    25739422.306   105398992.114        -764.374          38.000  
G29  23852029.198   125343265.601       -2063.417          45.000    23852015.163    97670273.371       -1607.721          42.000  
G20  23885913.219   125521324.809       -2232.044          43.000                                                                  
G23  26832158.219   141003952.450        2556.953          40.000    26832150.511   109873515.903        1992.561          38.000  
G18  24451574.411   128493896.257        2780.686          45.000    24451560.704   100125235.794        2166.730          45.000  
G15  22210731.517   116718187.010        1700.224          47.000    22210716.223    90949175.054        1325.050          45.000  
G11  25202950.871   132442405.218       -3328.332          41.000    25202940.727   103201819.592       -2593.488          41.000  
G07  27612988.140                       -2145.167          32.000    27612974.341                       -1671.690          31.000  
> 2024 08 28 03 21 45.2560000  0 11                     
G13  21743489.798   114262811.428        -400.207          47.000                                                                  
G24  27268461.963   143296760.210        3599.028          34.000    27268461.788   111659793.548        2805.110          34.000  
G05  22558873.971   118547684.755       -1236.774          46.000    22558858.391    92374752.030        -963.745          46.000  
G30  25739443.146   135261694.934        -981.207          40.000    25739431.649   105399030.352        -764.752          38.000  
G29  23852048.818   125343368.759       -2063.264          45.000    23852034.778    97670353.767       -1607.883          42.000  
G20  23885934.434   125521436.390       -2231.792          43.000                                                                  
G23  26832133.883   141003824.588        2556.989          40.000    26832126.175   109873416.287        1992.336          38.000  
G18  24451547.952   128493757.244        2780.295          45.000    24451534.282   100125127.475        2166.393          45.000  
G15  22210715.331   116718101.989        1700.360          47.000    22210700.021    90949108.801        1325.111          45.000  
G11  25202982.526   132442571.633       -3328.358          41.000    25202972.404   103201949.267       -2593.556          41.000  
G07  27613008.545                       -2145.707          32.000    27612994.742                       -1672.039          31.000  
> 2024 08 28 03 21 45.3060000  0 11                     
G13  21743493.606   114262831.432        -400.174          47.000                                                                  
G24  27268427.717   143296580.237        3599.232          34.000    27268427.556   111659653.336        2804.511          34.000  
G05  22558885.734   118547746.599       -1236.859          46.000    22558870.175    92374800.218        -963.800          46.000  
G30  25739452.486   135261743.994        -981.262          40.000    25739440.990   105399068.604        -765.192          38.000  
G29  23852068.450   125343471.913       -2063.131          45.000    23852054.412    97670434.152       -1607.749          42.000  
G20  23885955.665   125521547.992       -2232.041          43.000                                                                  
G23  26832109.546   141003696.733        2557.009          40.000    26832101.844   109873316.660        1992.459          38.000  
G18  24451521.499   128493618.226        2780.218          45.000    24451507.830   100125019.148        2166.430          45.000  
G15  22210699.128   116718016.969        1700.391          47.000    22210683.852    90949042.555        1324.969          45.000  
G11  25203014.211   132442738.048       -3328.327          41.000    25203004.067   103202078.945       -2593.593          41.000  
G07  27613028.974                       -2146.706          32.000    27613015.198                       -1671.914          31.000  
> 2024 08 28 03 21 45.3560000  0 11                     
G13  21743497.401   114262851.439        -400.161          47.000                                                                  
G24  27268393.463   143296400.284        3598.948          34.000    27268393.308   111659513.090        2804.790          34.000  
G05  22558897.489   118547808.441       -1236.835          46.000    22558881.923    92374848.405        -963.776          46.000  
G30  25739461.834   135261793.055        -981.201          40.000    25739450.313   105399106.834        -764.838          38.000  
G29  23852088.082   125343575.082       -2063.320          45.000    23852074.035    97670514.532       -1607.611          42.000  
G20  23885976.879   125521659.579       -2231.889          43.000                                                                  
G23  26832085.211   141003568.877        2557.024          40.000    26832077.496   109873217.020        1992.722          38.000  
G18  24451495.045   128493479.200        2780.394          45.000    24451481.368   100124910.814        2166.610          45.000  
G15  22210682.956   116717931.954        1700.304          47.000    22210667.669    90948976.317        1324.765          45.000  
G11  25203045.859   132442904.468       -3328.419          41.000    25203035.744   103202208.623       -2593.630          41.000  
G07  27613049.404                       -2146.063          32.000    27613035.597                       -1671.694          31.000  
> 2024 08 28 03 21 45.4060000  0 11                     
G13  21743501.209   114262871.445        -400.148          47.000                                                                  
G24  27268359.213   143296220.328        3598.768          34.000    27268359.051   111659372.822        2805.324          34.000  
G05  22558909.228   118547870.270       -1236.615          46.000    22558893.681    92374896.591        -963.757          46.000  
G30  25739471.156   135261842.122        -981.348          40.000    25739459.635   105399145.042        -764.301          38.000  
G29  23852107.725   125343678.252       -2063.414          45.000    23852093.669    97670594.915       -1607.635          42.000  
G20  23885998.120   125521771.160       -2231.607          43.000                                                                  
G23  26832060.867   141003440.988        2557.659          40.000    26832053.171   109873117.378        1992.816          38.000  
G18  24451468.607   128493340.180        2780.381          45.000    24451454.893   100124802.479        2166.716          45.000  
G15  22210666.804   116717846.943        1700.218          47.000    22210651.495    90948910.075        1324.804          45.000  
G11  25203077.544   132443070.885       -3328.388          41.000    25203067.422   103202338.297       -2593.530          41.000  
G07  27613069.834                       -2145.368          32.000    27613056.039                       -1672.745          31.000  
> 2024 08 28 03 21 45.4560000  0 11                     
G13  21743504.986   114262891.449        -400.137          47.000                                                                  
G24  27268324.960   143296040.351        3599.318          34.000    27268324.824   111659232.616        2804.342          34.000  
G05  22558920.988   118547932.104       -1236.658          46.000    22558905.432    92374944.780        -963.794          46.000  
G30  25739480.504   135261891.191        -981.494          40.000    25739468.966   105399183.271        -764.502          38.000  
G29  23852127.352   125343781.414       -2063.333          45.000    23852113.302    97670675.299       -1607.640          42.000  
G20  23886019.347   125521882.758       -2231.834          43.000                                                                  
G23  26832036.545   141003313.128        2557.357          40.000    26832028.835   109873017.749        1992.685          38.000  
G18  24451442.151   128493201.138        2780.708          45.000    24451428.452   100124694.150        2166.611          45.000  
G15  22210650.617   116717761.920        1700.354          47.000    22210635.316    90948843.830        1324.846          45.000  
G11  25203109.200   132443237.300       -3328.364          41.000    25203099.086   103202467.964       -2593.439          41.000  
G07  27613090.276                       -2146.086          32.000    27613076.464                       -1671.717          31.000  
> 2024 08 28 03 21 45.5060000  0 11                     
G13  21743508.788   114262911.472        -400.463          47.000                                                                  
G24  27268290.726   143295860.370        3599.560          34.000    27268290.614   111659092.408        2804.048          34.000  
G05  22558932.749   118547993.951       -1236.902          46.000    22558917.208    92374992.965        -963.776          46.000  
G30  25739489.843   135261940.262        -981.561          40.000    25739478.328   105399221.522        -764.960          38.000  
G29  23852146.989   125343884.578       -2063.309          45.000    23852132.925    97670755.699       -1607.993          42.000  
G20  23886040.570   125521994.366       -2232.169          43.000                                                                  
G23  26832012.233   141003185.294        2556.745          40.000    26832004.501   109872918.130        1992.375          38.000  
G18  24451415.719   128493062.126        2780.323          45.000    24451401.994   100124585.823        2166.516          45.000  
G15  22210634.455   116717676.910        1700.224          47.000    22210619.150    90948777.587        1324.834          45.000  
G11  25203140.860   132443403.725       -3328.549          41.000    25203130.760   103202597.648       -2593.648          41.000  
G07  27613110.751                       -2146.344          32.000    27613096.902                       -1672.044          31.000  
> 2024 08 28 03 21 45.5560000  0 11                     
G13  21743512.584   114262931.498        -400.621          47.000                                                                  
G24  27268256.466   143295680.391        3599.469          34.000    27268256.364   111658952.191        2804.223          34.000  
G05  22558944.526   118548055.805       -1237.140          46.000    22558928.993    92375041.164        -963.971          46.000  
G30  25739499.176   135261989.336        -981.580          40.000    25739487.669   105399259.772        -765.045          38.000  
G29  23852166.600   125343987.760       -2063.626          45.000    23852152.536    97670836.102       -1608.221          42.000  
G20  23886061.810   125522105.973       -2232.251          43.000                                                                  
G23  26831987.908   141003057.437        2556.894          40.000    26831980.186   109872818.510        1992.203          38.000  
G18  24451389.283   128492923.117        2780.079          45.000    24451375.531   100124477.496        2166.472          45.000  
G15  22210618.286   116717591.912        1699.960          47.000    22210602.982    90948711.343        1324.853          45.000  
G11  25203172.538   132443570.150       -3328.578          41.000    25203162.421   103202727.334       -2593.758          41.000  
G07  27613131.179                       -2146.532          32.000    27613117.325                       -1671.882          31.000  
> 2024 08 28 03 21 45.6060000  0 11                     
G13  21743516.417   114262951.520        -400.548          47.000                                                                  
G24  27268222.211   143295500.429        3599.155          34.000    27268222.110   111658811.928        2805.041          34.000  
G05  22558956.301   118548117.663       -1237.256          46.000    22558940.770    92375089.363        -964.020          46.000  
G30  25739508.500   135262038.416        -981.677          40.000    25739496.999   105399298.018        -765.045          38.000  
G29  23852186.210   125344090.953       -2063.926          45.000    23852172.156    97670916.511       -1608.331          42.000  
G20  23886083.042   125522217.581       -2232.264          43.000                                                                  
G23  26831963.588   141002929.598        2556.671          40.000    26831955.853   109872718.882        1992.360          38.000  
G18  24451362.827   128492784.098        2780.259          45.000    24451349.066   100124369.182        2166.266          45.000  
G15  22210602.094   116717506.919        1699.764          47.000    22210586.835    90948645.112        1324.594          45.000  
G11  25203204.200   132443736.585       -3328.701          41.000    25203194.083   103202857.013       -2593.709          41.000  
G07  27613151.617                       -2146.336          32.000    27613137.750                       -1672.454          31.000  
> 2024 08 28 03 21 45.6560000  0 11                     
G13  21743520.232   114262971.542        -400.484          47.000                                                                  
G24  27268187.969   143295320.474        3599.057          34.000    27268187.865   111658671.711        2804.652          34.000  
G05  22558968.067   118548179.516       -1237.140          46.000    22558952.532    92375137.549        -963.776          46.000  
G30  25739517.850   135262087.493        -981.647          40.000    25739506.334   105399336.260        -764.917          38.000  
G29  23852205.850   125344194.121       -2063.573          45.000    23852191.784    97670996.899       -1607.911          42.000  
G20  23886104.284   125522329.167       -2231.893          43.000                                                                  
G23  26831939.248   141002801.726        2557.203          40.000    26831931.521   109872619.251        1992.442          38.000  
G18  24451336.365   128492645.086        2780.247          45.000    24451322.614   100124260.855        2166.443          45.000  
G15  22210585.898   116717421.920        1699.883          47.000    22210570.650    90948578.884        1324.484          45.000  
G11  25203235.870   132443903.010       -3328.646          41.000    25203225.755   103202986.703       -2593.856          41.000  
G07  27613172.016                       -2146.352          32.000    27613158.167                       -1672.085          31.000  
> 2024 08 28 03 21 45.7060000  0 11                     
G13  21743524.036   114262991.560        -400.383          47.000                                                                  
G24  27268153.699   143295140.514        3599.236          34.000    27268153.605   111658531.451        2805.149          34.000  
G05  22558979.834   118548241.348       -1236.676          46.000    22558964.305    92375185.740        -963.806          46.000  
G30  25739527.214   135262136.568        -981.525          40.000    25739515.667   105399374.485        -764.557          38.000  
G29  23852225.477   125344297.289       -2063.415          45.000    23852211.407    97671077.287       -1607.731          42.000  
G20  23886125.528   125522440.772       -2231.981          43.000                                                                  
G23  26831914.918   141002673.858        2557.388          40.000    26831907.196   109872519.602        1992.843          38.000  
G18  24451309.892   128492506.059        2780.441          45.000    24451296.176   100124152.520        2166.656          45.000  
G15  22210569.701   116717336.909        1700.111          47.000    22210554.457    90948512.643        1324.695          45.000  
G11  25203267.542   132444069.435       -3328.552          41.000    25203257.417   103203116.388       -2593.757          41.000  
G07  27613192.480                       -2146.511          32.000    27613178.573                       -1673.033          31.000  
> 2024 08 28 03 21 45.7560000  0 11                     
G13  21743527.854   114263011.581        -400.403          47.000                                                                  
G24  27268119.442   143294960.538        3599.575          34.000    27268119.337   111658391.235        2804.564          34.000  
G05  22558991.610   118548303.196       -1236.835          46.000    22558976.087    92375233.936        -963.910          46.000  
G30  25739536.568   135262185.635        -981.360          40.000    25739525.018   105399412.727        -764.795          38.000  
G29  23852245.136   125344400.476       -2063.678          45.000    23852231.018    97671157.691       -1608.013          42.000  
G20  23886146.771   125522552.369       -2231.869          43.000                                                                  
G23  26831890.581   141002546.008        2557.162          40.000    26831882.859   109872419.980        1992.598          38.000  
G18  24451283.442   128492367.040        2780.401          45.000    24451269.719   100124044.204        2166.406          45.000  
G15  22210553.528   116717251.901        1700.147          47.000    22210538.304    90948446.407        1324.744          45.000  
G11  25203299.224   132444235.865       -3328.546          41.000    25203289.080   103203246.062       -2593.529          41.000  
G07  27613212.889                       -2146.136          32.000    27613199.012                       -1672.246          31.000  
> 2024 08 28 03 21 45.8060000  0 11                     
G13  21743531.659   114263031.606        -400.453          47.000                                                                  
G24  27268085.208   143294780.557        3599.778          34.000    27268085.101   111658251.010        2804.355          34.000  
G05  22559003.372   118548365.043       -1236.920          46.000    22558987.841    92375282.119        -963.708          46.000  
G30  25739545.913   135262234.716        -981.543          40.000    25739534.375   105399450.981        -765.192          38.000  
G29  23852264.739   125344503.650       -2063.571          45.000    23852250.659    97671238.099       -1608.250          42.000  
G20  23886168.008   125522663.961       -2231.817          43.000                                                                  
G23  26831866.247   141002418.155        2557.040          40.000    26831858.533   109872320.349        1992.641          38.000  
G18  24451256.983   128492228.030        2780.249          45.000    24451243.279   100123935.879        2166.467          45.000  
G15  22210537.340   116717166.901        1700.048          47.000    22210522.129    90948380.171        1324.725          45.000  
G11  25203330.885   132444402.277       -3328.282          41.000    25203320.765   103203375.739       -2593.518          41.000  
G07  27613233.312                       -2146.367          32.000    27613219.400                       -1671.725          31.000  
> 2024 08 28 03 21 45.8560000  0 11                     
G13  21743535.473   114263051.636        -400.616          47.000                                                                  
G24  27268050.951   143294600.583        3599.619          34.000    27268050.852   111658110.787        2804.218          34.000  
G05  22559015.151   118548426.886       -1236.890          46.000    22558999.608    92375330.314        -963.849          46.000  
G30  25739555.244   135262283.804        -981.726          40.000    25739543.711   105399489.222        -765.027          38.000  
G29  23852284.369   125344606.834       -2063.686          45.000    23852270.276    97671318.494       -1608.088          42.000  
G20  23886189.247   125522775.565       -2232.015          43.000                                                                  
G23  26831841.918   141002290.287        2557.276          40.000    26831834.226   109872220.746        1992.183          38.000  
G18  24451230.524   128492089.019        2780.214          45.000    24451216.828   100123827.549        2166.567          45.000  
G15  22210521.186   116717081.901        1699.993          47.000    22210505.937    90948313.937        1324.657          45.000  
G11  25203362.544   132444568.698       -3328.369          41.000    25203352.438   103203505.413       -2593.537          41.000  
G07  27613253.721                       -2146.642          32.000    27613239.836                       -1672.327          31.000  
> 2024 08 28 03 21 45.9060000  0 11                     
G13  21743539.291   114263071.668        -400.696          47.000                                                                  
G24  27268016.702   143294420.638        3598.874          34.000    27268016.616   111657970.532        2804.934          34.000  
G05  22559026.928   118548488.740       -1237.054          46.000    22559011.385    92375378.515        -964.026          46.000  
G30  25739564.581   135262332.888        -981.757          40.000    25739553.045   105399527.468        -764.954          38.000  
G29  23852304.015   125344710.016       -2063.718          45.000    23852289.911    97671398.901       -1608.265          42.000  
G20  23886210.489   125522887.174       -2232.207          43.000                                                                  
G23  26831817.588   141002162.430        2557.202          40.000    26831809.866   109872121.086        1992.973          38.000  
G18  24451204.066   128491950.002        2780.284          45.000    24451190.378   100123719.229        2166.426          45.000  
G15  22210505.030   116716996.913        1699.715          47.000    22210489.756    90948247.715        1324.411          45.000  
G11  25203394.227   132444735.131       -3328.647          41.000    25203384.115   103203635.103       -2593.802          41.000  
G07  27613274.139                       -2145.646          32.000    27613260.258                       -1672.290          31.000  
> 2024 08 28 03 21 45.9560000  0 11                     
G13  21743543.099   114263091.705        -400.813          47.000                                                                  
G24  27267982.445   143294240.660        3599.169          34.000    27267982.364   111657830.283        2805.117          34.000  
G05  22559038.694   118548550.593       -1237.115          46.000    22559023.160    92375426.711        -964.001          46.000  
G30  25739573.913   135262381.990        -982.050          40.000    25739562.358   105399565.714        -764.911          38.000  
G29  23852323.654   125344813.208       -2063.864          45.000    23852309.549    97671479.295       -1608.060          42.000  
G20  23886231.721   125522998.780       -2232.213          43.000                                                                  
G23  26831793.246   141002034.590        2556.792          40.000    26831785.517   109872021.456        1992.696          38.000  
G18  24451177.614   128491810.997        2780.114          45.000    24451163.960   100123610.914        2166.235          45.000  
G15  22210488.858   116716911.927        1699.606          47.000    22210473.581    90948181.489        1324.462          45.000  
G11  25203425.894   132444901.563       -3328.633          41.000    25203415.801   103203764.804       -2594.103          41.000  
G07  27613294.579                       -2145.881          32.000    27613280.700                       -1672.837          31.000  
> 2024 08 28 03 21 46.0060000  0 11                     
G13  21743546.898   114263111.747        -400.905          47.000                                                                  
G24  27267948.215   143294060.698        3599.109          34.000    27267948.107   111657690.060        2804.680          34.000  
G05  22559050.468   118548612.443       -1237.067          46.000    22559034.921    92375474.908        -963.995          46.000  
G30  25739583.239   135262431.077        -981.860          40.000    25739571.697   105399603.961        -764.868          38.000  
G29  23852343.280   125344916.403       -2063.995          45.000    23852329.186    97671559.709       -1608.265          42.000  
G20  23886252.951   125523110.396       -2232.413          43.000                                                                  
G23  26831768.924   141001906.737        2556.871          40.000    26831761.167   109871921.851        1992.209          38.000  
G18  24451151.159   128491671.985        2780.146          45.000    24451137.510   100123502.606        2166.003          45.000  
G15  22210472.659   116716826.933        1699.755          47.000    22210457.433    90948115.259        1324.536          45.000  
G11  25203457.551   132445067.993       -3328.682          41.000    25203447.482   103203894.491       -2593.891          41.000  
G07  27613315.021   145108949.181       -2146.416          32.000    27613301.099                       -1672.802          31.000  
> 2024 08 28 03 21 46.0560000  0 11                     
G13  21743550.707   114263131.785        -400.858          47.000                                                                  
G24  27267913.955   143293880.725        3599.289          34.000    27267913.875   111657549.856        2804.242          34.000  
G05  22559062.249   118548674.306       -1237.323          46.000    22559046.692    92375523.105        -963.983          46.000  
G30  25739592.585   135262480.167        -981.866          40.000    25739581.066   105399642.227        -765.247          38.000  
G29  23852362.916   125345019.598       -2063.994          45.000    23852348.830    97671640.127       -1608.437          42.000  
G20  23886274.189   125523222.007       -2232.380          43.000                                                                  
G23  26831744.564   141001778.871        2557.178          40.000    26831736.839   109871822.233        1992.235          38.000  
G18  24451124.719   128491532.978        2780.050          45.000    24451111.059   100123394.286        2166.205          45.000  
G15  22210456.461   116716741.937        1699.878          47.000    22210441.268    90948049.040        1324.344          45.000  
G11  25203489.219   132445234.439       -3328.916          41.000    25203479.136   103204024.176       -2593.768          41.000  
G07  27613335.442                       -2146.798          32.000    27613321.518                       -1672.199          31.000  
> 2024 08 28 03 21 46.1060000  0 11                     
G13  21743554.533   114263151.820        -400.783          47.000                                                                  
G24  27267879.701   143293700.734        3599.783          34.000    27267879.625   111657409.616        2804.607          34.000  
G05  22559074.022   118548736.153       -1237.079          46.000    22559058.463    92375571.308        -964.069          46.000  
G30  25739601.899   135262529.250        -981.726          40.000    25739590.405   105399680.479        -765.131          38.000  
G29  23852382.526   125345122.783       -2063.839          45.000    23852368.482    97671720.527       -1608.145          42.000  
G20  23886295.432   125523333.600       -2232.050          43.000                                                                  
G23  26831720.226   141001651.011        2557.253          40.000    26831712.505   109871722.610        1992.418          38.000  
G18  24451098.260   128491393.968        2780.124          45.000    24451084.611   100123285.957        2166.518          45.000  
G15  22210440.275   116716656.949        1699.804          47.000    22210425.089    90947982.805        1324.554          45.000  
G11  25203520.876   132445400.867       -3328.649          41.000    25203510.814   103204153.862       -2593.688          41.000  
G07  27613355.875                       -2146.469          32.000    27613341.958                       -1671.774          31.000  
> 2024 08 28 03 21 46.1560000  0 11                     
G13  21743558.356   114263171.861        -400.839          47.000                                                                  
G24  27267845.463   143293520.754        3599.862          34.000    27267845.378   111657269.374        2804.840          34.000  
G05  22559085.785   118548798.011       -1237.152          46.000    22559070.223    92375619.506        -963.965          46.000  
G30  25739611.201   135262578.347        -981.885          40.000    25739599.773   105399718.729        -764.990          38.000  
G29  23852402.152   125345225.968       -2063.743          45.000    23852388.108    97671800.932       -1608.076          42.000  
G20  23886316.668   125523445.208       -2232.105          43.000                                                                  
G23  26831695.901   141001523.175        2556.951          40.000    26831688.160   109871622.978        1992.641          38.000  
G18  24451071.810   128491254.960        2780.157          45.000    24451058.173   100123177.635        2166.481          45.000  
G15  22210424.087   116716571.963        1699.737          47.000    22210408.900    90947916.584        1324.418          45.000  
G11  25203552.548   132445567.302       -3328.637          41.000    25203542.485   103204283.553       -2593.793          41.000  
G07  27613376.275                       -2146.135          32.000    27613362.396                       -1672.354          31.000  
> 2024 08 28 03 21 46.2060000  0 11                     
G13  21743562.155   114263191.900        -400.801          47.000                                                                  
G24  27267811.207   143293340.797        3599.420          34.000    27267811.111   111657129.150        2804.583          34.000  
G05  22559097.553   118548859.868       -1237.170          46.000    22559082.000    92375667.705        -964.014          46.000  
G30  25739620.542   135262627.436        -981.848          40.000    25739609.102   105399756.983        -764.984          38.000  
G29  23852421.788   125345329.169       -2063.998          45.000    23852407.748    97671881.358       -1608.426          42.000  
G20  23886337.925   125523556.809       -2232.000          43.000                                                                  
G23  26831671.564   141001395.315        2557.202          40.000    26831663.849   109871523.331        1992.956          38.000  
G18  24451045.324   128491115.953        2780.118          45.000    24451031.730   100123069.320        2166.373          45.000  
G15  22210407.924   116716486.975        1699.706          47.000    22210392.752    90947850.357        1324.487          45.000  
G11  25203584.213   132445733.738       -3328.724          41.000    25203574.150   103204413.242       -2593.806          41.000  
G07  27613396.727                       -2145.944          32.000    27613382.841                       -1673.117          31.000  
> 2024 08 28 03 21 46.2560000  0 11                     
G13  21743565.973   114263211.948        -400.958          47.000                                                                  
G24  27267776.997   143293160.899        3598.207          34.000    27267776.879   111656988.892        2805.031          34.000  
G05  22559109.329   118548921.726       -1237.152          46.000    22559093.779    92375715.908        -964.081          46.000  
G30  25739629.904   135262676.536        -982.025          40.000    25739618.449   105399795.247        -765.247          38.000  
G29  23852441.421   125345432.365       -2064.012          45.000    23852427.383    97671961.762       -1608.255          42.000  
G20  23886359.155   125523668.415       -2232.090          43.000                                                                  
G23  26831647.232   141001267.459        2557.230          40.000    26831639.487   109871423.731        1992.261          38.000  
G18  24451018.876   128490976.944        2780.110          45.000    24451005.274   100122961.011        2166.190          45.000  
G15  22210391.747   116716401.993        1699.632          47.000    22210376.580    90947784.140        1324.333          45.000  
G11  25203615.878   132445900.182       -3328.940          41.000    25203605.815   103204542.922       -2593.683          41.000  
G07  27613417.147                       -2146.933          32.000    27613403.274                       -1672.396          31.000  
> 2024 08 28 03 21 46.3060000  0 11                     
G13  21743569.777   114263231.992        -400.944          47.000                                                                  
G24  27267742.728   143292980.899        3599.348          34.000    27267742.619   111656848.674        2804.592          34.000  
G05  22559121.097   118548983.571       -1236.945          46.000    22559105.544    92375764.108        -964.081          46.000  
G30  25739639.231   135262725.632        -982.050          40.000    25739627.793   105399833.489        -764.966          38.000  
G29  23852461.064   125345535.557       -2063.953          45.000    23852447.038    97672042.163       -1608.067          42.000  
G20  23886380.399   125523780.029       -2232.297          43.000                                                                  
G23  26831622.903   141001139.609        2557.001          40.000    26831615.146   109871324.115        1992.188          38.000  
G18  24450992.438   128490837.926        2780.275          45.000    24450978.813   100122852.677        2166.534          45.000  
G15  22210375.583   116716317.009        1699.608          47.000    22210360.401    90947717.918        1324.376          45.000  
G11  25203647.545   132446066.609       -3328.711          41.000    25203637.477   103204672.619       -2593.942          41.000  
G07  27613437.564                       -2146.038          32.000    27613423.694                       -1672.083          31.000  
> 2024 08 28 03 21 46.3560000  0 11                     
G13  21743573.585   114263252.033        -400.874          47.000                                                                  
G24  27267708.483   143292800.901        3599.845          34.000    27267708.334   111656708.416        2804.896          34.000  
G05  22559132.879   118549045.435       -1237.207          46.000    22559117.305    92375812.296        -963.812          46.000  
G30  25739648.589   135262774.728        -982.037          40.000    25739637.115   105399871.745        -765.094          38.000  
G29  23852480.701   125345638.754       -2063.970          45.000    23852466.658    97672122.579       -1608.246          42.000  
G20  23886401.635   125523891.641       -2232.304          43.000                                                                  
G23  26831598.590   141001011.764        2556.858          40.000    26831590.810   109871224.473        1992.632          38.000  
G18  24450965.983   128490698.927        2780.046          45.000    24450952.344   100122744.357        2166.435          45.000  
G15  22210359.406   116716232.023        1699.670          47.000    22210344.235    90947651.697        1324.339          45.000  
G11  25203679.215   132446233.046       -3328.773          41.000    25203669.169   103204802.316       -2594.040          41.000  
G07  27613458.022   145109700.443       -2146.743          32.000    27613444.135                       -1673.141          31.000  
> 2024 08 28 03 21 46.4060000  0 11                     
G13  21743577.416   114263272.084        -401.006          47.000                                                                  
G24  27267674.210   143292620.925        3599.721          34.000    27267674.092   111656568.182        2804.770          34.000  
G05  22559144.666   118549107.300       -1237.341          46.000    22559129.084    92375860.498        -964.001          46.000  
G30  25739657.911   135262823.831        -982.092          40.000    25739646.449   105399910.023        -765.521          38.000  
G29  23852500.359   125345741.954       -2064.061          45.000    23852486.315    97672202.991       -1608.286          42.000  
G20  23886422.855   125524003.247       -2232.212          43.000                                                                  
G23  26831574.273   141000883.913        2556.949          40.000    26831566.472   109871124.846        1992.531          38.000  
G18  24450939.522   128490559.923        2780.023          45.000    24450925.903   100122636.048        2166.201          45.000  
G15  22210343.223   116716147.038        1699.663          47.000    22210328.059    90947585.472        1324.426          45.000  
G11  25203710.890   132446399.478       -3328.649          41.000    25203700.855   103204932.003       -2593.860          41.000  
G07  27613478.463                       -2146.523          32.000    27613464.588                       -1673.203          31.000  
> 2024 08 28 03 21 46.4560000  0 11                     
G13  21743581.242   114263292.132        -401.011          47.000                                                                  
G24  27267639.962   143292440.979        3599.023          34.000    27267639.847   111656427.963        2804.433          34.000  
G05  22559156.413   118549169.154       -1237.183          46.000    22559140.858    92375908.702        -964.111          46.000  
G30  25739667.270   135262872.930        -981.964          40.000    25739655.772   105399948.257        -764.935          38.000  
G29  23852519.978   125345845.155       -2064.084          45.000    23852505.938    97672283.415       -1608.474          42.000  
G20  23886444.114   125524114.861       -2232.337          43.000                                                                  
G23  26831549.940   141000756.030        2557.521          40.000    26831542.148   109871025.212        1992.708          38.000  
G18  24450913.070   128490420.910        2780.183          45.000    24450899.426   100122527.737        2166.161          45.000  
G15  22210327.055   116716062.057        1699.596          47.000    22210311.910    90947519.255        1324.321          45.000  
G11  25203742.556   132446565.917       -3328.780          41.000    25203732.525   103205061.680       -2593.552          41.000  
G07  27613498.932                       -2146.399          32.000    27613484.982                       -1672.691          31.000  
> 2024 08 28 03 21 46.5060000  0 11                     
G13  21743585.069   114263312.184        -401.124          47.000                                                                  
G24  27267605.726   143292261.004        3599.252          34.000    27267605.597   111656287.725        2804.671          34.000  
G05  22559168.182   118549231.006       -1237.061          46.000    22559152.628    92375956.906        -964.148          46.000  
G30  25739676.597   135262922.015        -981.726          40.000    25739665.115   105399986.533        -765.460          38.000  
G29  23852539.625   125345948.352       -2063.975          45.000    23852525.582    97672363.836       -1608.556          42.000  
G20  23886465.371   125524226.461       -2232.135          43.000                                                                  
G23  26831525.606   141000628.181        2557.205          40.000    26831517.818   109870925.581        1992.679          38.000  
G18  24450886.613   128490281.900        2780.175          45.000    24450872.948   100122419.415        2166.359          45.000  
G15  22210310.912   116715977.082        1699.429          47.000    22210295.736    90947453.035        1324.327          45.000  
G11  25203774.210   132446732.351       -3328.730          41.000    25203764.185   103205191.361       -2593.597          41.000  
G07  27613519.400                       -2146.036          32.000    27613505.412                       -1672.625          31.000  
> 2024 08 28 03 21 46.5560000  0 11                     
G13  21743588.892   114263332.232        -401.040          47.000                                                                  
G24  27267571.459   143292081.046        3599.072          34.000    27267571.346   111656147.475        2805.057          34.000  
G05  22559179.971   118549292.864       -1237.091          46.000    22559164.413    92376005.104        -964.014          46.000  
G30  25739685.930   135262971.120        -982.031          40.000    25739674.478   105400024.800        -765.448          38.000  
G29  23852559.278   125346051.546       -2063.922          45.000    23852545.214    97672444.248       -1608.376          42.000  
G20  23886486.610   125524338.066       -2232.117          43.000                                                                  
G23  26831501.287   141000500.330        2557.052          40.000    26831493.508   109870825.953        1992.612          38.000  
G18  24450860.146   128490142.890        2780.219          45.000    24450846.499   100122311.102        2166.282          45.000  
G15  22210294.756   116715892.098        1699.547          47.000    22210279.595    90947386.819        1324.315          45.000  
G11  25203805.900   132446898.788       -3328.742          41.000    25203795.856   103205321.052       -2593.782          41.000  
G07  27613539.834                       -2146.713          32.000    27613525.837                       -1672.024          31.000  
> 2024 08 28 03 21 46.6060000  0 11                     
G13  21743592.723   114263352.288        -401.153          47.000                                                                  
G24  27267537.191   143291901.061        3599.494          34.000    27267537.091   111656007.253        2804.610          34.000  
G05  22559191.750   118549354.724       -1237.195          46.000    22559176.175    92376053.305        -964.032          46.000  
G30  25739695.265   135263020.229        -982.153          40.000    25739683.786   105400063.066        -765.357          38.000  
G29  23852578.930   125346154.752       -2064.077          45.000    23852564.856    97672524.659       -1608.255          42.000  
G20  23886507.842   125524449.671       -2232.120          43.000                                                                  
G23  26831476.982   141000372.487        2556.931          40.000    26831469.194   109870726.319        1992.679          38.000  
G18  24450833.698   128490003.889        2780.015          45.000    24450820.028   100122202.784        2166.339          45.000  
G15  22210278.601   116715807.120        1699.535          47.000    22210263.420    90947320.600        1324.340          45.000  
G11  25203837.564   132447065.226       -3328.791          41.000    25203827.550   103205450.758       -2594.071          41.000  
G07  27613560.245                       -2146.741          32.000    27613546.256                       -1672.647          31.000  
> 2024 08 28 03 21 46.6560000  0 11                     
G13  21743596.559   114263372.340        -401.094          47.000                                                                  
G24  27267502.950   143291721.087        3599.541          34.000    27267502.827   111655867.011        2804.795          34.000  
G05  22559203.556   118549416.581       -1237.164          46.000    22559187.936    92376101.501        -963.953          46.000  
G30  25739704.597   135263069.332        -982.074          40.000    25739693.124   105400101.310        -764.899          38.000  
G29  23852598.562   125346257.958       -2064.139          45.000    23852584.494    97672605.084       -1608.464          42.000  
G20  23886529.078   125524561.294       -2232.362          43.000                                                                  
G23  26831452.633   141000244.626        2557.105          40.000    26831444.842   109870626.694        1992.480          38.000  
G18  24450807.255   128489864.890        2779.930          45.000    24450793.572   100122094.470        2166.300          45.000  
G15  22210262.413   116715722.141        1699.541          47.000    22210247.239    90947254.386        1324.272          45.000  
G11  25203869.240   132447231.663       -3328.797          41.000    25203859.223   103205580.451       -2593.965          41.000  
G07  27613580.694                       -2146.785          32.000    27613566.673                       -1673.141          31.000  
> 2024 08 28 03 21 46.7060000  0 11                     
G13  21743600.376   114263392.395        -401.125          47.000                                                                  
G24  27267468.690   143291541.089        3599.968          34.000    27267468.554   111655726.765        2805.006          34.000  
G05  22559215.320   118549478.441       -1237.219          46.000    22559199.714    92376149.709        -964.148          46.000  
G30  25739713.969   135263118.434        -982.062          40.000    25739702.482   105400139.578        -765.234          38.000  
G29  23852618.186   125346361.168       -2064.232          45.000    23852604.145    97672685.496       -1608.297          42.000  
G20  23886550.304   125524672.902       -2232.321          43.000                                                                  
G23  26831428.298   141000116.759        2557.290          40.000    26831420.512   109870527.075        1992.328          38.000  
G18  24450780.801   128489725.881        2780.098          45.000    24450767.124   100121986.155        2166.222          45.000  
G15  22210246.231   116715637.168        1699.399          47.000    22210231.085    90947188.170        1324.267          45.000  
G11  25203900.922   132447398.110       -3328.951          41.000    25203890.901   103205710.133       -2593.687          41.000  
G07  27613601.060                       -2147.269          32.000    27613587.106                       -1672.617          31.000  
> 2024 08 28 03 21 46.7560000  0 11                     
G13  21743604.204   114263412.453        -401.163          47.000                                                                  
G24  27267434.427   143291361.132        3599.294          34.000    27267434.317   111655586.526        2804.871          34.000  
G05  22559227.102   118549540.301       -1237.250          46.000    22559211.482    92376197.912        -964.130          46.000  
G30  25739723.324   135263167.541        -982.166          40.000    25739711.824   105400177.844        -765.350          38.000  
G29  23852637.798   125346464.377       -2064.263          45.000    23852623.787    97672765.913       -1608.298          42.000  
G20  23886571.546   125524784.516       -2232.352          43.000                                                                  
G23  26831403.984   140999988.913        2557.034          40.000    26831396.183   109870427.458        1992.251          38.000  
G18  24450754.358   128489586.872        2780.185          45.000    24450740.681   100121877.839        2166.230          45.000  
G15  22210230.056   116715552.194        1699.388          47.000    22210214.904    90947121.955        1324.267          45.000  
G11  25203932.605   132447564.550       -3328.914          41.000    25203922.583   103205839.845       -2594.113          41.000  
G07  27613621.475                       -2146.831          32.000    27613607.537                       -1672.273          31.000  
> 2024 08 28 03 21 46.8060000  0 11                     
G13  21743608.006   114263432.524        -401.438          47.000                                                                  
G24  27267400.174   143291181.177        3598.922          34.000    27267400.067   111655446.298        2804.649          34.000  
G05  22559238.910   118549602.181       -1237.598          46.000    22559223.242    92376246.119        -964.166          46.000  
G30  25739732.664   135263216.666        -982.507          40.000    25739721.158   105400216.124        -765.662          38.000  
G29  23852657.444   125346567.583       -2064.202          45.000    23852643.437    97672846.344       -1608.573          42.000  
G20  23886592.782   125524896.114       -2232.065          43.000                                                                  
G23  26831379.644   140999861.059        2557.072          40.000    26831371.831   109870327.830        1992.369          38.000  
G18  24450727.891   128489447.878        2779.941          45.000    24450714.205   100121769.533        2166.059          45.000  
G15  22210213.907   116715467.223        1699.382          47.000    22210198.734    90947055.749        1324.069          45.000  
G11  25203964.298   132447730.999       -3329.037          41.000    25203954.232   103205969.540       -2593.976          41.000  
G07  27613641.865                       -2147.063          32.000    27613627.942                       -1672.580          31.000  
> 2024 08 28 03 21 46.8560000  0 11                     
G13  21743611.842   114263452.587        -401.353          47.000                                                                  
G24  27267365.908   143291001.189        3599.426          34.000    27267365.790   111655306.044        2804.990          34.000  
G05  22559250.658   118549664.044       -1237.402          46.000    22559234.988    92376294.329        -964.227          46.000  
G30  25739742.015   135263265.787        -982.513          40.000    25739730.517   105400254.399        -765.649          38.000  
G29  23852677.074   125346670.794       -2064.253          44.000    23852663.071    97672926.771       -1608.585          42.000  
G20  23886614.035   125525007.736       -2232.319          43.000                                                                  
G23  26831355.318   140999733.205        2557.031          40.000    26831347.500   109870228.186        1992.806          38.000  
G18  24450701.430   128489308.887        2779.773          45.000    24450687.747   100121661.221        2166.100          45.000  
G15  22210197.750   116715382.258        1699.265          47.000    22210182.565    90946989.542        1324.021          45.000  
G11  25203995.987   132447897.432       -3328.808          41.000    25203985.901   103206099.226       -2593.773          41.000  
G07  27613662.338                       -2146.083          32.000    27613648.366                       -1672.856          31.000  
> 2024 08 28 03 21 46.9060000  0 11                     
G13  21743615.682   114263472.657        -401.427          47.000                                                                  
G24  27267331.667   143290821.197        3599.655          34.000    27267331.539   111655165.820        2804.548          34.000  
G05  22559262.425   118549725.902       -1237.238          45.000    22559246.748    92376342.536        -964.179          46.000  
G30  25739751.365   135263314.886        -982.074          40.000    25739739.855   105400292.669        -765.472          38.000  
G29  23852696.731   125346774.011       -2064.354          44.000    23852682.698    97673007.199       -1608.559          42.000  
G20  23886635.284   125525119.359       -2232.465          43.000                                                                  
G23  26831330.994   140999605.360        2556.918          40.000    26831323.159   109870128.566        1992.474          38.000  
G18  24450674.986   128489169.884        2779.889          45.000    24450661.271   100121552.898        2166.355          45.000  
G15  22210181.597   116715297.294        1699.192          47.000    22210166.401    90946923.328        1324.188          45.000  
G11  25204027.678   132448063.878       -3328.882          41.000    25204017.574   103206228.919       -2593.842          41.000  
G07  27613682.771                       -2146.139          32.000    27613668.788                       -1672.290          31.000  
> 2024 08 28 03 21 46.9560000  0 11                     
G13  21743619.500   114263492.716        -401.269          47.000                                                                  
G24  27267297.413   143290641.242        3599.158          34.000    27267297.286   111655025.589        2804.624          34.000  
G05  22559274.203   118549787.764       -1237.225          45.000    22559258.509    92376390.741        -964.142          46.000  
G30  25739760.730   135263364.006        -982.281          40.000    25739749.200   105400330.930        -765.253          38.000  
G29  23852716.344   125346877.222       -2064.307          44.000    23852702.323    97673087.614       -1608.395          42.000  
G20  23886656.517   125525230.973       -2232.344          43.000                                                                  
G23  26831306.645   140999477.509        2556.967          40.000    26831298.827   109870028.943        1992.325          38.000  
G18  24450648.553   128489030.877        2780.062          45.000    24450634.808   100121444.585        2166.315          45.000  
G15  22210165.423   116715212.318        1699.414          47.000    22210150.211    90946857.118        1324.219          45.000  
G11  25204059.338   132448230.321       -3328.845          41.000    25204049.226   103206358.608       -2593.787          41.000  
G07  27613703.210                       -2147.101          32.000    27613689.203                       -1672.102          31.000  
> 2024 08 28 03 21 47.0060000  0 11                     
G13  21743623.291   114263512.777        -401.239          47.000                                                                  
G24  27267263.198   143290461.286        3599.010          34.000    27267263.048   111654885.338        2804.842          34.000  
G05  22559285.974   118549849.628       -1237.268          45.000    22559270.268    92376438.940        -964.020          46.000  
G30  25739770.082   135263413.116        -982.239          40.000    25739758.548   105400369.184        -765.082          38.000  
G29  23852735.972   125346980.426       -2064.117          44.000    23852721.993    97673168.031       -1608.348          42.000  
G20  23886677.758   125525342.562       -2231.887          43.000                                                                  
G23  26831282.317   140999349.635        2557.371          40.000    26831274.482   109869929.311        1992.494          38.000  
G18  24450622.089   128488891.871        2780.077          45.000    24450608.332   100121336.275        2166.199          45.000  
G15  22210149.238   116715127.349        1699.389          47.000    22210134.051    90946790.903        1324.280          45.000  
G11  25204091.024   132448396.755       -3328.691          41.000    25204080.907   103206488.314       -2594.070          41.000  
G07  27613723.695                       -2147.636          32.000    27613709.641                       -1673.115          31.000  
> 2024 08 28 03 21 47.0560000  0 11                     
G13  21743627.102   114263532.849        -401.447          47.000                                                                  
G24  27267228.919   143290281.292        3599.636          34.000    27267228.799   111654745.069        2805.271          34.000  
G05  22559297.772   118549911.490       -1237.262          46.000    22559282.031    92376487.145        -964.093          46.000  
G30  25739779.422   135263462.223        -982.123          40.000    25739767.917   105400407.451        -765.277          38.000  
G29  23852755.629   125347083.647       -2064.347          44.000    23852741.644    97673248.469       -1608.685          42.000  
G20  23886698.981   125525454.191       -2232.363          43.000                                                                  
G23  26831257.985   140999221.780        2557.234          40.000    26831250.148   109869829.685        1992.476          38.000  
G18  24450595.614   128488752.863        2780.074          45.000    24450581.866   100121227.959        2166.251          45.000  
G15  22210133.055   116715042.381        1699.333          47.000    22210117.880    90946724.696        1324.169          45.000  
G11  25204122.716   132448563.191       -3328.686          41.000    25204112.591   103206618.027       -2594.316          41.000  
G07  27613744.064                       -2146.142          32.000    27613730.085                       -1672.826          31.000  
> 2024 08 28 03 21 47.1060000  0 11                     
G13  21743630.930   114263552.922        -401.508          47.000                                                                  
G24  27267194.697   143290101.264        3600.455          34.000    27267194.573   111654604.839        2804.810          34.000  
G05  22559309.563   118549973.355       -1237.341          46.000    22559293.808    92376535.358        -964.270          46.000  
G30  25739788.783   135263511.349        -982.495          40.000    25739777.278   105400445.739        -765.729          38.000  
G29  23852775.268   125347186.874       -2064.556          44.000    23852761.295    97673328.901       -1608.702          42.000  
G20  23886720.232   125525565.818       -2232.610          43.000                                                                  
G23  26831233.664   140999093.924        2557.095          40.000    26831225.835   109869730.044        1992.802          38.000  
G18  24450569.173   128488613.876        2779.772          45.000    24450555.408   100121119.655        2166.074          45.000  
G15  22210116.891   116714957.418        1699.235          47.000    22210101.726    90946658.492        1324.071          45.000  
G11  25204154.405   132448729.646       -3329.137          41.000    25204144.258   103206747.711       -2593.883          41.000  
G07  27613764.471                       -2146.772          32.000    27613750.521                       -1673.022          31.000  
> 2024 08 28 03 21 47.1560000  0 11                     
G13  21743634.748   114263573.003        -401.661          47.000                                                                  
G24  27267160.446   143289921.307        3599.354          34.000    27267160.339   111654464.621        2804.569          34.000  
G05  22559321.347   118550035.242       -1237.750          46.000    22559305.593    92376583.576        -964.404          46.000  
G30  25739798.143   135263560.485        -982.843          40.000    25739786.624   105400484.029        -765.857          38.000  
G29  23852794.915   125347290.098       -2064.596          44.000    23852780.925    97673409.340       -1608.841          42.000  
G20  23886741.473   125525677.421       -2232.239          43.000                                                                  
G23  26831209.329   140998966.088        2556.704          40.000    26831201.502   109869630.426        1992.449          38.000  
G18  24450542.722   128488474.890        2779.592          45.000    24450528.978   100121011.349        2166.045          45.000  
G15  22210100.737   116714872.467        1698.977          47.000    22210085.580    90946592.296        1323.905          45.000  
G11  25204186.078   132448896.097       -3329.154          41.000    25204175.930   103206877.420       -2594.174          41.000  
G07  27613784.910                       -2147.252          32.000    27613770.983                       -1672.839          31.000  
> 2024 08 28 03 21 47.2060000  0 11                     
G13  21743638.569   114263593.076        -401.552          47.000                                                                  
G24  27267126.200   143289741.376        3598.593          34.000    27267126.095   111654324.373        2804.994          33.000  
G05  22559333.120   118550097.107       -1237.500          46.000    22559317.365    92376631.788        -964.349          46.000  
G30  25739807.512   135263609.596        -982.434          40.000    25739795.964   105400522.308        -765.625          38.000  
G29  23852814.540   125347393.319       -2064.527          44.000    23852800.577    97673489.776       -1608.810          42.000  
G20  23886762.691   125525789.039       -2232.314          43.000                                                                  
G23  26831185.007   140998838.244        2556.769          40.000    26831177.182   109869530.814        1992.196          38.000  
G18  24450516.276   128488335.891        2779.833          45.000    24450502.533   100120903.047        2165.965          45.000  
G15  22210084.572   116714787.504        1699.126          47.000    22210069.408    90946526.098        1323.850          45.000  
G11  25204217.764   132449062.564       -3329.380          41.000    25204207.597   103207007.123       -2594.186          41.000  
G07  27613805.368                       -2147.113          32.000    27613791.396                       -1673.109          31.000  
> 2024 08 28 03 21 47.2560000  0 11                     
G13  21743642.364   114263613.150        -401.509          47.000                                                                  
G24  27267091.942   143289561.394        3599.284          34.000    27267091.833   111654184.115        2805.213          34.000  
G05  22559344.875   118550158.971       -1237.335          46.000    22559329.134    92376679.991        -964.142          46.000  
G30  25739816.871   135263658.713        -982.312          40.000    25739805.305   105400560.575        -765.338          38.000  
G29  23852834.175   125347496.538       -2064.428          44.000    23852820.197    97673570.201       -1608.624          42.000  
G20  23886783.957   125525900.662       -2232.415          43.000                                                                  
G23  26831160.659   140998710.378        2557.158          40.000    26831152.855   109869431.189        1992.374          38.000  
G18  24450489.835   128488196.888        2780.062          45.000    24450476.057   100120794.723        2166.340          45.000  
G15  22210068.388   116714702.542        1699.194          47.000    22210053.231    90946459.894        1324.030          45.000  
G11  25204249.419   132449229.008       -3329.009          41.000    25204239.253   103207136.807       -2593.772          41.000  
G07  27613825.773                       -2146.595          32.000    27613811.803   113073958.616       -1672.862          31.000  
> 2024 08 28 03 21 47.3060000  0 11                     
G13  21743646.195   114263633.228        -401.559          47.000                                                                  
G24  27267057.703   143289381.401        3600.039          34.000    27267057.593   111654043.890        2804.752          33.000  
G05  22559356.645   118550220.838       -1237.317          46.000    22559340.921    92376728.187        -963.940          46.000  
G30  25739826.238   135263707.839        -982.495          40.000    25739814.646   105400598.840        -765.265          38.000  
G29  23852853.834   125347599.755       -2064.387          44.000    23852839.852    97673650.625       -1608.509          42.000  
G20  23886805.174   125526012.261       -2232.107          43.000                                                                  
G23  26831136.307   140998582.504        2557.486          40.000    26831128.535   109869331.536        1992.947          38.000  
G18  24450463.386   128488057.883        2780.152          45.000    24450449.633   100120686.408        2166.368          45.000  
G15  22210052.226   116714617.578        1699.274          47.000    22210037.092    90946393.685        1324.215          45.000  
G11  25204281.091   132449395.450       -3328.887          41.000    25204270.921   103207266.502       -2593.785          41.000  
G07  27613846.181                       -2146.085          32.000    27613832.256                       -1672.468          31.000  
> 2024 08 28 03 21 47.3560000  0 11                     
G13  21743650.005   114263653.307        -401.589          47.000                                                                  
G24  27267023.450   143289201.393        3600.306          34.000    27267023.352   111653903.664        2804.412          33.000  
G05  22559368.432   118550282.708       -1237.378          46.000    22559352.695    92376776.404        -964.252          46.000  
G30  25739835.585   135263756.960        -982.483          40.000    25739824.003   105400637.134        -765.814          38.000  
G29  23852873.490   125347702.975       -2064.435          45.000    23852859.496    97673731.060       -1608.675          42.000  
G20  23886826.412   125526123.883       -2232.343          43.000                                                                  
G23  26831111.950   140998454.651        2557.244          40.000    26831104.194   109869231.909        1992.653          38.000  
G18  24450436.939   128487918.882        2780.058          45.000    24450423.172   100120578.102        2166.182          45.000  
G15  22210036.054   116714532.623        1699.107          47.000    22210020.936    90946327.480        1324.158          45.000  
G11  25204312.765   132449561.880       -3328.667          41.000    25204302.601   103207396.195       -2593.848          41.000  
G07  27613866.602                       -2146.427          32.000    27613852.667   113074125.843       -1672.112          31.000  
> 2024 08 28 03 21 47.4060000  0 11                     
G13  21743653.814   114263673.390        -401.702          47.000                                                                  
G24  27266989.215   143289021.418        3599.866          34.000    27266989.101   111653763.423        2804.567          33.000  
G05  22559380.202   118550344.577       -1237.372          46.000    22559364.492    92376824.616        -964.288          46.000  
G30  25739844.911   135263806.087        -982.617          40.000    25739833.324   105400675.409        -765.625          38.000  
G29  23852893.151   125347806.207       -2064.680          44.000    23852879.158    97673811.500       -1608.806          42.000  
G20  23886847.667   125526235.514       -2232.639          43.000                                                                  
G23  26831087.637   140998326.806        2556.947          40.000    26831079.857   109869132.287        1992.510          38.000  
G18  24450410.495   128487779.887        2779.899          45.000    24450396.712   100120469.794        2166.106          45.000  
G15  22210019.879   116714447.667        1699.052          47.000    22210004.797    90946261.288        1323.856          45.000  
G11  25204344.456   132449728.328       -3328.921          41.000    25204334.281   103207525.903       -2594.131          41.000  
G07  27613887.043                       -2147.502          32.000    27613873.125                       -1674.089          31.000  
> 2024 08 28 03 21 47.4560000  0 11                     
G13  21743657.642   114263693.475        -401.771          47.000                                                                  
G24  27266954.981   143288841.472        3598.947          34.000    27266954.869   111653623.191        2804.585          33.000  
G05  22559391.997   118550406.455       -1237.604          46.000    22559376.246    92376872.827        -964.276          46.000  
G30  25739854.266   135263855.219        -982.709          40.000    25739842.668   105400713.695        -765.778          38.000  
G29  23852912.795   125347909.435       -2064.707          44.000    23852898.790    97673891.939       -1608.848          42.000  
G20  23886868.909   125526347.131       -2232.502          43.000                                                                  
G23  26831063.304   140998198.959        2556.884          40.000    26831055.529   109869032.686        1992.075          38.000  
G18  24450384.066   128487640.903        2779.643          45.000    24450370.270   100120361.492        2165.948          45.000  
G15  22210003.722   116714362.710        1699.052          47.000    22209988.632    90946195.088        1323.881          45.000  
G11  25204376.124   132449894.795       -3329.382          41.000    25204365.962   103207655.606       -2594.136          41.000  
G07  27613907.504                       -2147.695          32.000    27613893.547                       -1673.714          31.000  
> 2024 08 28 03 21 47.5060000  0 11                     
G13  21743661.468   114263713.568        -401.906          47.000                                                                  
G24  27266920.763   143288661.501        3598.933          34.000    27266920.584   111653482.903        2805.561          33.000  
G05  22559403.769   118550468.337       -1237.726          46.000    22559388.030    92376921.047        -964.410          46.000  
G30  25739863.626   135263904.357        -982.880          40.000    25739852.020   105400751.982        -765.887          38.000  
G29  23852932.423   125348012.674       -2064.829          44.000    23852918.456    97673972.382       -1608.909          42.000  
G20  23886890.156   125526458.769       -2232.799          43.000                                                                  
G23  26831038.956   140998071.108        2556.940          40.000    26831031.196   109868933.062        1992.238          38.000  
G18  24450357.617   128487501.909        2779.703          45.000    24450343.821   100120253.186        2165.990          45.000  
G15  22209987.577   116714277.765        1698.855          47.000    22209972.457    90946128.903        1323.672          45.000  
G11  25204407.812   132450061.263       -3329.540          41.000    25204397.634   103207785.317       -2594.259          41.000  
G07  27613927.935                       -2147.157          32.000    27613913.943                       -1672.929          31.000  
> 2024 08 28 03 21 47.5560000  0 11                     
G13  21743665.282   114263733.654        -401.829          47.000                                                                  
G24  27266886.550   143288481.540        3598.973          34.000    27266886.360   111653342.720        2804.073          33.000  
G05  22559415.543   118550530.218       -1237.756          46.000    22559399.794    92376969.271        -964.539          46.000  
G30  25739872.965   135263953.497        -982.983          40.000    25739861.374   105400790.257        -765.619          38.000  
G29  23852952.069   125348115.906       -2064.760          44.000    23852938.112    97674052.821       -1608.813          42.000  
G20  23886911.382   125526570.386       -2232.512          43.000                                                                  
G23  26831014.651   140997943.250        2557.062          40.000    26831006.885   109868833.419        1992.759          38.000  
G18  24450331.166   128487362.923        2779.623          45.000    24450317.380   100120144.886        2165.969          45.000  
G15  22209971.407   116714192.822        1698.764          47.000    22209956.284    90946062.710        1323.784          45.000  
G11  25204439.479   132450227.698       -3328.884          41.000    25204429.309   103207915.016       -2594.074          41.000  
G07  27613948.396                       -2146.651          32.000    27613934.386   113074460.458       -1672.391          31.000  
> 2024 08 28 03 21 47.6060000  0 11                     
G13  21743669.104   114263753.738        -401.778          47.000                                                                  
G24  27266852.283   143288301.540        3599.720          34.000    27266852.095   111653202.466        2804.694          33.000  
G05  22559427.318   118550592.084       -1237.408          46.000    22559411.553    92377017.485        -964.349          46.000  
G30  25739882.310   135264002.628        -982.745          40.000    25739870.693   105400828.552        -765.881          38.000  
G29  23852971.705   125348219.140       -2064.753          44.000    23852957.762    97674133.252       -1608.619          42.000  
G20  23886932.622   125526681.998       -2232.345          43.000                                                                  
G23  26830990.314   140997815.410        2556.822          40.000    26830982.541   109868733.796        1992.564          38.000  
G18  24450304.724   128487223.937        2779.639          45.000    24450290.918   100120036.581        2166.025          45.000  
G15  22209955.241   116714107.876        1698.808          47.000    22209940.118    90945996.513        1323.871          45.000  
G11  25204471.159   132450394.151       -3328.992          41.000    25204461.000   103208044.724       -2594.141          41.000  
G07  27613968.825                       -2146.834          32.000    27613954.822                       -1672.914          31.000  
> 2024 08 28 03 21 47.6560000  0 11                     
G13  21743672.952   114263773.833        -401.910          47.000                                                                  
G24  27266818.019   143288121.533        3600.162          34.000    27266817.825   111653062.195        2805.325          33.000  
G05  22559439.087   118550653.958       -1237.445          46.000    22559423.294    92377065.698        -964.270          46.000  
G30  25739891.667   135264051.747        -982.477          40.000    25739880.062   105400866.842        -765.875          38.000  
G29  23852991.348   125348322.372       -2064.700          44.000    23852977.411    97674213.702       -1608.870          42.000  
G20  23886953.855   125526793.625       -2232.572          43.000                                                                  
G23  26830965.991   140997687.559        2556.951          40.000    26830958.227   109868634.174        1992.393          38.000  
G18  24450278.272   128487084.928        2780.012          45.000    24450264.465   100119928.274        2166.075          45.000  
G15  22209939.064   116714022.925        1698.925          47.000    22209923.927    90945930.315        1323.901          45.000  
G11  25204502.822   132450560.607       -3329.146          41.000    25204492.674   103208174.429       -2594.110          41.000  
G07  27613989.199                       -2147.296          32.000    27613975.270                       -1673.294          31.000  
> 2024 08 28 03 21 47.7060000  0 11                     
G13  21743676.747   114263793.935        -402.059          47.000                                                                  
G24  27266783.773   143287941.583        3599.385          34.000    27266783.578   111652921.974        2804.591          33.000  
G05  22559450.858   118550715.835       -1237.543          46.000    22559435.080    92377113.908        -964.191          46.000  
G30  25739901.041   135264100.895        -982.861          40.000    25739889.411   105400905.128        -765.759          38.000  
G29  23853011.015   125348425.604       -2064.661          44.000    23852997.062    97674294.157       -1609.072          42.000  
G20  23886975.104   125526905.259       -2232.692          43.000                                                                  
G23  26830941.647   140997559.696        2557.200          40.000    26830933.870   109868534.554        1992.334          38.000  
G18  24450251.827   128486945.957        2779.546          45.000    24450238.018   100119819.970        2166.062          45.000  
G15  22209922.886   116713937.980        1698.894          47.000    22209907.775    90945864.122        1323.864          45.000  
G11  25204534.512   132450727.084       -3329.577          41.000    25204524.366   103208304.148       -2594.326          41.000  
G07  27614009.643                       -2146.903          32.000    27613995.675   113074711.435       -1673.019          31.000  
> 2024 08 28 03 21 47.7560000  0 11                     
G13  21743680.556   114263814.037        -402.151          47.000                                                                  
G24  27266749.526   143287761.619        3599.221          34.000    27266749.335   111652781.749        2804.395          33.000  
G05  22559462.658   118550777.732       -1237.872          46.000    22559446.837    92377162.132        -964.465          46.000  
G30  25739910.407   135264150.043        -982.996          40.000    25739898.762   105400943.426        -765.912          38.000  
G29  23853030.672   125348528.859       -2065.042          44.000    23853016.725    97674374.614       -1609.230          42.000  
G20  23886996.340   125527016.892       -2232.753          43.000                                                                  
G23  26830917.313   140997431.837        2557.226          40.000    26830909.532   109868434.937        1992.260          38.000  
G18  24450225.346   128486806.969        2779.628          45.000    24450211.583   100119711.677        2165.931          45.000  
G15  22209906.718   116713853.041        1698.715          47.000    22209891.628    90945797.944        1323.593          45.000  
G11  25204566.176   132450893.543       -3329.284          41.000    25204556.048   103208433.860       -2594.326          41.000  
G07  27614030.097                       -2148.305          32.000    27614016.123   113074795.113       -1673.609          31.000  
> 2024 08 28 03 21 47.8060000  0 11                     
G13  21743684.380   114263834.141        -402.166          47.000                                                                  
G24  27266715.282   143287581.637        3599.441          34.000    27266715.086   111652641.525        2804.201          33.000  
G05  22559474.410   118550839.619       -1237.848          46.000    22559458.636    92377210.362        -964.636          46.000  
G30  25739919.756   135264199.188        -983.032          40.000    25739908.104   105400981.721        -765.881          38.000  
G29  23853050.330   125348632.106       -2065.066          44.000    23853036.387    97674455.062       -1609.155          42.000  
G20  23887017.592   125527128.525       -2232.734          43.000                                                                  
G23  26830892.984   140997304.011        2556.670          40.000    26830885.206   109868335.315        1992.348          38.000  
G18  24450198.896   128486667.986        2779.615          45.000    24450185.144   100119603.375        2165.970          45.000  
G15  22209890.577   116713768.107        1698.580          47.000    22209875.482    90945731.767        1323.509          45.000  
G11  25204597.844   132451060.002       -3329.236          41.000    25204587.711   103208563.556       -2594.005          41.000  
G07  27614050.506                       -2148.433          32.000    27614036.558   113074878.741       -1672.958          32.000  
> 2024 08 28 03 21 47.8560000  0 11                     
G13  21743688.229   114263854.246        -402.190          47.000                                                                  
G24  27266681.034   143287401.666        3599.424          34.000    27266680.855   111652501.282        2804.562          33.000  
G05  22559486.193   118550901.501       -1237.720          46.000    22559470.390    92377258.584        -964.587          46.000  
G30  25739929.099   135264248.346        -983.203          40.000    25739917.472   105401020.030        -766.156          38.000  
G29  23853069.963   125348735.351       -2064.970          44.000    23853056.044    97674535.514       -1609.132          42.000  
G20  23887038.819   125527240.141       -2232.499          43.000                                                                  
G23  26830868.661   140997176.171        2556.723          40.000    26830860.871   109868235.692        1992.330          38.000  
G18  24450172.447   128486529.010        2779.524          45.000    24450158.711   100119495.084        2165.812          45.000  
G15  22209874.444   116713683.178        1698.514          47.000    22209859.313    90945665.576        1323.713          45.000  
G11  25204629.509   132451226.443       -3328.910          41.000    25204619.393   103208693.272       -2594.283          41.000  
G07  27614070.970                       -2146.557          32.000    27614056.978   113074962.376       -1672.697          31.000  
> 2024 08 28 03 21 47.9060000  0 11                     
G13  21743692.048   114263874.342        -402.007          47.000                                                                  
G24  27266646.769   143287221.673        3599.694          34.000    27266646.595   111652361.011        2805.318          33.000  
G05  22559497.955   118550963.384       -1237.689          46.000    22559482.196    92377306.810        -964.539          46.000  
G30  25739938.453   135264297.490        -983.020          40.000    25739926.829   105401058.315        -765.808          38.000  
G29  23853089.593   125348838.589       -2064.843          44.000    23853075.686    97674615.957       -1608.917          42.000  
G20  23887060.069   125527351.756       -2232.321          43.000                                                                  
G23  26830844.333   140997048.320        2556.972          40.000    26830836.556   109868136.080        1992.137          38.000  
G18  24450145.979   128486390.018        2779.791          45.000    24450132.257   100119386.781        2165.973          45.000  
G15  22209858.278   116713598.237        1698.731          47.000    22209843.134    90945599.390        1323.749          45.000  
G11  25204661.194   132451392.912       -3329.256          41.000    25204651.077   103208822.989       -2594.400          41.000  
G07  27614091.400                       -2146.738          32.000    27614077.367   113075046.032       -1673.042          31.000  
> 2024 08 28 03 21 47.9560000  0 11                     
G13  21743695.861   114263894.448        -402.103          47.000                                                                  
G24  27266612.510   143287041.704        3599.535          34.000    27266612.312   111652220.776        2804.909          33.000  
G05  22559509.745   118551025.262       -1237.543          46.000    22559493.965    92377355.027        -964.380          46.000  
G30  25739947.810   135264346.629        -982.819          40.000    25739936.161   105401096.612        -765.906          38.000  
G29  23853109.244   125348941.840       -2065.028          44.000    23853095.332    97674696.398       -1608.840          42.000  
G20  23887081.298   125527463.397       -2232.754          43.000                                                                  
G23  26830819.989   140996920.461        2557.145          40.000    26830812.248   109868036.461        1992.184          38.000  
G18  24450119.519   128486251.026        2779.837          45.000    24450105.793   100119278.481        2165.997          45.000  
G15  22209842.140   116713513.293        1698.859          47.000    22209826.976    90945533.199        1323.792          45.000  
G11  25204692.893   132451559.395       -3329.681          41.000    25204682.738   103208952.682       -2593.979          41.000  
G07  27614111.832                       -2146.532          32.000    27614097.801   113075129.680       -1673.097          31.000  
> 2024 08 28 03 21 48.0060000  0 11                     
G13  21743699.683   114263914.553        -402.107          47.000                                                                  
G24  27266578.218   143286861.723        3599.617          34.000    27266578.051   111652080.529        2804.769          33.000  
G05  22559521.529   118551087.151       -1237.708          46.000    22559505.716    92377403.240        -964.258          46.000  
G30  25739957.168   135264395.782        -983.002          40.000    25739945.516   105401134.924        -766.254          38.000  
G29  23853128.871   125349045.083       -2064.960          44.000    23853114.985    97674776.852       -1609.008          42.000  
G20  23887102.522   125527575.012       -2232.490          43.000                                                                  
G23  26830795.663   140996792.620        2556.845          40.000    26830787.925   109867936.850        1992.159          38.000  
G18  24450093.076   128486112.055        2779.487          45.000    24450079.341   100119170.171        2166.167          45.000  
G15  22209825.983   116713428.351        1698.859          47.000    22209810.833    90945467.018        1323.606          45.000  
G11  25204724.561   132451725.849       -3329.278          41.000    25204714.423   103209082.397       -2594.240          41.000  
G07  27614132.298                       -2147.542          32.000    27614118.228   113075213.354       -1673.528          32.000  
> 2024 08 28 03 21 48.0560000  0 11                     
G13  21743703.465   114263934.662        -402.208          47.000                                                                  
G24  27266543.947   143286681.731        3599.807          34.000    27266543.801   111651940.288        2804.779          33.000  
G05  22559533.319   118551149.043       -1237.842          46.000    22559517.464    92377451.465        -964.490          46.000  
G30  25739966.524   135264444.935        -983.112          40.000    25739954.871   105401173.213        -765.961          38.000  
G29  23853148.514   125349148.333       -2065.057          44.000    23853134.618    97674857.311       -1609.160          42.000  
G20  23887123.762   125527686.658       -2232.844          43.000                                                                  
G23  26830771.366   140996664.780        2556.700          40.000    26830763.592   109867837.194        1992.826          38.000  
G18  24450066.618   128485973.072        2779.547          45.000    24450052.905   100119061.886        2165.784          45.000  
G15  22209809.831   116713343.431        1698.427          47.000    22209794.677    90945400.851        1323.311          45.000  
G11  25204756.228   132451892.305       -3329.131          41.000    25204746.109   103209212.119       -2594.474          41.000  
G07  27614152.754                       -2147.323          32.000    27614138.633   113075297.020       -1673.354          32.000  
> 2024 08 28 03 21 48.1060000  0 11                     
G13  21743707.294   114263954.786        -402.489          47.000                                                                  
G24  27266509.712   143286501.761        3599.483          34.000    27266509.542   111651800.048        2804.727          33.000  
G05  22559545.077   118551210.937       -1237.866          46.000    22559529.233    92377499.698        -964.673          46.000  
G30  25739975.861   135264494.103        -983.374          40.000    25739964.217   105401211.512        -765.967          38.000  
G29  23853168.151   125349251.595       -2065.264          44.000    23853154.254    97674937.777       -1609.356          42.000  
G20  23887145.013   125527798.298       -2232.934          43.000                                                                  
G23  26830747.046   140996536.945        2556.605          40.000    26830739.286   109867737.587        1992.304          38.000  
G18  24450040.168   128485834.098        2779.447          45.000    24450026.452   100118953.593        2165.763          45.000  
G15  22209793.665   116713258.511        1698.324          47.000    22209778.486    90945334.674        1323.386          45.000  
G11  25204787.898   132452058.778       -3329.403          41.000    25204777.781   103209341.833       -2594.392          41.000  
G07  27614173.192                       -2147.683          32.000    27614159.100   113075380.689       -1673.365          32.000  
> 2024 08 28 03 21 48.1560000  0 11                     
G13  21743711.122   114263974.906        -402.478          47.000                                                                  
G24  27266475.488   143286321.794        3599.321          34.000    27266475.284   111651659.825        2804.355          33.000  
G05  22559556.830   118551272.818       -1237.653          46.000    22559541.020    92377547.927        -964.661          46.000  
G30  25739985.229   135264543.250        -983.154          40.000    25739973.568   105401249.812        -765.930          38.000  
G29  23853187.786   125349354.847       -2065.140          44.000    23853173.886    97675018.236       -1609.264          42.000  
G20  23887166.268   125527909.943       -2232.978          43.000                                                                  
G23  26830722.737   140996409.106        2556.684          40.000    26830714.962   109867637.983        1992.021          38.000  
G18  24450013.730   128485695.124        2779.386          45.000    24450000.017   100118845.303        2165.740          45.000  
G15  22209777.466   116713173.588        1698.356          47.000    22209762.329    90945268.492        1323.572          45.000  
G11  25204819.581   132452225.257       -3329.555          41.000    25204809.471   103209471.563       -2594.682          41.000  
G07  27614193.618                       -2147.221          32.000    27614179.522   113075464.386       -1674.119          32.000  
> 2024 08 28 03 21 48.2060000  0 11                     
G13  21743714.925   114263995.015        -402.275          47.000                                                                  
G24  27266441.231   143286141.835        3599.129          34.000    27266441.026   111651519.573        2804.861          33.000  
G05  22559568.592   118551334.707       -1237.720          46.000    22559552.797    92377596.147        -964.447          46.000  
G30  25739994.601   135264592.402        -983.063          40.000    25739982.936   105401288.123        -766.193          38.000  
G29  23853207.439   125349458.105       -2065.166          44.000    23853193.515    97675098.687       -1609.110          42.000  
G20  23887187.510   125528021.581       -2232.913          43.000                                                                  
G23  26830698.391   140996281.232        2557.308          40.000    26830690.639   109867538.361        1992.223          38.000  
G18  24449987.280   128485556.143        2779.509          45.000    24449973.591   100118737.005        2165.882          45.000  
G15  22209761.282   116713088.654        1698.591          47.000    22209746.154    90945202.312        1323.627          45.000  
G11  25204851.267   132452391.720       -3329.320          41.000    25204841.130   103209601.271       -2594.360          41.000  
G07  27614213.988   145113672.122       -2146.460          32.000    27614199.952                       -1673.207          32.000  
> 2024 08 28 03 21 48.2560000  0 11                     
G13  21743718.737   114264015.131        -402.353          47.000                                                                  
G24  27266406.985   143285961.847        3599.583          34.000    27266406.758   111651379.298        2805.327          33.000  
G05  22559580.358   118551396.606       -1238.013          46.000    22559564.585    92377644.374        -964.478          46.000  
G30  25740003.930   135264641.561        -983.191          40.000    25739992.282   105401326.441        -766.443          38.000  
G29  23853227.089   125349561.366       -2065.271          44.000    23853213.149    97675179.156       -1609.379          42.000  
G20  23887208.723   125528133.194       -2232.416          43.000                                                                  
G23  26830674.054   140996153.389        2557.042          40.000    26830666.299   109867438.743        1992.273          38.000  
G18  24449960.831   128485417.168        2779.456          45.000    24449947.147   100118628.713        2165.849          45.000  
G15  22209745.116   116713003.722        1698.615          47.000    22209730.023    90945136.141        1323.461          45.000  
G11  25204882.951   132452558.196       -3329.407          41.000    25204872.789   103209730.975       -2594.158          41.000  
G07  27614234.453                       -2147.246          32.000    27614220.374                       -1673.207          32.000  
> 2024 08 28 03 21 48.3060000  0 11                     
G13  21743722.563   114264035.258        -402.528          47.000                                                                  
G24  27266372.701   143285781.825        3600.327          34.000    27266372.517   111651239.073        2804.653          33.000  
G05  22559592.137   118551458.499       -1237.964          46.000    22559576.364    92377692.603        -964.569          46.000  
G30  25740013.274   135264690.713        -983.093          40.000    25740001.637   105401364.741        -766.089          38.000  
G29  23853246.761   125349664.617       -2065.098          44.000    23853232.787    97675259.614       -1609.271          42.000  
G20  23887229.961   125528244.813       -2232.372          43.000                                                                  
G23  26830649.744   140996025.557        2556.654          40.000    26830641.956   109867339.109        1992.631          38.000  
G18  24449934.384   128485278.185        2779.564          45.000    24449920.690   100118520.414        2165.930          45.000  
G15  22209728.986   116712918.798        1698.479          47.000    22209713.851    90945069.960        1323.541          45.000  
G11  25204914.607   132452724.646       -3329.106          41.000    25204904.472   103209860.700       -2594.479          41.000  
G07  27614254.903                       -2147.856          32.000    27614240.839                       -1673.863          31.000  
> 2024 08 28 03 21 48.3560000  0 11                     
G13  21743726.417   114264055.377        -402.481          47.000                                                                  
G24  27266338.488   143285601.855        3599.649          34.000    27266338.274   111651098.850        2804.335          33.000  
G05  22559603.883   118551520.382       -1237.738          46.000    22559588.143    92377740.828        -964.526          46.000  
G30  25740022.616   135264739.877        -983.319          40.000    25740010.983   105401403.041        -766.010          38.000  
G29  23853266.426   125349767.865       -2064.978          44.000    23853252.424    97675340.069       -1609.161          42.000  
G20  23887251.215   125528356.458       -2232.768          43.000                                                                  
G23  26830625.412   140995897.709        2556.792          40.000    26830617.600   109867239.493        1992.353          38.000  
G18  24449907.970   128485139.200        2779.645          45.000    24449894.221   100118412.114        2165.967          45.000  
G15  22209712.812   116712833.871        1698.479          47.000    22209697.670    90945003.785        1323.492          45.000  
G11  25204946.274   132452891.118       -3329.360          41.000    25204936.145   103209990.411       -2594.374          41.000  
G07  27614275.331                       -2147.617          32.000    27614261.274                       -1673.158          31.000  
> 2024 08 28 03 21 48.4060000  0 11                     
G13  21743730.228   114264075.492        -402.368          47.000                                                                  
G24  27266304.229   143285421.910        3599.036          34.000    27266304.016   111650958.599        2804.849          33.000  
G05  22559615.671   118551582.268       -1237.701          46.000    22559599.907    92377789.045        -964.343          46.000  
G30  25740031.975   135264789.037        -983.289          40.000    25740020.344   105401441.344        -766.101          38.000  
G29  23853286.092   125349871.120       -2065.066          44.000    23853272.069    97675420.523       -1609.127          42.000  
G20  23887272.453   125528468.103       -2232.988          43.000                                                                  
G23  26830601.090   140995769.856        2556.967          40.000    26830593.253   109867139.856        1992.600          38.000  
G18  24449881.540   128485000.222        2779.548          45.000    24449867.785   100118303.819        2165.870          45.000  
G15  22209696.657   116712748.949        1698.393          47.000    22209681.501    90944937.613        1323.424          45.000  
G11  25204977.950   132453057.588       -3329.452          41.000    25204967.816   103210120.119       -2594.232          41.000  
G07  27614295.746                       -2147.223          32.000    27614281.720                       -1673.201          32.000  
> 2024 08 28 03 21 48.4560000  0 11                     
G13  21743734.047   114264095.611        -402.407          47.000                                                                  
G24  27266269.993   143285241.934        3599.250          35.000    27266269.741   111650818.366        2804.513          33.000  
G05  22559627.459   118551644.157       -1237.805          46.000    22559611.686    92377837.277        -964.557          46.000  
G30  25740041.322   135264838.195        -983.203          40.000    25740029.707   105401479.663        -766.406          38.000  
G29  23853305.748   125349974.393       -2065.428          44.000    23853291.707    97675500.986       -1609.276          42.000  
G20  23887293.717   125528579.719       -2232.570          43.000                                                                  
G23  26830576.770   140995641.998        2557.132          40.000    26830568.906   109867040.251        1992.089          38.000  
G18  24449855.100   128484861.240        2779.601          45.000    24449841.341   100118195.529        2165.783          45.000  
G15  22209680.489   116712664.024        1698.412          47.000    22209665.340    90944871.437        1323.474          45.000  
G11  25205009.636   132453224.060       -3329.488          41.000    25204999.486   103210249.830       -2594.232          41.000  
G07  27614316.177   145114208.983       -2146.624          32.000    27614302.156                       -1674.388          32.000  
> 2024 08 28 03 21 48.5060000  0 11                     
G13  21743737.868   114264115.736        -402.494          47.000                                                                  
G24  27266235.745   143285061.952        3599.423          35.000    27266235.487   111650678.095        2805.247          33.000  
G05  22559639.249   118551706.049       -1237.872          46.000    22559623.469    92377885.501        -964.526          46.000  
G30  25740050.685   135264887.362        -983.362          40.000    25740039.060   105401517.966        -766.211          38.000  
G29  23853325.397   125350077.662       -2065.516          45.000    23853311.362    97675581.461       -1609.537          42.000  
G20  23887314.960   125528691.360       -2232.781          43.000                                                                  
G23  26830552.444   140995514.153        2556.875          40.000    26830544.575   109866940.627        1992.296          38.000  
G18  24449828.667   128484722.268        2779.396          45.000    24449814.884   100118087.235        2165.790          45.000  
G15  22209664.349   116712579.111        1698.233          47.000    22209649.194    90944805.268        1323.356          45.000  
G11  25205041.294   132453390.536       -3329.567          41.000    25205031.177   103210379.557       -2594.423          41.000  
G07  27614336.646   145114316.367       -2147.457          32.000    27614322.619                       -1673.665          32.000  
> 2024 08 28 03 21 48.5560000  0 11                     
G13  21743741.682   114264135.859        -402.505          47.000                                                                  
G24  27266201.477   143284881.972        3599.511          35.000    27266201.230   111650537.851        2805.037          33.000  
G05  22559651.043   118551767.943       -1237.933          46.000    22559635.245    92377933.732        -964.606          46.000  
G30  25740060.046   135264936.533        -983.508          40.000    25740048.393   105401556.268        -766.095          38.000  
G29  23853345.029   125350180.923       -2065.327          44.000    23853330.999    97675661.923       -1609.373          42.000  
G20  23887336.200   125528803.018       -2233.122          43.000                                                                  
G23  26830528.129   140995386.312        2556.752          40.000    26830520.240   109866840.996        1992.597          38.000  
G18  24449802.200   128484583.293        2779.405          45.000    24449788.445   100117978.940        2165.856          45.000  
G15  22209648.198   116712494.191        1698.321          47.000    22209633.036    90944739.102        1323.295          45.000  
G11  25205072.962   132453557.007       -3329.486          41.000    25205062.831   103210509.281       -2594.515          41.000  
G07  27614357.077   145114423.738       -2147.635          32.000    27614343.055                       -1673.043          32.000  
> 2024 08 28 03 21 48.6060000  0 11                     
G13  21743745.546   114264155.986        -402.535          47.000                                                                  
G24  27266167.236   143284701.980        3599.898          35.000    27266166.964   111650397.621        2804.665          33.000  
G05  22559662.801   118551829.838       -1237.964          46.000    22559647.042    92377981.969        -964.764          46.000  
G30  25740069.439   135264985.701        -983.484          40.000    25740057.755   105401594.582        -766.321          38.000  
G29  23853364.661   125350284.186       -2065.297          44.000    23853350.647    97675742.388       -1609.321          42.000  
G20  23887357.446   125528914.640       -2232.697          43.000                                                                  
G23  26830503.798   140995258.478        2556.624          40.000    26830495.905   109866741.378        1992.413          38.000  
G18  24449775.759   128484444.324        2779.280          45.000    24449761.997   100117870.648        2165.778          45.000  
G15  22209632.038   116712409.270        1698.382          47.000    22209616.884    90944672.933        1323.296          45.000  
G11  25205104.611   132453723.473       -3329.370          41.000    25205094.521   103210639.002       -2594.496          41.000  
G07  27614377.556   145114531.139       -2147.996          32.000    27614363.481                       -1673.731          32.000  
> 2024 08 28 03 21 48.6560000  0 11                     
G13  21743749.382   114264176.126        -402.786          47.000                                                                  
G24  27266132.973   143284521.993        3599.935          34.000    27266132.703   111650257.386        2804.560          33.000  
G05  22559674.578   118551891.741       -1238.116          46.000    22559658.840    92378030.202        -964.716          46.000  
G30  25740078.802   135265034.870        -983.459          40.000    25740067.123   105401632.905        -766.473          38.000  
G29  23853384.342   125350387.458       -2065.487          44.000    23853370.301    97675822.858       -1609.420          42.000  
G20  23887378.669   125529026.273       -2232.623          43.000                                                                  
G23  26830479.462   140995130.622        2556.868          40.000    26830471.550   109866641.762        1992.354          38.000  
G18  24449749.308   128484305.354        2779.277          45.000    24449735.530   100117762.359        2165.716          45.000  
G15  22209615.879   116712324.357        1698.234          47.000    22209600.727    90944606.768        1323.240          45.000  
G11  25205136.296   132453889.945       -3329.463          41.000    25205126.218   103210768.717       -2594.373          41.000  
G07  27614398.003   145114638.504       -2147.395          32.000    27614383.960                       -1673.860          32.000  
> 2024 08 28 03 21 48.7060000  0 11                     
G13  21743753.204   114264196.265        -402.845          47.000                                                                  
G24  27266098.721   143284342.018        3599.573          34.000    27266098.454   111650117.136        2804.942          33.000  
G05  22559686.352   118551953.638       -1238.049          46.000    22559670.617    92378078.426        -964.551          46.000  
G30  25740088.175   135265084.033        -983.307          40.000    25740076.478   105401671.209        -766.235          38.000  
G29  23853404.007   125350490.730       -2065.521          44.000    23853389.961    97675903.324       -1609.360          42.000  
G20  23887399.909   125529137.914       -2232.844          43.000                                                                  
G23  26830455.137   140995002.782        2556.805          40.000    26830447.210   109866542.131        1992.520          38.000  
G18  24449722.828   128484166.374        2779.481          45.000    24449709.061   100117654.071        2165.706          45.000  
G15  22209599.737   116712239.447        1698.136          47.000    22209584.577    90944540.598        1323.308          45.000  
G11  25205167.966   132454056.419       -3329.549          41.000    25205157.918   103210898.433       -2594.274          41.000  
G07  27614418.435   145114745.876       -2147.170          32.000    27614404.417                       -1673.269          32.000  
> 2024 08 28 03 21 48.7560000  0 11                     
G13  21743757.014   114264216.390        -402.604          47.000                                                                  
G24  27266064.468   143284162.046        3599.339          34.000    27266064.193   111649976.881        2805.147          33.000  
G05  22559698.111   118552015.528       -1237.860          46.000    22559682.392    92378126.652        -964.490          46.000  
G30  25740097.542   135265133.207        -983.398          40.000    25740085.832   105401709.506        -765.942          38.000  
G29  23853423.668   125350594.000       -2065.513          44.000    23853409.629    97675983.798       -1609.495          42.000  
G20  23887421.157   125529249.552       -2232.812          43.000                                                                  
G23  26830430.815   140994874.938        2556.805          40.000    26830422.886   109866442.521        1992.226          38.000  
G18  24449696.387   128484027.401        2779.499          45.000    24449682.609   100117545.771        2165.948          45.000  
G15  22209583.570   116712154.534        1698.186          47.000    22209568.405    90944474.431        1323.278          45.000  
G11  25205199.661   132454222.908       -3329.770          41.000    25205189.608   103211028.148       -2594.225          41.000  
G07  27614438.845                       -2147.043          32.000    27614424.803                       -1673.097          32.000  
> 2024 08 28 03 21 48.8060000  0 11                     
G13  21743760.833   114264236.518        -402.569          47.000                                                                  
G24  27266030.221   143283982.051        3599.725          34.000    27266029.935   111649836.636        2805.086          33.000  
G05  22559709.903   118552077.416       -1237.811          46.000    22559694.162    92378174.881        -964.557          46.000  
G30  25740106.887   135265182.383        -983.521          40.000    25740095.175   105401747.838        -766.492          38.000  
G29  23853443.303   125350697.260       -2065.291          44.000    23853429.270    97676064.278       -1609.640          42.000  
G20  23887442.373   125529361.202       -2232.970          43.000                                                                  
G23  26830406.492   140994747.077        2557.059          40.000    26830398.575   109866342.900        1992.317          38.000  
G18  24449669.947   128483888.424        2779.516          45.000    24449656.182   100117437.481        2165.875          45.000  
G15  22209567.418   116712069.619        1698.235          47.000    22209552.241    90944408.266        1323.247          45.000  
G11  25205231.332   132454389.379       -3329.510          41.000    25205221.295   103211157.863       -2594.238          41.000  
G07  27614459.240                       -2146.814          32.000    27614445.256                       -1673.149          32.000  
> 2024 08 28 03 21 48.8560000  0 11                     
G13  21743764.669   114264256.657        -402.771          47.000                                                                  
G24  27265995.945   143283802.039        3600.220          34.000    27265995.687   111649696.360        2805.482          33.000  
G05  22559721.683   118552139.319       -1238.092          46.000    22559705.953    92378223.117        -964.758          46.000  
G30  25740116.246   135265231.551        -983.405          40.000    25740104.537   105401786.168        -766.614          38.000  
G29  23853462.984   125350800.532       -2065.418          44.000    23853448.936    97676144.751       -1609.558          42.000  
G20  23887463.597   125529472.827       -2232.734          43.000                                                                  
G23  26830382.180   140994619.235        2556.854          40.000    26830374.248   109866243.294        1992.098          38.000  
G18  24449643.500   128483749.449        2779.503          45.000    24449629.755   100117329.199        2165.626          45.000  
G15  22209551.247   116711984.709        1698.174          47.000    22209536.088    90944342.102        1323.191          45.000  
G11  25205263.003   132454555.844       -3329.338          41.000    25205252.985   103211287.612       -2594.929          41.000  
G07  27614479.700                       -2147.949          32.000    27614465.724                       -1674.043          32.000  
> 2024 08 28 03 21 48.9060000  0 11                     
G13  21743768.528   114264276.795        -402.813          47.000                                                                  
G24  27265961.742   143283622.123        3598.822          34.000    27265961.453   111649556.149        2804.442          33.000  
G05  22559733.470   118552201.221       -1238.123          46.000    22559717.737    92378271.353        -964.795          46.000  
G30  25740125.604   135265280.724        -983.411          40.000    25740113.894   105401824.488        -766.498          38.000  
G29  23853482.657   125350903.811       -2065.563          44.000    23853468.600    97676225.214       -1609.277          42.000  
G20  23887484.848   125529584.456       -2232.572          43.000                                                                  
G23  26830357.852   140994491.387        2556.932          40.000    26830349.931   109866143.657        1992.568          38.000  
G18  24449617.073   128483610.487        2779.255          45.000    24449603.307   100117220.909        2165.667          45.000  
G15  22209535.093   116711899.799        1698.156          47.000    22209519.930    90944275.937        1323.235          45.000  
G11  25205294.689   132454722.315       -3329.370          41.000    25205284.666   103211417.327       -2594.507          41.000  
G07  27614500.153                       -2148.226          32.000    27614486.151                       -1673.867          32.000  
> 2024 08 28 03 21 48.9560000  0 11                     
G13  21743772.356   114264296.931        -402.832          47.000                                                                  
G24  27265927.487   143283442.107        3600.062          34.000    27265927.213   111649415.896        2804.718          33.000  
G05  22559745.266   118552263.117       -1237.970          46.000    22559729.544    92378319.589        -964.825          46.000  
G30  25740134.964   135265329.907        -983.685          40.000    25740123.246   105401862.791        -766.125          38.000  
G29  23853502.315   125351007.083       -2065.527          44.000    23853488.267    97676305.690       -1609.460          42.000  
G20  23887506.088   125529696.109       -2232.958          43.000                                                                  
G23  26830333.521   140994363.537        2556.942          40.000    26830325.597   109866044.043        1992.420          38.000  
G18  24449590.644   128483471.526        2779.080          45.000    24449576.879   100117112.615        2165.822          45.000  
G15  22209518.927   116711814.889        1698.118          47.000    22209503.776    90944209.776        1323.211          45.000  
G11  25205326.365   132454888.796       -3329.629          41.000    25205316.341   103211547.031       -2594.113          41.000  
G07  27614520.572                       -2147.678          32.000    27614506.610                       -1673.970          32.000  
> 2024 08 28 03 21 49.0060000  0 11                     
G13  21743776.192   114264317.084        -403.080          47.000                                                                  
G24  27265893.246   143283262.110        3600.063          34.000    27265892.958   111649275.661        2804.768          33.000  
G05  22559757.057   118552325.023       -1238.062          46.000    22559741.308    92378367.820        -964.697          46.000  
G30  25740144.333   135265379.089        -983.759          40.000    25740132.604   105401901.113        -766.382          38.000  
G29  23853521.977   125351110.367       -2065.674          44.000    23853507.916    97676386.160       -1609.446          42.000  
G20  23887527.347   125529807.754       -2233.003          43.000                                                                  
G23  26830309.205   140994235.708        2556.600          40.000    26830301.277   109865944.408        1992.684          38.000  
G18  24449564.213   128483332.556        2779.205          45.000    24449550.428   100117004.329        2165.725          45.000  
G15  22209502.762   116711729.981        1698.113          47.000    22209487.611    90944143.611        1323.254          45.000  
G11  25205358.047   132455055.275       -3329.684          41.000    25205347.999   103211676.761       -2594.466          41.000  
G07  27614541.011                       -2147.712          32.000    27614527.064                       -1673.583          32.000  
> 2024 08 28 03 21 49.0560000  0 11                     
G13  21743780.016   114264337.221        -402.869          47.000                                                                  
G24  27265858.990   143283082.102        3600.296          34.000    27265858.710   111649135.425        2804.754          33.000  
G05  22559768.839   118552386.921       -1238.013          46.000    22559753.088    92378416.052        -964.679          46.000  
G30  25740153.709   135265428.265        -983.630          40.000    25740141.982   105401939.438        -766.553          38.000  
G29  23853541.600   125351213.630       -2065.381          44.000    23853527.580    97676466.630       -1609.413          42.000  
G20  23887548.593   125529919.388       -2232.744          43.000                                                                  
G23  26830284.885   140994107.845        2557.033          40.000    26830276.935   109865844.799        1992.295          38.000  
G18  24449537.763   128483193.572        2779.535          45.000    24449523.988   100116896.037        2165.808          45.000  
G15  22209486.604   116711645.067        1698.255          47.000    22209471.450    90944077.449        1323.241          45.000  
G11  25205389.731   132455221.764       -3329.893          41.000    25205379.670   103211806.476       -2594.354          41.000  
G07  27614561.459   145115497.545       -2147.766          32.000    27614547.483                       -1672.947          32.000  
> 2024 08 28 03 21 49.1060000  0 11                     
G13  21743783.848   114264357.360        -402.814          47.000                                                                  
G24  27265824.742   143282902.155        3599.270          34.000    27265824.440   111648995.138        2805.662          33.000  
G05  22559780.617   118552448.826       -1238.147          46.000    22559764.884    92378464.289        -964.728          46.000  
G30  25740163.086   135265477.447        -983.636          40.000    25740151.329   105401977.767        -766.681          38.000  
G29  23853561.258   125351316.905       -2065.462          44.000    23853547.234    97676547.111       -1609.641          42.000  
G20  23887569.824   125530031.030       -2232.794          43.000                                                                  
G23  26830260.568   140993979.999        2557.066          40.000    26830252.611   109865745.183        1992.194          38.000  
G18  24449511.320   128483054.591        2779.605          45.000    24449497.549   100116787.748        2165.769          45.000  
G15  22209470.452   116711560.156        1698.223          47.000    22209455.291    90944011.282        1323.315          45.000  
G11  25205421.383   132455388.244       -3329.762          41.000    25205411.364   103211936.203       -2594.527          41.000  
G07  27614581.948   145115604.923       -2147.656          32.000    27614567.927                       -1673.263          32.000  
> 2024 08 28 03 21 49.1560000  0 11                     
G13  21743787.682   114264377.499        -402.790          47.000                                                                  
G24  27265790.488   143282722.153        3599.791          34.000    27265790.168   111648854.881        2805.351          33.000  
G05  22559792.389   118552510.724       -1238.025          46.000    22559776.676    92378512.523        -964.716          46.000  
G30  25740172.458   135265526.624        -983.618          40.000    25740160.673   105402016.091        -766.669          38.000  
G29  23853580.895   125351420.188       -2065.662          44.000    23853566.918    97676627.583       -1609.511          42.000  
G20  23887591.049   125530142.660       -2232.683          43.000                                                                  
G23  26830236.221   140993852.141        2557.189          40.000    26830228.282   109865645.561        1992.242          38.000  
G18  24449484.888   128482915.625        2779.329          45.000    24449471.113   100116679.464        2165.675          45.000  
G15  22209454.292   116711475.255        1698.020          47.000    22209439.145    90943945.126        1323.155          45.000  
G11  25205453.062   132455554.710       -3329.417          41.000    25205443.047   103212065.925       -2594.483          41.000  
G07  27614602.373   145115712.272       -2147.138          32.000    27614588.368                       -1673.438          32.000  
> 2024 08 28 03 21 49.2060000  0 11                     
G13  21743791.502   114264397.661        -403.224          47.000                                                                  
G24  27265756.272   143282542.191        3599.450          34.000    27265755.904   111648714.638        2804.939          33.000  
G05  22559804.191   118552572.642       -1238.342          46.000    22559788.475    92378560.769        -964.972          46.000  
G30  25740181.811   135265575.815        -983.868          40.000    25740170.042   105402054.428        -766.888          38.000  
G29  23853600.531   125351523.480       -2065.891          44.000    23853586.559    97676708.070       -1609.718          42.000  
G20  23887612.295   125530254.318       -2233.098          43.000                                                                  
G23  26830211.899   140993724.320        2556.529          40.000    26830203.949   109865545.932        1992.376          38.000  
G18  24449458.448   128482776.661        2779.200          45.000    24449444.651   100116571.181        2165.573          45.000  
G15  22209438.153   116711390.369        1697.701          47.000    22209422.992    90943878.977        1322.971          45.000  
G11  25205484.754   132455721.184       -3329.449          41.000    25205474.745   103212195.647       -2594.514          41.000  
G07  27614622.843                       -2147.479          32.000    27614608.806   113077221.409       -1673.788          32.000  
> 2024 08 28 03 21 49.2560000  0 11                     
G13  21743795.343   114264417.819        -403.319          47.000                                                                  
G24  27265722.019   143282362.225        3599.233          34.000    27265721.668   111648574.425        2804.230          33.000  
G05  22559815.974   118552634.552       -1238.318          46.000    22559800.274    92378609.013        -965.033          46.000  
G30  25740191.180   135265624.998        -983.789          40.000    25740179.387   105402092.747        -766.595          38.000  
G29  23853620.175   125351626.768       -2065.868          44.000    23853606.200    97676788.556       -1609.812          42.000  
G20  23887633.546   125530365.965       -2233.083          43.000                                                                  
G23  26830187.590   140993596.465        2556.775          40.000    26830179.627   109865446.312        1992.386          38.000  
G18  24449432.014   128482637.708        2779.028          45.000    24449418.212   100116462.897        2165.575          45.000  
G15  22209422.000   116711305.477        1697.696          47.000    22209406.836    90943812.819        1323.071          45.000  
G11  25205516.454   132455887.672       -3329.670          41.000    25205506.422   103212325.388       -2594.859          41.000  
G07  27614643.320                       -2148.110          32.000    27614629.250   113077305.108       -1673.953          32.000  
> 2024 08 28 03 21 49.3060000  0 11                     
G13  21743799.184   114264437.981        -403.365          47.000                                                                  
G24  27265687.778   143282182.196        3600.184          34.000    27265687.413   111648434.176        2804.700          33.000  
G05  22559827.738   118552696.462       -1238.275          46.000    22559812.051    92378657.257        -964.966          46.000  
G30  25740200.558   135265674.204        -984.119          40.000    25740188.728   105402131.074        -766.583          38.000  
G29  23853639.836   125351730.058       -2065.857          44.000    23853625.881    97676869.047       -1609.888          42.000  
G20  23887654.762   125530477.604       -2232.865          43.000                                                                  
G23  26830163.290   140993468.626        2556.680          40.000    26830155.309   109865346.717        1991.976          38.000  
G18  24449405.575   128482498.754        2778.976          45.000    24449391.780   100116354.618        2165.513          45.000  
G15  22209405.843   116711220.584        1697.740          47.000    22209390.706    90943746.673        1322.954          45.000  
G11  25205548.124   132456054.166       -3329.898          41.000    25205538.094   103212455.125       -2594.851          41.000  
G07  27614663.780   145116034.478       -2148.307          33.000    27614649.659   113077388.776       -1673.640          32.000  
> 2024 08 28 03 21 49.3560000  0 11                     
G13  21743803.030   114264458.136        -403.192          47.000                                                                  
G24  27265653.548   143282002.222        3599.705          34.000    27265653.161   111648293.958        2804.397          33.000  
G05  22559839.535   118552758.373       -1238.239          46.000    22559823.836    92378705.490        -964.758          46.000  
G30  25740209.914   135265723.401        -984.009          40.000    25740198.081   105402169.407        -766.699          38.000  
G29  23853659.501   125351833.344       -2065.785          44.000    23853645.548    97676949.530       -1609.775          42.000  
G20  23887676.013   125530589.253       -2232.971          43.000                                                                  
G23  26830138.952   140993340.794        2556.541          40.000    26830130.968   109865247.086        1992.449          38.000  
G18  24449379.101   128482359.778        2779.392          45.000    24449365.329   100116246.337        2165.555          45.000  
G15  22209389.696   116711135.684        1697.869          47.000    22209374.557    90943680.524        1322.911          45.000  
G11  25205579.816   132456220.661       -3329.996          41.000    25205569.780   103212584.847       -2594.567          41.000  
G07  27614684.193   145116141.839       -2147.465          32.000    27614670.108   113077472.431       -1673.195          32.000  
> 2024 08 28 03 21 49.4060000  0 11                     
G13  21743806.869   114264478.291        -403.131          47.000                                                                  
G24  27265619.312   143281822.242        3599.615          34.000    27265618.892   111648153.708        2804.905          33.000  
G05  22559851.325   118552820.285       -1238.281          46.000    22559835.607    92378753.737        -964.899          46.000  
G30  25740219.286   135265772.588        -983.820          40.000    25740207.454   105402207.740        -766.730          38.000  
G29  23853679.164   125351936.636       -2065.830          44.000    23853665.204    97677030.017       -1609.761          42.000  
G20  23887697.270   125530700.914       -2233.179          43.000                                                                  
G23  26830114.644   140993212.954        2556.645          40.000    26830106.621   109865147.486        1992.122          38.000  
G18  24449352.670   128482220.819        2779.246          45.000    24449338.891   100116138.053        2165.638          45.000  
G15  22209373.532   116711050.791        1697.857          47.000    22209358.390    90943614.374        1322.917          45.000  
G11  25205611.503   132456387.150       -3329.946          41.000    25205601.468   103212714.570       -2594.457          41.000  
G07  27614704.645   145116249.229       -2147.590          32.000    27614690.537   113077556.122       -1673.711          31.000  
> 2024 08 28 03 21 49.4560000  0 11                     
G13  21743810.702   114264498.453        -403.245          47.000                                                                  
G24  27265585.074   143281642.278        3599.043          34.000    27265584.609   111648013.412        2805.860          33.000  
G05  22559863.109   118552882.197       -1238.281          46.000    22559847.390    92378801.979        -964.844          46.000  
G30  25740228.611   135265821.773        -983.734          40.000    25740216.841   105402246.072        -766.620          38.000  
G29  23853698.824   125352039.936       -2066.005          44.000    23853684.859    97677110.496       -1609.615          42.000  
G20  23887718.498   125530812.570       -2233.201          43.000                                                                  
G23  26830090.314   140993085.089        2557.141          40.000    26830082.297   109865047.849        1992.609          38.000  
G18  24449326.215   128482081.854        2779.297          45.000    24449312.414   100116029.769        2165.674          45.000  
G15  22209357.391   116710965.906        1697.660          47.000    22209342.260    90943548.227        1322.862          45.000  
G11  25205643.170   132456553.621       -3329.502          41.000    25205633.153   103212844.304       -2594.667          41.000  
G07  27614725.069   145116356.656       -2148.325          32.000    27614710.973   113077639.807       -1673.904          31.000  
> 2024 08 28 03 21 49.5060000  0 11                     
G13  21743814.520   114264518.600        -403.057          47.000                                                                  
G24  27265550.841   143281462.298        3599.372          34.000    27265550.360   111647873.163        2805.457          33.000  
G05  22559874.886   118552944.100       -1238.104          46.000    22559859.171    92378850.216        -964.777          46.000  
G30  25740237.972   135265870.961        -983.832          40.000    25740226.192   105402284.405        -766.693          38.000  
G29  23853718.482   125352143.226       -2065.919          44.000    23853704.522    97677190.982       -1609.662          42.000  
G20  23887739.753   125530924.197       -2232.723          43.000                                                                  
G23  26830065.973   140992957.243        2556.993          40.000    26830057.967   109864948.223        1992.653          38.000  
G18  24449299.769   128481942.891        2779.271          45.000    24449285.961   100115921.483        2165.691          45.000  
G15  22209341.225   116710881.006        1697.901          47.000    22209326.111    90943482.076        1322.936          45.000  
G11  25205674.827   132456720.096       -3329.467          41.000    25205664.834   103212974.031       -2594.636          41.000  
G07  27614745.524   145116464.036       -2147.906          32.000    27614731.410                       -1673.784          31.000  
> 2024 08 28 03 21 49.5560000  0 11                     
G13  21743818.378   114264538.764        -403.220          47.000                                                                  
G24  27265516.584   143281282.286        3600.054          34.000    27265516.126   111647732.946        2804.757          33.000  
G05  22559886.661   118553006.001       -1237.994          46.000    22559870.963    92378898.455        -964.764          46.000  
G30  25740247.341   135265920.159        -984.009          40.000    25740235.550   105402322.742        -766.779          38.000  
G29  23853738.118   125352246.502       -2065.640          44.000    23853724.179    97677271.460       -1609.579          42.000  
G20  23887761.012   125531035.840       -2232.736          43.000                                                                  
G23  26830041.653   140992829.409        2556.695          40.000    26830033.629   109864848.618        1992.287          38.000  
G18  24449273.308   128481803.919        2779.390          45.000    24449259.523   100115813.197        2165.677          45.000  
G15  22209325.047   116710796.108        1697.974          47.000    22209309.959    90943415.925        1322.991          45.000  
G11  25205706.499   132456886.590       -3329.825          41.000    25205696.515   103213103.758       -2594.487          41.000  
G07  27614765.972   145116571.428       -2147.864          32.000    27614751.859                       -1673.406          31.000  
> 2024 08 28 03 21 49.6060000  0 11                     
G13  21743822.205   114264558.917        -403.119          47.000                                                                  
G24  27265482.297   143281102.281        3600.180          34.000    27265481.875   111647592.689        2805.073          33.000  
G05  22559898.451   118553067.905       -1238.068          46.000    22559882.756    92378946.689        -964.685          46.000  
G30  25740256.705   135265969.358        -984.076          40.000    25740244.913   105402361.070        -766.620          38.000  
G29  23853757.785   125352349.792       -2065.737          44.000    23853743.842    97677351.954       -1609.826          42.000  
G20  23887782.266   125531147.484       -2232.833          43.000                                                                  
G23  26830017.310   140992701.553        2556.955          40.000    26830009.307   109864748.995        1992.368          38.000  
G18  24449246.882   128481664.952        2779.377          45.000    24449233.079   100115704.911        2165.702          45.000  
G15  22209308.906   116710711.209        1697.986          47.000    22209293.806    90943349.762        1323.151          45.000  
G11  25205738.192   132457053.075       -3329.737          41.000    25205728.173   103213233.478       -2594.402          41.000  
G07  27614786.412   145116678.787       -2147.301          32.000    27614772.286   113077890.859       -1673.546          31.000  
> 2024 08 28 03 21 49.6560000  0 11                     
G13  21743826.080   114264579.077        -403.201          47.000                                                                  
G24  27265448.033   143280922.280        3600.113          34.000    27265447.611   111647452.423        2805.486          33.000  
G05  22559910.231   118553129.814       -1238.184          46.000    22559894.528    92378994.921        -964.624          46.000  
G30  25740266.090   135266018.537        -983.679          40.000    25740254.256   105402399.377        -766.180          38.000  
G29  23853777.449   125352453.086       -2065.879          44.000    23853763.498    97677432.442       -1609.769          42.000  
G20  23887803.479   125531259.115       -2232.632          43.000                                                                  
G23  26829992.966   140992573.694        2557.102          40.000    26829984.956   109864649.374        1992.393          38.000  
G18  24449220.457   128481525.984        2779.351          45.000    24449206.639   100115596.618        2165.796          45.000  
G15  22209292.746   116710626.317        1697.862          47.000    22209277.640    90943283.615        1322.984          45.000  
G11  25205769.877   132457219.553       -3329.570          41.000    25205759.828   103213363.198       -2594.379          41.000  
G07  27614806.859   145116786.187       -2147.920          32.000    27614792.732   113077974.539       -1673.488          31.000  
> 2024 08 28 03 21 49.7060000  0 11                     
G13  21743829.902   114264599.241        -403.294          47.000                                                                  
G24  27265413.786   143280742.310        3599.497          34.000    27265413.365   111647312.170        2805.280          33.000  
G05  22559922.012   118553191.723       -1238.239          46.000    22559906.321    92379043.162        -964.819          46.000  
G30  25740275.462   135266067.729        -983.795          40.000    25740263.612   105402437.707        -766.455          38.000  
G29  23853797.091   125352556.382       -2065.988          44.000    23853783.184    97677512.930       -1609.775          42.000  
G20  23887824.729   125531370.762       -2232.844          43.000                                                                  
G23  26829968.625   140992445.851        2556.913          40.000    26829960.623   109864549.740        1992.638          38.000  
G18  24449194.018   128481387.014        2779.368          45.000    24449180.178   100115488.341        2165.580          45.000  
G15  22209276.600   116710541.432        1697.666          47.000    22209261.489    90943217.470        1322.824          45.000  
G11  25205801.549   132457386.038       -3329.676          41.000    25205791.517   103213492.937       -2594.699          41.000  
G07  27614827.293   145116893.586       -2148.162          32.000    27614813.196   113078058.196       -1673.127          31.000  
> 2024 08 28 03 21 49.7560000  0 11                     
G13  21743833.729   114264619.411        -403.405          47.000                                                                  
G24  27265379.524   143280562.301        3599.962          34.000    27265379.113   111647171.907        2805.322          33.000  
G05  22559933.796   118553253.630       -1238.226          46.000    22559918.093    92379091.414        -965.063          46.000  
G30  25740284.819   135266116.928        -983.984          40.000    25740272.998   105402476.066        -767.163          38.000  
G29  23853816.731   125352659.668       -2065.855          44.000    23853802.831    97677593.415       -1609.784          42.000  
G20  23887845.985   125531482.421       -2233.170          43.000                                                                  
G23  26829944.276   140992318.001        2556.981          40.000    26829936.273   109864450.111        1992.637          38.000  
G18  24449167.563   128481248.049        2779.299          45.000    24449153.736   100115380.062        2165.494          45.000  
G15  22209260.436   116710456.542        1697.710          47.000    22209245.322    90943151.324        1322.831          45.000  
G11  25205833.236   132457552.512       -3329.559          41.000    25205823.193   103213622.663       -2594.624          41.000  
G07  27614847.765   145117000.981       -2148.098          32.000    27614833.639   113078141.909       -1674.173          31.000  
> 2024 08 28 03 21 49.8060000  0 11                     
G13  21743837.566   114264639.578        -403.365          47.000                                                                  
G24  27265345.270   143280382.322        3599.712          34.000    27265344.849   111647031.672        2804.787          33.000  
G05  22559945.595   118553315.544       -1238.306          46.000    22559929.859    92379139.657        -964.960          46.000  
G30  25740294.188   135266166.136        -984.161          40.000    25740282.363   105402514.407        -766.968          38.000  
G29  23853836.400   125352762.969       -2065.988          44.000    23853822.509    97677673.901       -1609.756          42.000  
G20  23887867.241   125531594.064       -2232.958          43.000                                                                  
G23  26829919.944   140992190.161        2556.847          40.000    26829911.932   109864350.501        1992.335          38.000  
G18  24449141.120   128481109.092        2779.129          45.000    24449127.287   100115271.774        2165.656          45.000  
G15  22209244.270   116710371.648        1697.840          47.000    22209229.195    90943085.181        1322.801          45.000  
G11  25205864.924   132457719.005       -3329.843          41.000    25205854.896   103213752.403       -2594.784          41.000  
G07  27614868.194   145117108.342       -2147.172          32.000    27614854.109   113078225.599       -1673.930          32.000  
> 2024 08 28 03 21 49.8560000  0 11                     
G13  21743841.384   114264659.735        -403.183          47.000                                                                  
G24  27265311.029   143280202.340        3599.573          35.000    27265310.601   111646891.411        2804.932          33.000  
G05  22559957.386   118553377.457       -1238.281          46.000    22559941.640    92379187.892        -964.764          46.000  
G30  25740303.545   135266215.340        -984.174          40.000    25740291.726   105402552.762        -767.133          38.000  
G29  23853856.041   125352866.270       -2066.083          44.000    23853842.161    97677754.400       -1609.969          42.000  
G20  23887888.458   125531705.697       -2232.682          43.000                                                                  
G23  26829895.619   140992062.307        2556.955          40.000    26829887.612   109864250.871        1992.466          38.000  
G18  24449114.669   128480970.128        2779.208          45.000    24449100.836   100115163.486        2165.749          45.000  
G15  22209228.107   116710286.761        1697.765          47.000    22209213.051    90943019.030        1322.968          45.000  
G11  25205896.605   132457885.498       -3329.878          41.000    25205886.577   103213882.131       -2594.666          41.000  
G07  27614888.568   145117215.760       -2148.131          32.000    27614874.567                       -1673.510          32.000  
> 2024 08 28 03 21 49.9060000  0 11                     
G13  21743845.221   114264679.903        -403.324          47.000                                                                  
G24  27265276.775   143280022.331        3600.089          34.000    27265276.358   111646751.159        2804.854          33.000  
G05  22559969.154   118553439.359       -1238.129          46.000    22559953.427    92379236.131        -964.746          46.000  
G30  25740312.904   135266264.537        -984.027          40.000    25740301.089   105402591.074        -766.492          38.000  
G29  23853875.706   125352969.564       -2066.010          44.000    23853861.802    97677834.886       -1609.809          42.000  
G20  23887909.690   125531817.352       -2233.014          43.000                                                                  
G23  26829871.294   140991934.455        2556.987          40.000    26829863.283   109864151.242        1992.611          38.000  
G18  24449088.221   128480831.163        2779.325          45.000    24449074.393   100115055.206        2165.574          45.000  
G15  22209211.949   116710201.873        1697.710          47.000    22209196.863    90942952.881        1322.980          45.000  
G11  25205928.319   132458051.991       -3329.971          41.000    25205918.244   103214011.849       -2594.445          41.000  
G07  27614909.009   145117323.173       -2148.407          33.000    27614894.994                       -1673.199          32.000  
> 2024 08 28 03 21 49.9560000  0 11                     
G13  21743849.059   114264700.081        -403.606          47.000                                                                  
G24  27265242.553   143279842.373        3599.532          34.000    27265242.114   111646610.887        2805.223          33.000  
G05  22559980.940   118553501.271       -1238.263          46.000    22559965.208    92379284.377        -964.899          46.000  
G30  25740322.235   135266313.735        -983.948          40.000    25740310.472   105402629.398        -766.394          38.000  
G29  23853895.353   125353072.862       -2066.009          44.000    23853881.483    97677915.379       -1609.908          42.000  
G20  23887930.918   125531929.001       -2233.048          43.000                                                                  
G23  26829846.971   140991806.592        2557.175          40.000    26829838.948   109864051.634        1992.223          38.000  
G18  24449061.768   128480692.196        2779.366          45.000    24449047.945   100114946.925        2165.546          45.000  
G15  22209195.818   116710117.001        1697.414          47.000    22209180.710    90942886.748        1322.715          45.000  
G11  25205960.017   132458218.462       -3329.557          41.000    25205949.926   103214141.586       -2594.748          41.000  
G07  27614929.463   145117430.583       -2148.315          33.000    27614915.432   113078476.619       -1673.287          32.000  
> 2024 08 28 03 21 50.0060000  0 11                     
G13  21743852.870   114264720.256        -403.627          47.000                                                                  
G24  27265208.278   143279662.308        3601.078          34.000    27265207.879   111646470.674        2804.435          33.000  
G05  22559992.749   118553563.189       -1238.434          46.000    22559977.006    92379332.628        -965.045          46.000  
G30  25740331.605   135266362.932        -984.052          40.000    25740319.825   105402667.746        -766.864          38.000  
G29  23853915.017   125353176.168       -2066.178          44.000    23853901.144    97677995.881       -1610.102          42.000  
G20  23887952.158   125532040.646       -2233.001          43.000                                                                  
G23  26829822.630   140991678.756        2556.798          40.000    26829814.622   109863952.030        1991.985          38.000  
G18  24449035.330   128480553.247        2779.048          45.000    24449021.520   100114838.649        2165.445          45.000  
G15  22209179.670   116710032.119        1697.496          47.000    22209164.542    90942820.602        1322.796          45.000  
G11  25205991.715   132458384.959       -3329.817          41.000    25205981.618   103214271.316       -2594.729          41.000  
G07  27614949.892   145117537.967       -2147.682          33.000    27614935.869                       -1674.204          32.000  
> 2024 08 28 03 21 50.0560000  0 11                     
G13  21743856.730   114264740.445        -403.837          47.000                                                                  
G24  27265174.029   143279482.341        3599.836          34.000    27265173.641   111646330.457        2804.201          33.000  
G05  22560004.527   118553625.108       -1238.483          46.000    22559988.792    92379380.878        -965.076          46.000  
G30  25740340.979   135266412.158        -984.528          40.000    25740329.218   105402706.107        -767.267          38.000  
G29  23853934.685   125353279.480       -2066.314          44.000    23853920.817    97678076.390       -1610.201          42.000  
G20  23887973.448   125532152.304       -2233.194          43.000                                                                  
G23  26829798.309   140991550.923        2556.580          39.000    26829790.280   109863852.402        1992.342          38.000  
G18  24449008.889   128480414.294        2778.930          45.000    24448995.077   100114730.377        2165.379          45.000  
G15  22209163.529   116709947.243        1697.484          47.000    22209148.388    90942754.470        1322.611          45.000  
G11  25206023.388   132458551.465       -3330.168          41.000    25206013.287   103214401.067       -2595.067          41.000  
G07  27614970.316   145117645.371       -2148.002          33.000    27614956.343                       -1674.898          31.000  
> 2024 08 28 03 21 50.1060000  0 11                     
G13  21743860.570   114264760.618        -403.607          47.000                                                                  
G24  27265139.765   143279302.361        3599.400          34.000    27265139.384   111646190.118        2806.082          33.000  
G05  22560016.328   118553687.024       -1238.379          46.000    22560000.583    92379429.119        -964.917          46.000  
G30  25740350.340   135266461.360        -984.216          40.000    25740338.576   105402744.449        -766.956          38.000  
G29  23853954.361   125353382.787       -2066.237          44.000    23853940.477    97678156.878       -1609.921          42.000  
G20  23887994.701   125532263.969       -2233.322          43.000                                                                  
G23  26829773.975   140991423.075        2556.790          39.000    26829765.956   109863752.787        1992.354          38.000  
G18  24448982.435   128480275.341        2778.921          45.000    24448968.624   100114622.092        2165.609          45.000  
G15  22209147.360   116709862.369        1697.435          47.000    22209132.226    90942688.332        1322.680          45.000  
G11  25206055.061   132458717.944       -3329.785          41.000    25206044.956   103214530.796       -2594.770          41.000  
G07  27614990.773   145117752.794       -2148.530          33.000    27614976.783                       -1672.987          31.000  
> 2024 08 28 03 21 50.1560000  0 11                     
G13  21743864.412   114264780.791        -403.483          47.000                                                                  
G24  27265105.531   143279122.360        3599.865          34.000    27265105.127   111646049.878        2805.327          33.000  
G05  22560028.101   118553748.938       -1238.281          46.000    22560012.378    92379477.364        -964.880          46.000  
G30  25740359.714   135266510.569        -984.229          40.000    25740347.922   105402782.783        -766.638          38.000  
G29  23853974.015   125353486.093       -2066.189          44.000    23853960.128    97678237.377       -1609.930          42.000  
G20  23888015.950   125532375.619       -2233.137          43.000                                                                  
G23  26829749.644   140991295.226        2557.000          40.000    26829741.628   109863653.148        1992.760          38.000  
G18  24448955.990   128480136.374        2779.209          45.000    24448942.158   100114513.803        2165.746          45.000  
G15  22209131.190   116709777.483        1697.645          47.000    22209116.053    90942622.188        1322.815          45.000  
G11  25206086.761   132458884.435       -3329.785          41.000    25206076.621   103214660.508       -2594.258          41.000  
G07  27615011.220   145117860.184       -2148.083          33.000    27614997.222                       -1672.919          31.000  
> 2024 08 28 03 21 50.2060000  0 11                     
G13  21743868.242   114264800.965        -403.498          47.000                                                                  
G24  27265071.272   143278942.372        3599.879          35.000    27265070.875   111645909.662        2804.399          33.000  
G05  22560039.871   118553810.857       -1238.367          46.000    22560024.172    92379525.608        -964.911          46.000  
G30  25740369.070   135266559.779        -984.229          40.000    25740357.267   105402821.120        -766.699          38.000  
G29  23853993.691   125353589.393       -2066.048          44.000    23853979.792    97678317.874       -1610.000          42.000  
G20  23888037.218   125532487.248       -2232.743          43.000                                                                  
G23  26829725.314   140991167.357        2557.284          40.000    26829717.302   109863553.528        1992.494          38.000  
G18  24448929.539   128479997.401        2779.407          45.000    24448915.723   100114405.529        2165.494          45.000  
G15  22209115.034   116709692.600        1697.681          47.000    22209099.908    90942556.044        1322.864          45.000  
G11  25206118.424   132459050.918       -3329.625          41.000    25206108.292   103214790.242       -2594.538          41.000  
G07  27615031.687   145117967.550       -2147.562          33.000    27615017.673                       -1673.861          31.000  
> 2024 08 28 03 21 50.2560000  0 11                     
G13  21743872.106   114264821.149        -403.668          47.000                                                                  
G24  27265037.010   143278762.400        3599.570          34.000    27265036.631   111645769.406        2804.803          33.000  
G05  22560051.638   118553872.773       -1238.391          46.000    22560035.950    92379573.857        -964.990          46.000  
G30  25740378.424   135266608.980        -984.094          40.000    25740366.629   105402859.462        -766.809          38.000  
G29  23854013.330   125353692.699       -2066.104          44.000    23853999.419    97678398.383       -1610.191          42.000  
G20  23888058.468   125532598.900       -2232.952          43.000                                                                  
G23  26829700.986   140991039.517        2556.886          40.000    26829692.978   109863453.910        1992.354          38.000  
G18  24448903.126   128479858.449        2779.144          45.000    24448889.270   100114297.247        2165.555          45.000  
G15  22209098.902   116709607.723        1697.551          47.000    22209083.751    90942489.909        1322.716          45.000  
G11  25206150.123   132459217.421       -3329.958          41.000    25206139.964   103214919.972       -2594.606          41.000  
G07  27615052.104   145118074.972       -2148.205          33.000    27615038.120                       -1674.498          31.000  
> 2024 08 28 03 21 50.3060000  0 11                     
G13  21743875.948   114264841.334        -403.734          47.000                                                                  
G24  27265002.758   143278582.383        3600.157          35.000    27265002.358   111645629.120        2805.572          33.000  
G05  22560063.431   118553934.685       -1238.324          46.000    22560047.745    92379622.102        -964.905          46.000  
G30  25740387.782   135266658.190        -984.180          40.000    25740376.015   105402897.831        -767.328          38.000  
G29  23854032.989   125353796.012       -2066.259          44.000    23854019.070    97678478.877       -1609.990          42.000  
G20  23888079.722   125532710.559       -2233.163          43.000                                                                  
G23  26829676.637   140990911.690        2556.568          40.000    26829668.642   109863354.286        1992.375          38.000  
G18  24448876.686   128479719.499        2778.989          45.000    24448862.826   100114188.966        2165.567          45.000  
G15  22209082.778   116709522.859        1697.256          47.000    22209067.606    90942423.775        1322.649          45.000  
G11  25206181.815   132459383.903       -3329.692          41.000    25206171.669   103215049.710       -2594.728          41.000  
G07  27615072.555   145118182.366       -2147.934          33.000    27615058.553                       -1674.533          31.000  
> 2024 08 28 03 21 50.3560000  0 11                     
G13  21743879.788   114264861.519        -403.758          47.000                                                                  
G24  27264968.522   143278402.397        3599.953          35.000    27264968.095   111645488.846        2805.685          33.000  
G05  22560075.216   118553996.608       -1238.495          46.000    22560059.512    92379670.350        -964.972          46.000  
G30  25740397.128   135266707.403        -984.253          40.000    25740385.388   105402936.173        -767.053          38.000  
G29  23854052.641   125353899.331       -2066.389          44.000    23854038.708    97678559.364       -1609.793          42.000  
G20  23888100.964   125532822.215       -2233.217          43.000                                                                  
G23  26829652.290   140990783.831        2557.012          40.000    26829644.322   109863254.687        1992.080          38.000  
G18  24448850.269   128479580.542        2779.062          45.000    24448836.351   100114080.693        2165.492          45.000  
G15  22209066.604   116709437.990        1697.301          47.000    22209051.471    90942357.643        1322.587          45.000  
G11  25206213.467   132459550.396       -3329.829          41.000    25206203.332   103215179.443       -2594.635          41.000  
G07  27615092.949   145118289.774       -2148.067          33.000    27615078.939                       -1673.276          31.000  
> 2024 08 28 03 21 50.4060000  0 11                     
G13  21743883.632   114264881.712        -403.907          47.000                                                                  
G24  27264934.264   143278222.389        3600.069          35.000    27264933.846   111645348.606        2805.042          33.000  
G05  22560087.000   118554058.525       -1238.446          46.000    22560071.290    92379718.597        -964.972          46.000  
G30  25740406.491   135266756.629        -984.546          40.000    25740394.742   105402974.517        -766.888          38.000  
G29  23854072.298   125354002.645       -2066.392          44.000    23854058.374    97678639.887       -1610.306          42.000  
G20  23888122.202   125532933.857       -2233.029          43.000                                                                  
G23  26829627.956   140990655.977        2557.058          40.000    26829619.995   109863155.057        1992.501          38.000  
G18  24448823.818   128479441.590        2778.998          45.000    24448809.890   100113972.413        2165.537          45.000  
G15  22209050.456   116709353.117        1697.362          47.000    22209035.313    90942291.508        1322.612          45.000  
G11  25206245.158   132459716.905       -3330.136          41.000    25206235.007   103215309.180       -2594.734          41.000  
G07  27615113.381   145118397.186       -2148.197          33.000    27615099.396                       -1673.309          31.000  
> 2024 08 28 03 21 50.4560000  0 11                     
G13  21743887.471   114264901.902        -403.880          47.000                                                                  
G24  27264899.972   143278042.384        3599.951          35.000    27264899.591   111645208.339        2805.181          33.000  
G05  22560098.779   118554120.445       -1238.440          46.000    22560083.078    92379766.843        -964.984          46.000  
G30  25740415.859   135266805.835        -984.296          40.000    25740404.118   105403012.869        -767.017          38.000  
G29  23854091.954   125354105.952       -2066.229          44.000    23854078.016    97678720.397       -1610.304          42.000  
G20  23888143.447   125533045.521       -2233.268          43.000                                                                  
G23  26829603.649   140990528.134        2556.922          40.000    26829595.673   109863055.415        1992.847          38.000  
G18  24448797.355   128479302.631        2779.100          45.000    24448783.427   100113864.145        2165.354          45.000  
G15  22209034.299   116709268.239        1697.517          47.000    22209019.146    90942225.377        1322.575          45.000  
G11  25206276.828   132459883.408       -3330.104          41.000    25206266.681   103215438.918       -2594.777          41.000  
G07  27615133.832   145118504.580       -2147.847          33.000    27615119.868                       -1674.640          31.000  
> 2024 08 28 03 21 50.5060000  0 11                     
G13  21743891.300   114264922.096        -403.935          47.000                                                                  
G24  27264865.712   143277862.396        3599.752          34.000    27264865.346   111645068.098        2804.846          33.000  
G05  22560110.548   118554182.374       -1238.605          46.000    22560094.864    92379815.097        -965.112          46.000  
G30  25740425.222   135266855.063        -984.509          40.000    25740413.479   105403051.232        -767.163          38.000  
G29  23854111.619   125354209.272       -2066.399          44.000    23854097.685    97678800.896       -1610.114          42.000  
G20  23888164.724   125533157.180       -2233.229          43.000                                                                  
G23  26829579.342   140990400.291        2556.866          40.000    26829571.334   109862955.781        1992.781          38.000  
G18  24448770.898   128479163.677        2779.114          45.000    24448757.016   100113755.869        2165.453          45.000  
G15  22209018.173   116709183.375        1697.313          47.000    22209002.975    90942159.250        1322.483          45.000  
G11  25206308.523   132460049.907       -3330.079          41.000    25206298.360   103215568.659       -2594.869          41.000  
G07  27615154.253   145118612.010       -2148.489          33.000    27615140.320                       -1674.303          31.000  
> 2024 08 28 03 21 50.5560000  0 11                     
G13  21743895.167   114264942.292        -404.003          47.000                                                                  
G24  27264831.452   143277682.438        3599.051          34.000    27264831.112   111644927.860        2804.675          33.000  
G05  22560122.334   118554244.307       -1238.721          46.000    22560106.672    92379863.355        -965.228          46.000  
G30  25740434.556   135266904.286        -984.546          40.000    25740422.845   105403089.586        -767.139          38.000  
G29  23854131.275   125354312.599       -2066.561          44.000    23854117.349    97678881.400       -1610.151          42.000  
G20  23888185.985   125533268.827       -2233.048          43.000                                                                  
G23  26829555.008   140990272.454        2556.651          40.000    26829547.035   109862856.179        1992.220          38.000  
G18  24448744.462   128479024.735        2778.859          45.000    24448730.572   100113647.591        2165.509          45.000  
G15  22209002.023   116709098.521        1697.067          47.000    22208986.818    90942093.127        1322.404          45.000  
G11  25206340.230   132460216.403       -3329.968          41.000    25206330.038   103215698.400       -2594.899          41.000  
G07  27615174.675   145118719.403       -2148.224          32.000    27615160.743                       -1673.810          31.000  
> 2024 08 28 03 21 50.6060000  0 11                     
G13  21743899.034   114264962.494        -404.071          47.000                                                                  
G24  27264797.195   143277502.419        3599.905          34.000    27264796.876   111644787.650        2804.180          33.000  
G05  22560134.117   118554306.228       -1238.519          46.000    22560118.457    92379911.617        -965.277          46.000  
G30  25740443.944   135266953.530        -984.882          40.000    25740432.219   105403127.948        -767.230          38.000  
G29  23854150.937   125354415.927       -2066.641          44.000    23854137.011    97678961.918       -1610.410          42.000  
G20  23888207.234   125533380.482       -2233.165          43.000                                                                  
G23  26829530.703   140990144.626        2556.511          40.000    26829522.736   109862756.584        1991.829          38.000  
G18  24448718.010   128478885.791        2778.800          45.000    24448704.116   100113539.327        2165.325          45.000  
G15  22208985.874   116709013.665        1697.031          47.000    22208970.669    90942027.007        1322.349          45.000  
G11  25206371.929   132460382.919       -3330.239          41.000    25206361.740   103215828.149       -2595.028          41.000  
G07  27615195.098   145118826.837       -2148.673          32.000    27615181.191                       -1674.314          31.000  
> 2024 08 28 03 21 50.6560000  0 11                     
G13  21743902.877   114264982.697        -404.106          47.000                                                                  
G24  27264762.925   143277322.404        3600.404          34.000    27264762.610   111644647.358        2805.276          33.000  
G05  22560145.876   118554368.152       -1238.470          46.000    22560130.244    92379959.879        -965.259          46.000  
G30  25740453.305   135267002.771        -984.973          40.000    25740441.593   105403166.319        -767.413          38.000  
G29  23854170.605   125354519.259       -2066.700          44.000    23854156.680    97679042.438       -1610.456          42.000  
G20  23888228.500   125533492.161       -2233.566          43.000                                                                  
G23  26829506.382   140990016.778        2556.845          40.000    26829498.414   109862656.966        1992.202          38.000  
G18  24448691.565   128478746.846        2778.835          45.000    24448677.680   100113431.059        2165.282          45.000  
G15  22208969.721   116708928.812        1696.989          47.000    22208954.527    90941960.880        1322.485          45.000  
G11  25206403.592   132460549.411       -3330.011          41.000    25206393.410   103215957.893       -2594.972          41.000  
G07  27615215.555   145118934.283       -2148.920          32.000    27615201.644                       -1674.319          31.000  
> 2024 08 28 03 21 50.7060000  0 11                     
G13  21743906.744   114265002.904        -404.161          47.000                                                                  
G24  27264728.662   143277142.412        3600.190          34.000    27264728.367   111644507.095        2805.434          33.000  
G05  22560157.671   118554430.089       -1238.702          46.000    22560142.036    92380008.124        -964.948          46.000  
G30  25740462.658   135267051.992        -984.680          40.000    25740450.955   105403204.670        -767.108          38.000  
G29  23854190.248   125354622.587       -2066.644          44.000    23854176.342    97679122.967       -1610.604          42.000  
G20  23888249.740   125533603.832       -2233.519          43.000                                                                  
G23  26829482.055   140989888.938        2556.837          40.000    26829474.071   109862557.335        1992.519          38.000  
G18  24448665.099   128478607.895        2778.949          45.000    24448651.245   100113322.795        2165.201          45.000  
G15  22208953.582   116708843.956        1697.039          47.000    22208938.365    90941894.755        1322.498          45.000  
G11  25206435.273   132460715.912       -3330.011          41.000    25206425.110   103216087.636       -2594.922          41.000  
G07  27615235.975   145119041.673       -2148.153          32.000    27615222.074                       -1673.962          31.000  
> 2024 08 28 03 21 50.7560000  0 11                     
G13  21743910.567   114265023.104        -404.079          47.000                                                                  
G24  27264694.368   143276962.434        3599.860          34.000    27264694.123   111644366.834        2805.360          33.000  
G05  22560169.488   118554492.031       -1238.867          46.000    22560153.837    92380056.381        -965.039          46.000  
G30  25740472.031   135267101.211        -984.412          40.000    25740460.331   105403243.030        -767.120          38.000  
G29  23854209.918   125354725.914       -2066.606          44.000    23854196.016    97679203.477       -1610.383          42.000  
G20  23888270.977   125533715.459       -2232.743          43.000                                                                  
G23  26829457.746   140989761.089        2556.990          40.000    26829449.768   109862457.716        1992.431          38.000  
G18  24448638.668   128478468.957        2778.744          45.000    24448624.808   100113214.520        2165.387          45.000  
G15  22208937.438   116708759.088        1697.291          47.000    22208922.200    90941828.634        1322.411          45.000  
G11  25206466.943   132460882.433       -3330.369          41.000    25206456.784   103216217.372       -2594.812          41.000  
G07  27615256.419   145119149.086       -2148.125          33.000    27615242.522                       -1673.857          31.000  
> 2024 08 28 03 21 50.8060000  0 11                     
G13  21743914.438   114265043.317        -404.267          47.000                                                                  
G24  27264660.115   143276782.439        3599.796          34.000    27264659.847   111644226.564        2805.278          33.000  
G05  22560181.262   118554553.962       -1238.696          46.000    22560165.615    92380104.644        -965.234          46.000  
G30  25740481.384   135267150.451        -984.711          40.000    25740469.694   105403281.404        -767.383          38.000  
G29  23854229.599   125354829.248       -2066.696          44.000    23854215.654    97679283.986       -1610.250          42.000  
G20  23888292.227   125533827.142       -2233.392          43.000                                                                  
G23  26829433.407   140989633.225        2557.344          40.000    26829425.432   109862358.113        1992.142          38.000  
G18  24448612.220   128478330.012        2778.817          45.000    24448598.393   100113106.257        2165.239          45.000  
G15  22208921.278   116708674.241        1697.001          47.000    22208906.068    90941762.520        1322.245          45.000  
G11  25206498.626   132461048.917       -3329.918          41.000    25206488.466   103216347.123       -2594.979          41.000  
G07  27615276.873   145119256.526       -2148.637          33.000    27615262.958                       -1674.504          31.000  
> 2024 08 28 03 21 50.8560000  0 11                     
G13  21743918.290   114265063.531        -404.353          47.000                                                                  
G24  27264625.869   143276602.456        3599.378          34.000    27264625.606   111644086.359        2804.155          33.000  
G05  22560193.061   118554615.883       -1238.489          46.000    22560177.414    92380152.907        -965.338          46.000  
G30  25740490.770   135267199.697        -984.997          40.000    25740479.080   105403319.776        -767.444          38.000  
G29  23854249.251   125354932.578       -2066.662          44.000    23854235.313    97679364.505       -1610.356          42.000  
G20  23888313.480   125533938.822       -2233.738          43.000                                                                  
G23  26829409.069   140989505.401        2556.713          40.000    26829401.091   109862258.518        1991.892          38.000  
G18  24448585.781   128478191.068        2778.882          45.000    24448571.938   100112997.979        2165.477          45.000  
G15  22208905.141   116708589.390        1696.965          47.000    22208889.908    90941696.406        1322.190          45.000  
G11  25206530.315   132461215.438       -3330.294          41.000    25206520.166   103216476.878       -2595.151          41.000  
G07  27615297.350   145119363.938       -2148.363          33.000    27615283.394                       -1673.995          31.000  
> 2024 08 28 03 21 50.9060000  0 11                     
G13  21743922.128   114265083.748        -404.426          47.000                                                                  
G24  27264591.646   143276422.493        3599.021          34.000    27264591.356   111643946.110        2804.523          33.000  
G05  22560204.848   118554677.828       -1238.837          46.000    22560189.195    92380201.167        -965.271          46.000  
G30  25740500.149   135267248.940        -984.924          40.000    25740488.434   105403358.150        -767.584          38.000  
G29  23854268.916   125355035.920       -2066.854          44.000    23854254.980    97679445.029       -1610.505          42.000  
G20  23888334.729   125534050.485       -2233.484          43.000                                                                  
G23  26829384.727   140989377.577        2556.404          40.000    26829376.759   109862158.905        1992.011          38.000  
G18  24448559.329   128478052.130        2778.734          45.000    24448545.511   100112889.722        2165.208          45.000  
G15  22208889.003   116708504.553        1696.744          47.000    22208873.763    90941630.288        1322.259          45.000  
G11  25206562.002   132461381.957       -3330.453          41.000    25206551.840   103216606.617       -2594.860          41.000  
G07  27615317.840   145119471.398       -2149.098          32.000    27615303.866                       -1673.968          31.000  
> 2024 08 28 03 21 50.9560000  0 11                     
G13  21743925.970   114265103.958        -404.305          47.000                                                                  
G24  27264557.373   143276242.478        3599.960          34.000    27264557.081   111643805.860        2804.943          33.000  
G05  22560216.636   118554739.775       -1239.008          46.000    22560200.993    92380249.436        -965.387          46.000  
G30  25740509.497   135267298.176        -984.766          40.000    25740497.830   105403396.517        -767.535          38.000  
G29  23854288.592   125355139.257       -2066.843          44.000    23854274.667    97679525.560       -1610.607          42.000  
G20  23888355.946   125534162.145       -2233.291          43.000                                                                  
G23  26829360.394   140989249.756        2556.388          40.000    26829352.411   109862059.268        1992.431          38.000  
G18  24448532.867   128477913.183        2778.824          45.000    24448519.071   100112781.457        2165.236          45.000  
G15  22208872.852   116708419.702        1696.917          47.000    22208857.621    90941564.171        1322.339          45.000  
G11  25206593.686   132461548.472       -3330.391          41.000    25206583.514   103216736.360       -2594.879          41.000  
G07  27615338.260   145119578.765       -2147.924          32.000    27615324.314                       -1674.975          31.000  
> 2024 08 28 03 21 51.0060000  0 11                     
G13  21743929.818   114265124.175        -404.355          47.000                                                                  
G24  27264523.088   143276062.495        3599.929          34.000    27264522.812   111643665.594        2804.989          33.000  
G05  22560228.412   118554801.710       -1238.824          46.000    22560212.766    92380297.701        -965.375          46.000  
G30  25740518.868   135267347.421        -984.851          40.000    25740507.206   105403434.886        -767.572          38.000  
G29  23854308.285   125355242.599       -2066.913          44.000    23854294.332    97679606.087       -1610.570          42.000  
G20  23888377.184   125534273.813       -2233.325          43.000                                                                  
G23  26829336.066   140989121.927        2556.394          40.000    26829328.107   109861959.660        1992.248          38.000  
G18  24448506.445   128477774.253        2778.577          45.000    24448492.635   100112673.193        2165.211          45.000  
G15  22208856.730   116708334.862        1696.775          47.000    22208841.449    90941498.063        1322.154          45.000  
G11  25206625.368   132461714.983       -3330.273          41.000    25206615.203   103216866.120       -2595.125          41.000  
G07  27615358.732   145119686.227       -2148.888          32.000    27615344.720                       -1674.655          31.000  
> 2024 08 28 03 21 51.0560000  0 11                     
G13  21743933.665   114265144.400        -404.504          47.000                                                                  
G24  27264488.815   143275882.496        3599.962          34.000    27264488.549   111643525.330        2805.083          33.000  
G05  22560240.182   118554863.643       -1238.678          46.000    22560224.546    92380345.970        -965.436          46.000  
G30  25740528.248   135267396.671        -985.010          40.000    25740516.573   105403473.256        -767.542          38.000  
G29  23854327.957   125355345.948       -2067.037          44.000    23854313.982    97679686.620       -1610.651          42.000  
G20  23888398.436   125534385.485       -2233.328          43.000                                                                  
G23  26829311.751   140988994.071        2557.063          40.000    26829303.763   109861860.068        1991.878          38.000  
G18  24448480.012   128477635.319        2778.534          45.000    24448466.180   100112564.931        2165.213          45.000  
G15  22208840.572   116708250.012        1696.905          47.000    22208825.299    90941431.951        1322.154          45.000  
G11  25206657.065   132461881.493       -3330.218          41.000    25206646.881   103216995.875       -2595.168          41.000  
G07  27615379.152   145119793.686       -2149.313          32.000    27615365.203                       -1673.918          31.000  
> 2024 08 28 03 21 51.1060000  0 11                     
G13  21743937.523   114265164.616        -404.382          47.000                                                                  
G24  27264454.575   143275702.517        3599.639          34.000    27264454.300   111643385.103        2804.609          33.000  
G05  22560252.004   118554925.593       -1238.916          46.000    22560236.343    92380394.228        -965.216          46.000  
G30  25740537.630   135267445.923        -985.120          40.000    25740525.945   105403511.624        -767.432          38.000  
G29  23854347.631   125355449.284       -2066.832          44.000    23854333.651    97679767.137       -1610.417          42.000  
G20  23888419.671   125534497.149       -2233.266          43.000                                                                  
G23  26829287.420   140988866.230        2557.029          40.000    26829279.423   109861760.441        1992.365          38.000  
G18  24448453.544   128477496.376        2778.721          45.000    24448439.730   100112456.678        2165.042          45.000  
G15  22208824.431   116708165.177        1696.708          47.000    22208809.146    90941365.841        1322.148          45.000  
G11  25206688.760   132462048.015       -3330.341          41.000    25206678.567   103217125.626       -2595.050          41.000  
G07  27615399.611   145119901.107       -2148.643          32.000    27615385.657                       -1675.135          31.000  
> 2024 08 28 03 21 51.1560000  0 11                     
G13  21743941.359   114265184.840        -404.484          47.000                                                                  
G24  27264420.334   143275522.514        3599.998          34.000    27264420.023   111643244.851        2804.861          33.000  
G05  22560263.789   118554987.529       -1238.776          46.000    22560248.137    92380442.498        -965.332          46.000  
G30  25740547.013   135267495.160        -984.894          40.000    25740535.305   105403549.995        -767.419          38.000  
G29  23854367.303   125355552.626       -2066.827          44.000    23854353.322    97679847.663       -1610.501          42.000  
G20  23888440.921   125534608.822       -2233.396          43.000                                                                  
G23  26829263.093   140988738.405        2556.682          40.000    26829255.091   109861660.830        1992.348          38.000  
G18  24448427.104   128477357.441        2778.637          45.000    24448413.297   100112348.418        2165.088          45.000  
G15  22208808.270   116708080.335        1696.714          47.000    22208792.993    90941299.732        1322.124          45.000  
G11  25206720.452   132462214.529       -3330.267          41.000    25206710.253   103217255.377       -2594.976          41.000  
G07  27615420.045   145120008.492       -2147.919          32.000    27615406.089                       -1672.766          31.000  
> 2024 08 28 03 21 51.2060000  0 11                     
G13  21743945.215   114265205.064        -404.540          47.000                                                                  
G24  27264386.085   143275342.543        3599.438          34.000    27264385.775   111643104.593        2805.017          33.000  
G05  22560275.588   118555049.466       -1238.733          46.000    22560259.916    92380490.762        -965.320          46.000  
G30  25740556.394   135267544.405        -984.936          40.000    25740544.684   105403588.368        -767.474          38.000  
G29  23854386.978   125355655.979       -2067.021          44.000    23854372.998    97679928.203       -1610.731          42.000  
G20  23888462.177   125534720.507       -2233.632          43.000                                                                  
G23  26829238.764   140988610.559        2556.845          40.000    26829230.756   109861561.223        1992.202          38.000  
G18  24448400.631   128477218.505        2778.665          45.000    24448386.865   100112240.151        2165.247          45.000  
G15  22208792.126   116707995.497        1696.709          47.000    22208776.868    90941233.631        1322.013          45.000  
G11  25206752.144   132462381.038       -3330.119          41.000    25206741.928   103217385.125       -2594.927          41.000  
G07  27615440.488   145120115.961       -2148.948          32.000    27615426.551                       -1673.962          31.000  
> 2024 08 28 03 21 51.2560000  0 11                     
G13  21743949.068   114265225.290        -404.589          47.000                                                                  
G24  27264351.838   143275162.557        3599.268          34.000    27264351.517   111642964.354        2804.684          33.000  
G05  22560287.389   118555111.415       -1238.959          46.000    22560271.697    92380539.036        -965.546          46.000  
G30  25740565.764   135267593.663        -985.156          40.000    25740554.049   105403626.761        -767.828          38.000  
G29  23854406.648   125355759.325       -2067.028          44.000    23854392.666    97680008.727       -1610.563          42.000  
G20  23888483.457   125534832.181       -2233.603          43.000                                                                  
G23  26829214.456   140988482.738        2556.542          40.000    26829206.427   109861461.603        1992.302          38.000  
G18  24448374.193   128477079.576        2778.584          45.000    24448360.416   100112131.885        2165.250          45.000  
G15  22208775.996   116707910.661        1696.660          47.000    22208760.722    90941167.520        1322.112          45.000  
G11  25206783.829   132462547.568       -3330.514          41.000    25206773.635   103217514.875       -2595.008          41.000  
G07  27615460.898   145120223.413       -2149.238          32.000    27615447.018                       -1675.272          32.000  
> 2024 08 28 03 21 51.3060000  0 11                     
G13  21743952.944   114265245.532        -404.863          47.000                                                                  
G24  27264317.596   143274982.562        3599.528          34.000    27264317.256   111642824.069        2805.360          33.000  
G05  22560299.178   118555173.379       -1239.307          46.000    22560283.457    92380587.313        -965.631          46.000  
G30  25740575.144   135267642.932        -985.413          40.000    25740563.427   105403665.152        -767.920          38.000  
G29  23854426.310   125355862.690       -2067.314          44.000    23854412.362    97680089.260       -1610.596          42.000  
G20  23888504.692   125534943.859       -2233.586          43.000                                                                  
G23  26829190.141   140988354.939        2556.046          40.000    26829182.117   109861362.016        1991.833          38.000  
G18  24448347.735   128476940.643        2778.629          45.000    24448333.981   100112023.639        2164.980          45.000  
G15  22208759.852   116707825.838        1696.426          47.000    22208744.589    90941101.421        1322.002          45.000  
G11  25206815.517   132462714.090       -3330.507          41.000    25206805.323   103217644.639       -2595.255          41.000  
G07  27615481.387   145120330.859       -2149.212          32.000    27615467.490                       -1675.442          31.000  
> 2024 08 28 03 21 51.3560000  0 11                     
G13  21743956.793   114265265.778        -404.990          47.000                                                                  
G24  27264283.374   143274802.584        3599.503          34.000    27264283.022   111642683.853        2804.604          33.000  
G05  22560310.962   118555235.330       -1239.154          46.000    22560295.247    92380635.584        -965.485          46.000  
G30  25740584.534   135267692.194        -985.376          40.000    25740572.795   105403703.532        -767.761          38.000  
G29  23854445.973   125355966.051       -2067.295          44.000    23854432.042    97680169.800       -1610.784          42.000  
G20  23888525.960   125535055.539       -2233.659          43.000                                                                  
G23  26829165.784   140988227.078        2556.849          40.000    26829157.786   109861262.428        1991.745          38.000  
G18  24448321.324   128476801.724        2778.435          45.000    24448307.560   100111915.384        2165.036          45.000  
G15  22208743.712   116707741.013        1696.440          47.000    22208728.448    90941035.320        1322.033          45.000  
G11  25206847.201   132462880.621       -3330.623          41.000    25206837.015   103217774.404       -2595.321          41.000  
G07  27615501.805   145120438.294       -2148.889          32.000    27615487.957                       -1674.805          31.000  
> 2024 08 28 03 21 51.4060000  0 11                     
G13  21743960.646   114265286.009        -404.754          47.000                                                                  
G24  27264249.137   143274622.576        3600.103          34.000    27264248.769   111642543.595        2804.964          33.000  
G05  22560322.750   118555297.272       -1238.971          46.000    22560307.045    92380683.854        -965.393          46.000  
G30  25740593.909   135267741.448        -985.187          40.000    25740582.189   105403741.920        -767.737          38.000  
G29  23854465.655   125356069.405       -2067.204          44.000    23854451.737    97680250.341       -1610.870          42.000  
G20  23888547.211   125535167.215       -2233.625          43.000                                                                  
G23  26829141.437   140988099.238        2556.864          40.000    26829133.449   109861162.786        1992.663          38.000  
G18  24448294.877   128476662.794        2778.553          45.000    24448281.127   100111807.122        2165.201          45.000  
G15  22208727.563   116707656.174        1696.693          47.000    22208712.322    90940969.226        1321.860          45.000  
G11  25206878.866   132463047.135       -3330.357          41.000    25206868.687   103217904.171       -2595.413          41.000  
G07  27615522.249   145120545.728       -2148.812          32.000    27615508.370                       -1674.093          31.000  
> 2024 08 28 03 21 51.4560000  0 11                     
G13  21743964.489   114265306.234        -404.542          47.000                                                                  
G24  27264214.886   143274442.561        3600.471          34.000    27264214.531   111642403.337        2805.189          33.000  
G05  22560334.518   118555359.209       -1238.770          46.000    22560318.834    92380732.122        -965.375          46.000  
G30  25740603.301   135267790.700        -985.034          40.000    25740591.529   105403780.280        -767.297          38.000  
G29  23854485.313   125356172.750       -2066.995          44.000    23854471.405    97680330.884       -1610.897          42.000  
G20  23888568.474   125535278.887       -2233.542          43.000                                                                  
G23  26829117.119   140987971.411        2556.584          40.000    26829109.127   109861063.172        1992.526          38.000  
G18  24448268.429   128476523.858        2778.677          45.000    24448254.683   100111698.864        2165.206          45.000  
G15  22208711.401   116707571.343        1696.655          47.000    22208696.170    90940903.122        1321.984          45.000  
G11  25206910.560   132463213.654       -3330.402          41.000    25206900.353   103218033.921       -2595.135          41.000  
G07  27615542.671   145120653.127       -2148.077          32.000    27615528.820                       -1674.043          31.000  
> 2024 08 28 03 21 51.5060000  0 11                     
G13  21743968.347   114265326.476        -404.785          47.000                                                                  
G24  27264180.597   143274262.604        3599.477          34.000    27264180.296   111642263.092        2804.990          33.000  
G05  22560346.325   118555421.161       -1238.995          46.000    22560330.612    92380780.390        -965.393          46.000  
G30  25740612.693   135267839.956        -985.101          40.000    25740600.890   105403818.671        -767.773          38.000  
G29  23854504.979   125356276.103       -2067.084          44.000    23854491.071    97680411.411       -1610.686          42.000  
G20  23888589.733   125535390.560       -2233.511          43.000                                                                  
G23  26829092.799   140987843.593        2556.332          40.000    26829084.809   109860963.572        1992.145          38.000  
G18  24448241.995   128476384.926        2778.675          45.000    24448228.263   100111590.602        2165.209          45.000  
G15  22208695.261   116707486.513        1696.550          47.000    22208680.022    90940837.018        1322.046          45.000  
G11  25206942.257   132463380.179       -3330.544          41.000    25206932.035   103218163.679       -2595.173          41.000  
G07  27615563.121   145120760.620       -2149.517          32.000    27615549.273                       -1674.098          31.000  
> 2024 08 28 03 21 51.5560000  0 11                     
G13  21743972.198   114265346.726        -405.040          47.000                                                                  
G24  27264146.359   143274082.645        3599.087          34.000    27264146.036   111642122.816        2805.551          33.000  
G05  22560358.104   118555483.119       -1239.191          46.000    22560342.387    92380828.666        -965.552          46.000  
G30  25740622.077   135267889.228        -985.492          40.000    25740610.262   105403857.100        -768.573          38.000  
G29  23854524.650   125356379.478       -2067.483          44.000    23854510.736    97680491.959       -1610.906          42.000  
G20  23888611.012   125535502.249       -2233.762          43.000                                                                  
G23  26829068.456   140987715.763        2556.422          40.000    26829060.471   109860863.950        1992.322          38.000  
G18  24448215.565   128476245.995        2778.577          45.000    24448201.842   100111482.346        2165.140          45.000  
G15  22208679.113   116707401.697        1696.279          47.000    22208663.904    90940770.920        1321.947          45.000  
G11  25206973.942   132463546.706       -3330.593          41.000    25206963.744   103218293.428       -2594.981          41.000  
G07  27615583.552   145120868.072       -2149.404          32.000    27615569.702                       -1674.264          31.000  
> 2024 08 28 03 21 51.6060000  0 11                     
G13  21743976.063   114265366.978        -405.168          47.000                                                                  
G24  27264112.090   143273902.597        3600.464          34.000    27264111.784   111641982.578        2805.014          33.000  
G05  22560369.897   118555545.079       -1239.282          46.000    22560354.182    92380876.953        -965.778          46.000  
G30  25740631.489   135267938.509        -985.681          40.000    25740619.639   105403895.483        -767.987          38.000  
G29  23854544.337   125356482.856       -2067.657          44.000    23854530.402    97680572.502       -1610.935          42.000  
G20  23888632.255   125535613.935       -2233.829          43.000                                                                  
G23  26829044.112   140987587.933        2556.515          40.000    26829036.162   109860764.351        1992.126          38.000  
G18  24448189.144   128476107.087        2778.206          45.000    24448175.410   100111374.107        2164.819          45.000  
G15  22208662.972   116707316.879        1696.262          47.000    22208647.760    90940704.837        1321.677          45.000  
G11  25207005.647   132463713.252       -3330.881          41.000    25206995.444   103218423.195       -2595.259          41.000  
G07  27615604.002   145120975.505       -2148.774          32.000    27615590.194                       -1675.129          31.000  
> 2024 08 28 03 21 51.6560000  0 11                     
G13  21743979.890   114265387.220        -405.008          47.000                                                                  
G24  27264077.822   143273722.613        3600.019          34.000    27264077.547   111641842.330        2805.083          33.000  
G05  22560381.683   118555607.038       -1239.270          46.000    22560365.947    92380925.227        -965.607          46.000  
G30  25740640.855   135267987.778        -985.504          40.000    25740629.007   105403933.853        -767.450          38.000  
G29  23854563.986   125356586.219       -2067.415          44.000    23854550.075    97680653.057       -1611.099          42.000  
G20  23888653.500   125535725.609       -2233.624          43.000                                                                  
G23  26829019.790   140987460.099        2556.638          40.000    26829011.852   109860664.764        1991.789          38.000  
G18  24448162.703   128475968.167        2778.270          45.000    24448148.977   100111265.852        2165.002          45.000  
G15  22208646.824   116707232.060        1696.306          47.000    22208631.610    90940638.749        1321.672          45.000  
G11  25207037.328   132463879.774       -3330.609          41.000    25207027.147   103218552.959       -2595.383          41.000  
G07  27615624.460   145121082.943       -2148.688          32.000    27615610.652                       -1674.960          31.000  
> 2024 08 28 03 21 51.7060000  0 11                     
G13  21743983.733   114265407.471        -405.051          47.000                                                                  
G24  27264043.592   143273542.647        3599.384          34.000    27264043.288   111641702.080        2804.987          33.000  
G05  22560393.462   118555668.992       -1239.148          46.000    22560377.737    92380973.498        -965.448          46.000  
G30  25740650.237   135268037.039        -985.278          40.000    25740638.387   105403972.236        -767.664          38.000  
G29  23854583.647   125356689.582       -2067.347          44.000    23854569.733    97680733.602       -1610.989          42.000  
G20  23888674.752   125535837.308       -2233.949          43.000                                                                  
G23  26828995.460   140987332.272        2556.476          40.000    26828987.524   109860565.161        1991.939          38.000  
G18  24448136.245   128475829.249        2778.284          45.000    24448122.540   100111157.608        2164.867          45.000  
G15  22208630.676   116707147.247        1696.208          47.000    22208615.480    90940572.653        1321.820          45.000  
G11  25207069.019   132464046.312       -3330.757          41.000    25207058.847   103218682.724       -2595.375          41.000  
G07  27615644.880   145121190.404       -2149.286          32.000    27615631.085                       -1674.410          31.000  
> 2024 08 28 03 21 51.7560000  0 11                     
G13  21743987.598   114265427.723        -405.108          47.000                                                                  
G24  27264009.335   143273362.678        3599.299          34.000    27264009.042   111641561.838        2804.923          33.000  
G05  22560405.259   118555730.950       -1239.191          46.000    22560389.539    92381021.783        -965.656          46.000  
G30  25740659.642   135268086.318        -985.486          40.000    25740647.776   105404010.650        -768.213          38.000  
G29  23854603.317   125356792.950       -2067.340          44.000    23854589.388    97680814.150       -1610.996          42.000  
G20  23888696.015   125535948.993       -2233.809          43.000                                                                  
G23  26828971.147   140987204.470        2556.069          40.000    26828963.176   109860465.549        1992.254          38.000  
G18  24448109.805   128475690.320        2778.561          45.000    24448096.113   100111049.358        2164.919          45.000  
G15  22208614.537   116707062.432        1696.239          47.000    22208599.349    90940506.557        1321.912          45.000  
G11  25207100.706   132464212.838       -3330.609          41.000    25207090.525   103218812.495       -2595.486          41.000  
G07  27615665.303   145121297.849       -2149.296          32.000    27615651.574                       -1675.018          31.000  
> 2024 08 28 03 21 51.8060000  0 11                     
G13  21743991.471   114265447.984        -405.263          47.000                                                                  
G24  27263975.113   143273182.674        3599.927          34.000    27263974.789   111641421.588        2805.056          33.000  
G05  22560417.053   118555792.913       -1239.276          46.000    22560401.350    92381070.069        -965.759          46.000  
G30  25740669.013   135268135.584        -985.370          40.000    25740657.157   105404049.057        -768.231          38.000  
G29  23854622.978   125356896.317       -2067.381          44.000    23854609.066    97680894.696       -1611.012          42.000  
G20  23888717.252   125536060.675       -2233.702          43.000                                                                  
G23  26828946.829   140987076.638        2556.346          40.000    26828938.854   109860365.926        1992.434          38.000  
G18  24448083.354   128475551.408        2778.295          45.000    24448069.662   100110941.107        2165.016          45.000  
G15  22208598.395   116706977.616        1696.270          47.000    22208583.218    90940440.474        1321.702          45.000  
G11  25207132.393   132464379.380       -3330.794          41.000    25207122.219   103218942.265       -2595.448          41.000  
G07  27615685.774   145121405.309       -2149.539          32.000    27615672.049                       -1675.017          31.000  
> 2024 08 28 03 21 51.8560000  0 11                     
G13  21743995.325   114265468.245        -405.304          47.000                                                                  
G24  27263940.843   143273002.703        3599.565          34.000    27263940.518   111641281.334        2805.107          33.000  
G05  22560428.847   118555854.868       -1239.197          46.000    22560413.138    92381118.345        -965.601          46.000  
G30  25740678.383   135268184.872        -985.748          40.000    25740666.512   105404087.448        -768.011          38.000  
G29  23854642.652   125356999.701       -2067.726          44.000    23854628.745    97680975.252       -1611.146          42.000  
G20  23888738.505   125536172.355       -2233.643          43.000                                                                  
G23  26828922.493   140986948.807        2556.576          40.000    26828914.531   109860266.331        1992.067          38.000  
G18  24448056.933   128475412.485        2778.333          45.000    24448043.219   100110832.857        2164.989          45.000  
G15  22208582.275   116706892.807        1696.190          47.000    22208567.074    90940374.388        1321.647          45.000  
G11  25207164.090   132464545.916       -3330.787          41.000    25207153.912   103219072.036       -2595.398          41.000  
G07  27615706.261   145121512.791       -2149.740          32.000    27615692.489                       -1674.127          31.000  
> 2024 08 28 03 21 51.9060000  0 11                     
G13  21743999.166   114265488.503        -405.271          47.000                                                                  
G24  27263906.586   143272822.706        3599.816          34.000    27263906.283   111641141.101        2804.862          33.000  
G05  22560440.663   118555916.833       -1239.282          46.000    22560424.928    92381166.627        -965.656          46.000  
G30  25740687.768   135268234.165        -985.956          40.000    25740675.904   105404125.846        -767.981          38.000  
G29  23854662.323   125357103.095       -2067.986          44.000    23854648.426    97681055.809       -1611.220          42.000  
G20  23888759.765   125536284.069       -2234.206          43.000                                                                  
G23  26828898.166   140986820.983        2556.491          40.000    26828890.196   109860166.738        1991.935          38.000  
G18  24448030.522   128475273.575        2778.176          45.000    24448016.793   100110724.619        2164.728          45.000  
G15  22208566.154   116706808.008        1695.963          47.000    22208550.928    90940308.312        1321.469          45.000  
G11  25207195.807   132464712.464       -3330.935          41.000    25207185.597   103219201.799       -2595.219          41.000  
G07  27615726.733   145121620.243       -2149.283          32.000    27615712.943                       -1674.720          31.000  
> 2024 08 28 03 21 51.9560000  0 11                     
G13  21744003.010   114265508.767        -405.320          47.000                                                                  
G24  27263872.308   143272642.728        3599.580          34.000    27263872.023   111641000.857        2804.862          33.000  
G05  22560452.448   118555978.812       -1239.569          46.000    22560436.724    92381214.923        -965.930          46.000  
G30  25740697.146   135268283.451        -985.840          40.000    25740685.280   105404164.239        -767.932          38.000  
G29  23854681.971   125357206.473       -2067.740          44.000    23854668.099    97681136.376       -1611.368          42.000  
G20  23888781.012   125536395.748       -2233.806          43.000                                                                  
G23  26828873.847   140986693.166        2556.350          40.000    26828865.858   109860067.150        1991.786          38.000  
G18  24448004.095   128475134.677        2777.901          45.000    24447990.362   100110616.389        2164.589          45.000  
G15  22208550.012   116706723.201        1696.044          47.000    22208534.806    90940242.229        1321.526          45.000  
G11  25207227.486   132464878.996       -3330.743          41.000    25207217.272   103219331.574       -2595.405          41.000  
G07  27615747.208   145121727.677       -2148.727          32.000    27615733.387                       -1674.786          31.000  
> 2024 08 28 03 21 52.0060000  0 11                     
G13  21744006.888   114265529.042        -405.520          47.000                                                                  
G24  27263838.056   143272462.773        3599.072          34.000    27263837.782   111640860.599        2805.246          33.000  
G05  22560464.240   118556040.780       -1239.478          46.000    22560448.525    92381263.207        -965.820          46.000  
G30  25740706.522   135268332.733        -985.730          40.000    25740694.676   105404202.655        -768.329          38.000  
G29  23854701.648   125357309.860       -2067.760          44.000    23854687.785    97681216.930       -1611.195          42.000  
G20  23888802.268   125536507.453       -2234.025          43.000                                                                  
G23  26828849.541   140986565.342        2556.404          40.000    26828841.523   109859967.534        1992.176          38.000  
G18  24447977.651   128474995.757        2778.185          45.000    24447963.918   100110508.136        2164.902          45.000  
G15  22208533.879   116706638.403        1695.927          47.000    22208518.648    90940176.152        1321.501          45.000  
G11  25207259.187   132465045.544       -3330.947          41.000    25207248.976   103219461.346       -2595.429          41.000  
G07  27615767.682   145121835.176       -2149.831          32.000    27615753.829                       -1674.908          32.000  
> 2024 08 28 03 21 52.0560000  0 11                     
G13  21744010.762   114265549.319        -405.623          47.000                                                                  
G24  27263803.791   143272282.799        3599.163          34.000    27263803.529   111640720.338        2805.411          33.000  
G05  22560476.010   118556102.741       -1239.282          46.000    22560460.283    92381311.493        -965.747          46.000  
G30  25740715.913   135268382.024        -985.815          40.000    25740704.040   105404241.075        -768.469          38.000  
G29  23854721.313   125357413.239       -2067.623          44.000    23854707.445    97681297.497       -1611.353          42.000  
G20  23888823.527   125536619.145       -2233.960          43.000                                                                  
G23  26828825.233   140986437.540        2556.117          40.000    26828817.186   109859867.939        1991.932          38.000  
G18  24447951.196   128474856.847        2778.178          45.000    24447937.483   100110399.894        2164.900          45.000  
G15  22208517.723   116706553.603        1695.940          47.000    22208502.512    90940110.073        1321.539          45.000  
G11  25207290.888   132465212.098       -3331.137          41.000    25207280.640   103219591.120       -2595.510          41.000  
G07  27615788.175   145121942.654       -2149.897          32.000    27615774.289                       -1675.022          32.000  
> 2024 08 28 03 21 52.1060000  0 11                     
G13  21744014.602   114265569.591        -405.539          47.000                                                                  
G24  27263769.532   143272102.810        3599.752          34.000    27263769.294   111640580.104        2805.022          33.000  
G05  22560487.807   118556164.714       -1239.423          46.000    22560472.074    92381359.787        -965.881          46.000  
G30  25740725.295   135268431.318        -985.876          40.000    25740713.403   105404279.491        -768.481          38.000  
G29  23854741.004   125357516.626       -2067.717          44.000    23854727.136    97681378.060       -1611.357          42.000  
G20  23888844.762   125536730.837       -2233.894          43.000                                                                  
G23  26828800.913   140986309.715        2556.383          40.000    26828792.853   109859768.351        1991.716          38.000  
G18  24447924.770   128474717.939        2778.127          45.000    24447911.040   100110291.654        2164.869          45.000  
G15  22208501.577   116706468.810        1695.829          47.000    22208486.395    90940043.996        1321.558          45.000  
G11  25207322.573   132465378.641       -3330.988          41.000    25207312.360   103219720.904       -2595.687          41.000  
G07  27615808.600   145122050.107       -2149.492          32.000    27615794.752                       -1675.129          32.000  
> 2024 08 28 03 21 52.1560000  0 11                     
G13  21744018.447   114265589.850        -405.250          47.000                                                                  
G24  27263735.301   143271922.811        3599.932          34.000    27263735.062   111640439.894        2804.401          33.000  
G05  22560499.598   118556226.684       -1239.441          46.000    22560483.860    92381408.065        -965.625          46.000  
G30  25740734.681   135268480.612        -985.907          40.000    25740722.764   105404317.888        -768.054          38.000  
G29  23854760.688   125357620.015       -2067.780          44.000    23854746.797    97681458.616       -1611.178          42.000  
G20  23888866.016   125536842.537       -2234.013          43.000                                                                  
G23  26828776.586   140986181.895        2556.452          40.000    26828768.529   109859668.750        1991.851          38.000  
G18  24447898.355   128474579.023        2778.326          45.000    24447884.597   100110183.411        2164.848          45.000  
G15  22208485.423   116706384.002        1696.058          47.000    22208470.249    90939977.922        1321.465          45.000  
G11  25207354.269   132465545.181       -3330.853          41.000    25207344.076   103219850.677       -2595.532          41.000  
G07  27615829.041   145122157.561       -2149.293          32.000    27615815.201                       -1674.429          32.000  
> 2024 08 28 03 21 52.2060000  0 11                     
G13  21744022.301   114265610.110        -405.184          47.000                                                                  
G24  27263701.062   143271742.807        3600.023          34.000    27263700.796   111640299.598        2805.734          33.000  
G05  22560511.379   118556288.637       -1239.148          46.000    22560495.635    92381456.354        -965.735          46.000  
G30  25740744.055   135268529.890        -985.632          40.000    25740732.158   105404356.278        -767.737          38.000  
G29  23854780.339   125357723.391       -2067.597          44.000    23854766.466    97681539.162       -1610.963          42.000  
G20  23888887.279   125536954.211       -2233.671          43.000                                                                  
G23  26828752.237   140986054.057        2556.662          40.000    26828744.212   109859569.138        1992.135          38.000  
G18  24447871.917   128474440.111        2778.311          45.000    24447858.155   100110075.164        2164.872          45.000  
G15  22208469.297   116706299.194        1696.187          47.000    22208454.104    90939911.834        1321.687          45.000  
G11  25207385.962   132465711.712       -3330.657          41.000    25207375.739   103219980.430       -2595.145          41.000  
G07  27615849.507   145122265.018       -2149.278          32.000    27615835.684                       -1674.154          32.000  
> 2024 08 28 03 21 52.2560000  0 11                     
G13  21744026.187   114265630.373        -405.225          47.000                                                                  
G24  27263666.813   143271562.841        3599.337          34.000    27263666.533   111640159.396        2804.489          33.000  
G05  22560523.134   118556350.598       -1239.227          46.000    22560507.414    92381504.632        -965.613          46.000  
G30  25740753.415   135268579.174        -985.730          40.000    25740741.544   105404394.693        -768.182          38.000  
G29  23854800.021   125357826.779       -2067.717          44.000    23854786.127    97681619.718       -1611.068          42.000  
G20  23888908.537   125537065.913       -2233.927          43.000                                                                  
G23  26828727.918   140985926.212        2556.915          39.000    26828719.881   109859469.516        1992.405          38.000  
G18  24447845.489   128474301.192        2778.351          45.000    24447831.734   100109966.922        2164.821          45.000  
G15  22208453.186   116706214.388        1696.143          47.000    22208437.962    90939845.749        1321.723          45.000  
G11  25207417.642   132465878.240       -3330.559          41.000    25207407.431   103220110.195       -2595.227          41.000  
G07  27615869.946   145122372.471       -2149.119          32.000    27615856.130                       -1674.682          32.000  
> 2024 08 28 03 21 52.3060000  0 11                     
G13  21744030.064   114265650.650        -405.527          47.000                                                                  
G24  27263632.541   143271382.823        3599.936          34.000    27263632.281                        2805.537          33.000  
G05  22560534.944   118556412.571       -1239.453          46.000    22560519.233    92381552.916        -965.668          46.000  
G30  25740762.792   135268628.469        -985.913          40.000    25740750.936   105404433.106        -768.329          38.000  
G29  23854819.691   125357930.170       -2067.811          44.000    23854805.796    97681700.283       -1611.268          42.000  
G20  23888929.774   125537177.596       -2233.757          43.000                                                                  
G23  26828703.591   140985798.393        2556.524          39.000    26828695.559   109859369.921        1992.083          38.000  
G18  24447819.066   128474162.277        2778.279          45.000    24447805.292   100109858.673        2164.917          45.000  
G15  22208437.060   116706129.589        1696.019          47.000    22208421.820    90939779.675        1321.488          45.000  
G11  25207449.346   132466044.778       -3330.726          41.000    25207439.133   103220239.972       -2595.467          41.000  
G07  27615890.385   145122479.908       -2148.827          32.000    27615876.594                       -1674.162          32.000  
> 2024 08 28 03 21 52.3560000  0 11                     
G13  21744033.917   114265670.925        -405.599          47.000                                                                  
G24  27263598.276   143271202.857        3599.402          34.000    27263598.032   111639878.864        2805.332          33.000  
G05  22560546.712   118556474.537       -1239.398          46.000    22560531.029    92381601.195        -965.625          46.000  
G30  25740772.178   135268677.757        -985.858          40.000    25740760.317   105404471.510        -768.170          38.000  
G29  23854839.347   125358033.551       -2067.728          44.000    23854825.480    97681780.838       -1611.287          42.000  
G20  23888951.017   125537289.278       -2233.691          43.000                                                                  
G23  26828679.253   140985670.583        2556.146          39.000    26828671.239   109859270.306        1992.219          38.000  
G18  24447792.642   128474023.362        2778.241          45.000    24447778.903   100109750.432        2164.833          45.000  
G15  22208420.904   116706044.791        1695.908          47.000    22208405.693    90939713.596        1321.470          45.000  
G11  25207481.016   132466211.323       -3330.917          41.000    25207470.817   103220369.746       -2595.516          41.000  
G07  27615910.810   145122587.407       -2149.759          32.000    27615897.046                       -1675.463          32.000  
> 2024 08 28 03 21 52.4060000  0 11                     
G13  21744037.758   114265691.202        -405.628          47.000                                                                  
G24  27263564.012   143271022.826        3600.453          34.000    27263563.789   111639738.591        2805.588          33.000  
G05  22560558.501   118556536.490       -1239.111          46.000    22560542.820    92381649.480        -965.698          46.000  
G30  25740781.543   135268727.045        -985.858          40.000    25740769.714   105404509.939        -768.543          38.000  
G29  23854859.006   125358136.939       -2067.780          44.000    23854845.154    97681861.407       -1611.356          42.000  
G20  23888972.286   125537400.991       -2234.195          43.000                                                                  
G23  26828654.943   140985542.777        2556.027          40.000    26828646.918   109859170.710        1992.015          38.000  
G18  24447766.212   128473884.449        2778.212          45.000    24447752.472   100109642.181        2164.994          45.000  
G15  22208404.762   116705959.992        1695.922          47.000    22208389.562    90939647.522        1321.409          45.000  
G11  25207512.718   132466377.877       -3331.137          41.000    25207502.505   103220499.525       -2595.682          41.000  
G07  27615931.276   145122694.887       -2149.748          32.000    27615917.535                       -1675.625          32.000  
> 2024 08 28 03 21 52.4560000  0 11                     
G13  21744041.608   114265711.481        -405.677          47.000                                                                  
G24  27263529.775   143270842.827        3600.081          34.000    27263529.540   111639598.351        2805.021          33.000  
G05  22560570.301   118556598.462       -1239.423          46.000    22560554.615    92381697.772        -965.875          46.000  
G30  25740790.896   135268776.344        -986.029          40.000    25740779.108   105404548.335        -768.109          38.000  
G29  23854878.698   125358240.328       -2067.824          44.000    23854864.832    97681941.968       -1611.329          42.000  
G20  23888993.562   125537512.695       -2234.222          43.000                                                                  
G23  26828630.617   140985414.936        2556.575          40.000    26828622.591   109859071.109        1991.923          38.000  
G18  24447739.785   128473745.539        2778.135          45.000    24447726.045   100109533.943        2164.814          45.000  
G15  22208388.621   116705875.203        1695.768          47.000    22208373.434    90939581.452        1321.311          45.000  
G11  25207544.400   132466544.423       -3331.069          41.000    25207534.210   103220629.307       -2595.705          41.000  
G07  27615951.713   145122802.315       -2148.733          32.000    27615937.985                       -1674.874          32.000  
> 2024 08 28 03 21 52.5060000  0 11                     
G13  21744045.481   114265731.762        -405.712          47.000                                                                  
G24  27263495.534   143270662.893        3598.923          34.000    27263495.303   111639458.127        2804.525          33.000  
G05  22560582.107   118556660.451       -1239.832          46.000    22560566.402    92381746.069        -966.016          46.000  
G30  25740800.265   135268825.649        -986.182          40.000    25740788.480   105404586.738        -768.085          38.000  
G29  23854898.347   125358343.731       -2068.066          44.000    23854884.520    97682022.550       -1611.602          42.000  
G20  23889014.821   125537624.369       -2233.709          43.000                                                                  
G23  26828606.313   140985287.114        2556.467          39.000    26828598.278   109858971.510        1991.944          38.000  
G18  24447713.353   128473606.641        2777.883          45.000    24447699.618   100109425.707        2164.715          45.000  
G15  22208372.495   116705790.413        1695.738          47.000    22208357.291    90939515.385        1321.244          45.000  
G11  25207576.100   132466710.970       -3331.019          41.000    25207565.907   103220759.083       -2595.556          41.000  
G07  27615972.154   145122909.796       -2149.282          32.000    27615958.436                       -1674.988          32.000  
> 2024 08 28 03 21 52.5560000  0 11                     
G13  21744049.345   114265752.046        -405.736          47.000                                                                  
G24  27263461.279   143270482.893        3599.592          34.000    27263461.051   111639317.887        2804.713          33.000  
G05  22560593.920   118556722.425       -1239.636          46.000    22560578.198    92381794.360        -965.948          46.000  
G30  25740809.647   135268874.949        -986.084          40.000    25740797.869   105404625.153        -768.176          38.000  
G29  23854918.010   125358447.136       -2068.148          44.000    23854904.197    97682103.116       -1611.448          42.000  
G20  23889036.076   125537736.071       -2233.983          43.000                                                                  
G23  26828581.980   140985159.289        2556.494          39.000    26828573.966   109858871.903        1992.115          38.000  
G18  24447686.919   128473467.735        2778.031          45.000    24447673.172   100109317.466        2164.795          45.000  
G15  22208356.348   116705705.622        1695.745          47.000    22208341.168    90939449.321        1321.239          45.000  
G11  25207607.797   132466877.510       -3330.877          41.000    25207597.607   103220888.855       -2595.415          41.000  
G07  27615992.601   145123017.289       -2149.725          32.000    27615978.891                       -1674.640          32.000  
> 2024 08 28 03 21 52.6060000  0 11                     
G13  21744053.182   114265772.330        -405.729          47.000                                                                  
G24  27263426.991   143270302.897        3599.897          34.000    27263426.772   111639177.609        2805.430          33.000  
G05  22560605.690   118556784.389       -1239.355          46.000    22560589.999    92381842.652        -965.912          46.000  
G30  25740819.025   135268924.255        -986.133          40.000    25740807.260   105404663.589        -768.744          38.000  
G29  23854937.670   125358550.531       -2068.022          44.000    23854923.873    97682183.679       -1611.312          42.000  
G20  23889057.342   125537847.782       -2234.243          43.000                                                                  
G23  26828557.654   140985031.486        2555.990          39.000    26828549.632   109858772.318        1991.876          38.000  
G18  24447660.491   128473328.833        2778.059          45.000    24447646.732   100109209.233        2164.700          45.000  
G15  22208340.216   116705620.838        1695.634          47.000    22208325.018    90939383.237        1321.590          45.000  
G11  25207639.484   132467044.058       -3330.946          41.000    25207629.299   103221018.635       -2595.583          41.000  
G07  27616013.043   145123124.764       -2149.522          32.000    27615999.320                       -1674.579          32.000  
> 2024 08 28 03 21 52.6560000  0 11                     
G13  21744057.027   114265792.607        -405.583          47.000                                                                  
G24  27263392.751   143270122.927        3599.512          34.000    27263392.534   111639037.377        2804.785          33.000  
G05  22560617.473   118556846.360       -1239.410          46.000    22560601.818    92381890.938        -965.784          46.000  
G30  25740828.405   135268973.550        -985.925          40.000    25740816.625   105404702.010        -768.591          38.000  
G29  23854957.362   125358653.922       -2067.867          44.000    23854943.561    97682264.254       -1611.437          42.000  
G20  23889078.591   125537959.470       -2233.857          43.000                                                                  
G23  26828533.310   140984903.647        2556.492          39.000    26828525.295   109858672.710        1992.043          38.000  
G18  24447634.057   128473189.917        2778.245          45.000    24447620.303   100109100.987        2164.905          45.000  
G15  22208324.076   116705536.045        1695.789          47.000    22208308.884    90939317.166        1321.515          45.000  
G11  25207671.197   132467210.605       -3330.970          41.000    25207661.018   103221148.405       -2595.465          41.000  
G07  27616033.531   145123232.255       -2149.762          32.000    27616019.785                       -1675.161          32.000  
> 2024 08 28 03 21 52.7060000  0 11                     
G13  21744060.900   114265812.895        -405.723          47.000                                                                  
G24  27263358.509   143269942.949        3599.779          34.000    27263358.278   111638897.083        2805.582          33.000  
G05  22560629.265   118556908.344       -1239.630          46.000    22560613.618    92381939.227        -965.771          46.000  
G30  25740837.774   135269022.846        -985.937          40.000    25740826.004   105404740.421        -768.274          38.000  
G29  23854977.028   125358757.319       -2067.943          44.000    23854963.231    97682344.820       -1611.392          42.000  
G20  23889099.842   125538071.151       -2233.641          43.000                                                                  
G23  26828508.959   140984775.814        2556.643          40.000    26828500.989   109858573.092        1992.344          38.000  
G18  24447607.602   128473051.005        2778.261          45.000    24447593.868   100108992.752        2164.762          45.000  
G15  22208307.941   116705451.251        1695.900          47.000    22208292.758    90939251.099        1321.380          45.000  
G11  25207702.881   132467377.150       -3330.964          41.000    25207692.711   103221278.185       -2595.589          41.000  
G07  27616053.980   145123339.726       -2149.496          32.000    27616040.242                       -1675.263          32.000  
> 2024 08 28 03 21 52.7560000  0 11                     
G13  21744064.770   114265833.189        -405.930          47.000                                                                  
G24  27263324.231   143269762.883        3601.247          34.000    27263324.034   111638756.848        2805.019          33.000  
G05  22560641.044   118556970.315       -1239.459          46.000    22560625.407    92381987.524        -965.894          46.000  
G30  25740847.162   135269072.159        -986.224          40.000    25740835.380   105404778.837        -768.286          38.000  
G29  23854996.707   125358860.717       -2067.994          44.000    23854982.904    97682425.388       -1611.379          42.000  
G20  23889121.117   125538182.854       -2234.026          43.000                                                                  
G23  26828484.638   140984647.987        2556.592          39.000    26828476.680   109858473.481        1992.309          38.000  
G18  24447581.179   128472912.104        2778.037          45.000    24447567.452   100108884.508        2164.766          45.000  
G15  22208291.811   116705366.468        1695.701          47.000    22208276.631    90939185.037        1321.220          45.000  
G11  25207734.570   132467543.694       -3330.927          41.000    25207724.402   103221407.959       -2595.589          41.000  
G07  27616074.423   145123447.140       -2148.627          32.000    27616060.703   113083164.925       -1674.808          32.000  
> 2024 08 28 03 21 52.8060000  0 11                     
G13  21744068.646   114265853.482        -405.964          47.000                                                                  
G24  27263289.978   143269582.891        3600.339          34.000    27263289.806   111638616.636        2804.314          33.000  
G05  22560652.846   118557032.284       -1239.349          46.000    22560637.196    92382035.812        -965.808          46.000  
G30  25740856.545   135269121.456        -986.066          40.000    25740844.769   105404817.240        -768.060          38.000  
G29  23855016.393   125358964.124       -2068.146          44.000    23855002.580    97682505.945       -1611.119          42.000  
G20  23889142.405   125538294.569       -2234.362          43.000                                                                  
G23  26828460.311   140984520.172        2556.354          39.000    26828452.380   109858373.906        1991.683          38.000  
G18  24447554.750   128472773.198        2778.072          45.000    24447541.022   100108776.277        2164.615          45.000  
G15  22208275.672   116705281.682        1695.684          47.000    22208260.497    90939118.970        1321.245          45.000  
G11  25207766.268   132467710.245       -3331.044          41.000    25207756.127   103221537.744       -2595.749          41.000  
G07  27616094.880   145123554.649       -2149.912          32.000    27616081.150   113083248.667       -1674.769          32.000  
> 2024 08 28 03 21 52.8560000  0 11                     
G13  21744072.505   114265873.768        -405.824          47.000                                                                  
G24  27263255.746   143269402.944        3599.216          34.000    27263255.550   111638476.348        2805.324          33.000  
G05  22560664.661   118557094.262       -1239.557          46.000    22560648.996    92382084.108        -965.930          46.000  
G30  25740865.919   135269170.759        -986.066          40.000    25740854.124   105404855.650        -768.152          38.000  
G29  23855036.055   125359067.526       -2068.136          44.000    23855022.283    97682586.536       -1611.683          42.000  
G20  23889163.631   125538406.253       -2233.925          43.000                                                                  
G23  26828435.980   140984392.348        2556.444          39.000    26828428.083   109858274.300        1991.941          38.000  
G18  24447528.298   128472634.287        2778.162          45.000    24447514.590   100108668.032        2164.802          45.000  
G15  22208259.518   116705196.892        1695.733          47.000    22208244.366    90939052.900        1321.276          45.000  
G11  25207797.956   132467876.787       -3330.927          41.000    25207787.831   103221667.517       -2595.507          41.000  
G07  27616115.312   145123662.148       -2150.549          32.000    27616101.598   113083332.390       -1674.451          32.000  
> 2024 08 28 03 21 52.9060000  0 11                     
G13  21744076.366   114265894.053        -405.762          47.000                                                                  
G24  27263221.508   143269222.960        3599.390          34.000    27263221.282   111638336.073        2805.655          33.000  
G05  22560676.454   118557156.240       -1239.618          46.000    22560660.800    92382132.388        -965.698          46.000  
G30  25740875.291   135269220.061        -986.084          40.000    25740863.514   105404894.100        -768.976          38.000  
G29  23855055.739   125359170.917       -2067.956          44.000    23855041.950    97682667.112       -1611.680          42.000  
G20  23889184.887   125538517.935       -2233.698          43.000                                                                  
G23  26828411.649   140984264.521        2556.466          40.000    26828403.750   109858174.695        1991.954          38.000  
G18  24447501.855   128472495.375        2778.223          45.000    24447488.153   100108559.789        2164.832          45.000  
G15  22208243.389   116705112.102        1695.770          47.000    22208228.240    90938986.828        1321.411          45.000  
G11  25207829.655   132468043.341       -3331.087          41.000    25207819.519   103221797.286       -2595.434          41.000  
G07  27616135.778   145123769.621       -2149.940          33.000    27616122.042   113083416.123       -1674.642          32.000  
> 2024 08 28 03 21 52.9560000  0 11                     
G13  21744080.237   114265914.344        -405.819          47.000                                                                  
G24  27263187.228   143269042.918        3600.519          34.000    27263187.036   111638195.839        2804.998          33.000  
G05  22560688.244   118557218.211       -1239.502          46.000    22560672.593    92382180.686        -965.900          46.000  
G30  25740884.652   135269269.384        -986.456          40.000    25740872.907   105404932.540        -769.006          38.000  
G29  23855075.412   125359274.321       -2068.088          44.000    23855061.642    97682747.681       -1611.500          42.000  
G20  23889206.153   125538629.656       -2234.287          43.000                                                                  
G23  26828387.338   140984136.700        2556.347          40.000    26828379.446   109858075.082        1992.209          38.000  
G18  24447475.403   128472356.467        2778.145          45.000    24447461.716   100108451.550        2164.766          45.000  
G15  22208227.263   116705027.327        1695.517          47.000    22208212.112    90938920.768        1321.226          45.000  
G11  25207861.367   132468209.900       -3331.272          41.000    25207851.215   103221927.070       -2595.607          41.000  
G07  27616156.248   145123877.072       -2149.269          33.000    27616142.498                       -1675.214          32.000  
> 2024 08 28 03 21 53.0060000  0 11                     
G13  21744084.112   114265934.645        -406.026          47.000                                                                  
G24  27263152.976   143268862.931        3600.008          34.000    27263152.798   111638055.588        2804.877          33.000  
G05  22560700.035   118557280.191       -1239.624          46.000    22560684.413    92382228.983        -966.003          46.000  
G30  25740894.036   135269318.693        -986.359          40.000    25740882.282   105404970.944        -768.280          38.000  
G29  23855095.071   125359377.724       -2068.159          44.000    23855081.319    97682828.263       -1611.617          42.000  
G20  23889227.379   125538741.354       -2234.133          43.000                                                                  
G23  26828362.987   140984008.865        2556.630          39.000    26828355.106   109857975.489        1991.973          38.000  
G18  24447448.963   128472217.573        2777.847          45.000    24447435.305   100108343.312        2164.742          45.000  
G15  22208211.132   116704942.545        1695.562          47.000    22208195.972    90938854.708        1321.147          45.000  
G11  25207893.059   132468376.448       -3331.191          41.000    25207882.901   103222056.849       -2595.687          41.000  
G07  27616176.696   145123984.528       -2149.036          33.000    27616162.974                       -1675.405          32.000  
> 2024 08 28 03 21 53.0560000  0 11                     
G13  21744087.952   114265954.939        -405.999          47.000                                                                  
G24  27263118.717   143268682.964        3599.327          34.000    27263118.532   111637915.321        2805.097          33.000  
G05  22560711.850   118557342.172       -1239.667          46.000    22560696.208    92382277.281        -966.022          46.000  
G30  25740903.416   135269368.003        -986.285          40.000    25740891.663   105405009.346        -767.987          38.000  
G29  23855114.743   125359481.127       -2068.087          44.000    23855100.983    97682908.833       -1611.452          42.000  
G20  23889248.610   125538853.030       -2233.729          43.000                                                                  
G23  26828338.672   140983881.040        2556.520          39.000    26828330.784   109857875.865        1992.340          38.000  
G18  24447422.543   128472078.658        2778.085          45.000    24447408.844   100108235.072        2164.796          45.000  
G15  22208194.973   116704857.764        1695.611          47.000    22208179.825    90938788.635        1321.419          45.000  
G11  25207924.762   132468542.981       -3330.771          41.000    25207914.583   103222186.621       -2595.563          41.000  
G07  27616197.153   145124092.010       -2149.528          32.000    27616183.429                       -1674.664          32.000  
> 2024 08 28 03 21 53.1060000  0 11                     
G13  21744091.787   114265975.230        -405.872          47.000                                                                  
G24  27263084.463   143268502.955        3599.781          34.000    27263084.288   111637775.072        2804.932          33.000  
G05  22560723.662   118557404.141       -1239.453          46.000    22560707.999    92382325.573        -965.942          46.000  
G30  25740912.788   135269417.310        -986.188          40.000    25740901.042   105405047.772        -768.457          38.000  
G29  23855134.412   125359584.542       -2068.219          44.000    23855120.636    97682989.407       -1611.476          42.000  
G20  23889269.872   125538964.719       -2233.723          43.000                                                                  
G23  26828314.342   140983753.220        2556.397          39.000    26828306.467   109857776.256        1992.255          38.000  
G18  24447396.113   128471939.754        2778.008          45.000    24447382.397   100108126.834        2164.749          45.000  
G15  22208178.831   116704772.979        1695.660          47.000    22208163.694    90938722.572        1321.319          45.000  
G11  25207956.448   132468709.536       -3330.938          41.000    25207946.279   103222316.414       -2595.866          41.000  
G07  27616217.662   145124199.529       -2150.409          32.000    27616203.857                       -1675.260          32.000  
> 2024 08 28 03 21 53.1560000  0 11                     
G13  21744095.639   114265995.534        -406.093          47.000                                                                  
G24  27263050.205   143268322.939        3600.277          34.000    27263050.037   111637634.793        2805.466          33.000  
G05  22560735.472   118557466.117       -1239.496          46.000    22560719.812    92382373.862        -965.820          46.000  
G30  25740922.161   135269466.608        -986.078          40.000    25740910.446   105405086.201        -768.610          38.000  
G29  23855154.094   125359687.955       -2068.274          44.000    23855140.314    97683069.982       -1611.530          42.000  
G20  23889291.159   125539076.448       -2234.448          43.000                                                                  
G23  26828290.014   140983625.390        2556.518          39.000    26828282.147   109857676.656        1992.028          38.000  
G18  24447369.698   128471800.855        2777.929          45.000    24447355.960   100108018.594        2164.787          45.000  
G15  22208162.706   116704688.199        1695.580          47.000    22208147.577    90938656.513        1321.165          45.000  
G11  25207988.118   132468876.076       -3330.834          41.000    25207977.981   103222446.189       -2595.674          41.000  
G07  27616238.143   145124306.969       -2149.124          32.000    27616224.297                       -1675.172          32.000  
> 2024 08 28 03 21 53.2060000  0 11                     
G13  21744099.523   114266015.832        -406.046          47.000                                                                  
G24  27263015.969   143268142.935        3600.288          34.000    27263015.791   111637494.584        2804.363          33.000  
G05  22560747.255   118557528.096       -1239.587          46.000    22560731.616    92382422.152        -965.802          46.000  
G30  25740931.540   135269515.930        -986.407          40.000    25740919.818   105405124.632        -768.640          38.000  
G29  23855173.764   125359791.355       -2068.107          44.000    23855160.010    97683150.576       -1611.877          42.000  
G20  23889312.417   125539188.143       -2234.190          43.000                                                                  
G23  26828265.677   140983497.562        2556.535          39.000    26828257.839   109857577.070        1991.767          38.000  
G18  24447343.251   128471661.948        2778.070          45.000    24447329.512   100107910.372        2164.438          45.000  
G15  22208146.577   116704603.423        1695.482          47.000    22208131.455    90938590.456        1321.104          45.000  
G11  25208019.840   132469042.638       -3331.205          41.000    25208009.674   103222575.960       -2595.445          41.000  
G07  27616258.602   145124414.461       -2149.478          33.000    27616244.736                       -1674.863          32.000  
> 2024 08 28 03 21 53.2560000  0 11                     
G13  21744103.394   114266036.125        -405.906          47.000                                                                  
G24  27262981.716   143267962.943        3599.921          34.000    27262981.547   111637354.326        2804.810          33.000  
G05  22560759.033   118557590.072       -1239.551          46.000    22560743.400    92382470.442        -965.796          46.000  
G30  25740940.910   135269565.232        -986.169          40.000    25740929.181   105405163.054        -768.665          38.000  
G29  23855193.434   125359894.751       -2067.970          44.000    23855179.689    97683231.151       -1611.703          42.000  
G20  23889333.686   125539299.820       -2233.698          43.000                                                                  
G23  26828241.347   140983369.715        2556.917          39.000    26828233.512   109857477.459        1992.132          38.000  
G18  24447316.825   128471523.027        2778.360          45.000    24447303.055   100107802.126        2164.767          45.000  
G15  22208130.456   116704518.644        1695.519          47.000    22208115.324    90938524.391        1321.234          45.000  
G11  25208051.532   132469209.179       -3330.951          41.000    25208041.377   103222705.735       -2595.409          41.000  
G07  27616279.022   145124521.915       -2149.136          33.000    27616265.175                       -1674.277          32.000  
> 2024 08 28 03 21 53.3060000  0 11                     
G13  21744107.263   114266056.424        -405.971          47.000                                                                  
G24  27262947.460   143267782.937        3600.014          34.000    27262947.276   111637214.019        2805.627          33.000  
G05  22560770.817   118557652.035       -1239.349          46.000    22560755.186    92382518.738        -965.887          46.000  
G30  25740950.291   135269614.553        -986.389          40.000    25740938.581   105405201.476        -768.610          38.000  
G29  23855213.123   125359998.172       -2068.361          44.000    23855199.365    97683311.718       -1611.414          42.000  
G20  23889354.947   125539411.516       -2233.847          43.000                                                                  
G23  26828217.033   140983241.897        2556.554          39.000    26828209.187   109857377.842        1992.420          38.000  
G18  24447290.401   128471384.127        2778.114          45.000    24447276.615   100107693.881        2164.852          45.000  
G15  22208114.302   116704433.867        1695.519          47.000    22208099.216    90938458.333        1321.166          45.000  
G11  25208083.244   132469375.727       -3331.020          41.000    25208073.083   103222835.515       -2595.570          41.000  
G07  27616299.443   145124629.364       -2148.928          33.000    27616285.641                       -1674.686          32.000  
> 2024 08 28 03 21 53.3560000  0 11                     
G13  21744111.129   114266076.742        -406.354          47.000                                                                  
G24  27262913.207   143267602.964        3599.362          34.000    27262913.009   111637073.763        2805.076          33.000  
G05  22560782.624   118557714.012       -1239.532          46.000    22560766.952    92382567.037        -965.979          46.000  
G30  25740959.674   135269663.881        -986.627          40.000    25740947.943   105405239.915        -768.848          38.000  
G29  23855232.796   125360101.601       -2068.629          44.000    23855219.046    97683392.312       -1611.796          42.000  
G20  23889376.214   125539523.238       -2234.395          43.000                                                                  
G23  26828192.692   140983114.075        2556.420          40.000    26828184.855   109857278.233        1992.322          38.000  
G18  24447263.979   128471245.239        2777.787          45.000    24447250.208   100107585.649        2164.679          45.000  
G15  22208098.185   116704349.096        1695.384          47.000    22208083.060    90938392.275        1321.111          45.000  
G11  25208114.950   132469542.286       -3331.278          41.000    25208104.758   103222965.301       -2595.761          41.000  
G07  27616319.910   145124736.886       -2150.040          33.000    27616306.099                       -1675.961          32.000  
> 2024 08 28 03 21 53.4060000  0 11                     
G13  21744114.990   114266097.057        -406.399          47.000                                                                  
G24  27262878.985   143267422.946        3599.959          34.000    27262878.757   111636933.539        2804.391          33.000  
G05  22560794.432   118557776.017       -1240.045          46.000    22560778.768    92382615.340        -966.052          46.000  
G30  25740969.050   135269713.200        -986.499          40.000    25740957.344   105405278.363        -769.006          38.000  
G29  23855252.465   125360205.020       -2068.575          44.000    23855238.722    97683472.894       -1611.704          42.000  
G20  23889397.462   125539634.941       -2234.274          43.000                                                                  
G23  26828168.381   140982986.266        2556.164          40.000    26828160.545   109857178.663        1991.633          38.000  
G18  24447237.551   128471106.336        2777.933          45.000    24447223.777   100107477.425        2164.499          45.000  
G15  22208082.034   116704264.328        1695.329          47.000    22208066.933    90938326.228        1320.920          45.000  
G11  25208146.669   132469708.855       -3331.505          41.000    25208136.429   103223095.092       -2595.865          41.000  
G07  27616340.383   145124844.429       -2150.868          33.000    27616326.571                       -1675.656          32.000  
> 2024 08 28 03 21 53.4560000  0 11                     
G13  21744118.848   114266117.366        -406.257          47.000                                                                  
G24  27262844.717   143267242.963        3599.682          34.000    27262844.516   111636793.273        2804.975          33.000  
G05  22560806.239   118557838.011       -1240.021          46.000    22560790.566    92382663.642        -966.101          46.000  
G30  25740978.433   135269762.526        -986.621          40.000    25740966.719   105405316.797        -768.713          38.000  
G29  23855272.129   125360308.438       -2068.467          44.000    23855258.403    97683553.470       -1611.584          42.000  
G20  23889418.691   125539746.635       -2234.018          43.000                                                                  
G23  26828144.055   140982858.445        2556.327          40.000    26828136.216   109857079.061        1991.812          38.000  
G18  24447211.141   128470967.449        2777.724          45.000    24447197.339   100107369.199        2164.446          45.000  
G15  22208065.904   116704179.566        1695.206          47.000    22208050.785    90938260.179        1320.890          45.000  
G11  25208178.348   132469875.424       -3331.484          41.000    25208168.125   103223224.885       -2595.931          41.000  
G07  27616360.828   145124951.910       -2150.089          33.000    27616347.013                       -1674.618          32.000  
> 2024 08 28 03 21 53.5060000  0 11                     
G13  21744122.713   114266137.683        -406.371          47.000                                                                  
G24  27262810.466   143267062.965        3599.993          34.000    27262810.243                        2805.054          33.000  
G05  22560818.047   118557899.986       -1239.642          46.000    22560802.355    92382711.945        -966.119          46.000  
G30  25740987.833   135269811.853        -986.621          40.000    25740976.108   105405355.210        -768.237          38.000  
G29  23855291.805   125360411.857       -2068.396          44.000    23855278.079    97683634.063       -1611.822          42.000  
G20  23889439.938   125539858.360       -2234.440          43.000                                                                  
G23  26828119.712   140982730.618        2556.487          40.000    26828111.890   109856979.442        1992.177          38.000  
G18  24447184.711   128470828.543        2777.999          45.000    24447170.923   100107260.962        2164.644          45.000  
G15  22208049.784   116704094.799        1695.275          47.000    22208034.661    90938194.125        1320.989          45.000  
G11  25208210.034   132470041.969       -3331.028          41.000    25208199.808   103223354.652       -2595.444          41.000  
G07  27616381.279   145125059.352       -2149.033          33.000    27616367.482                       -1674.976          32.000  
> 2024 08 28 03 21 53.5560000  0 11                     
G13  21744126.563   114266158.000        -406.395          47.000                                                                  
G24  27262776.218   143266882.952        3600.260          34.000    27262775.955                        2805.804          33.000  
G05  22560829.844   118557961.968       -1239.648          46.000    22560814.138    92382760.247        -966.089          46.000  
G30  25740997.218   135269861.184        -986.688          40.000    25740985.496   105405393.656        -768.707          38.000  
G29  23855311.479   125360515.269       -2068.296          44.000    23855297.770    97683714.663       -1611.983          42.000  
G20  23889461.175   125539970.070       -2234.395          43.000                                                                  
G23  26828095.414   140982602.792        2556.659          40.000    26828087.574   109856879.861        1991.746          38.000  
G18  24447158.286   128470689.644        2777.990          45.000    24447144.489   100107152.723        2164.749          45.000  
G15  22208033.667   116704010.033        1695.275          47.000    22208018.527    90938128.072        1321.014          45.000  
G11  25208241.728   132470208.512       -3330.826          41.000    25208231.496   103223484.447       -2595.778          41.000  
G07  27616401.699   145125166.855       -2149.712          33.000    27616387.944                       -1675.484          32.000  
> 2024 08 28 03 21 53.6060000  0 11                     
G13  21744130.413   114266178.315        -406.395          47.000                                                                  
G24  27262741.954   143266702.942        3600.330          34.000    27262741.710   111636372.442        2805.781          33.000  
G05  22560841.644   118558023.961       -1239.850          46.000    22560825.933    92382808.546        -966.028          46.000  
G30  25741006.612   135269910.507        -986.530          40.000    25740994.879   105405432.094        -768.774          38.000  
G29  23855331.174   125360618.704       -2068.641          44.000    23855317.478    97683795.244       -1611.684          42.000  
G20  23889482.391   125540081.754       -2233.863          43.000                                                                  
G23  26828071.080   140982474.975        2556.516          40.000    26828063.259   109856780.252        1991.936          38.000  
G18  24447131.859   128470550.742        2777.981          45.000    24447118.039   100107044.494        2164.614          45.000  
G15  22208017.527   116703925.266        1695.324          47.000    22208002.396    90938062.025        1320.940          45.000  
G11  25208273.430   132470375.086       -3331.302          41.000    25208263.188   103223614.236       -2595.814          41.000  
G07  27616422.130   145125274.348       -2149.861          33.000    27616408.372                       -1674.816          32.000  
> 2024 08 28 03 21 53.6560000  0 11                     
G13  21744134.259   114266198.626        -406.306          47.000                                                                  
G24  27262707.713   143266522.954        3599.800          34.000    27262707.467   111636232.238        2804.477          33.000  
G05  22560853.435   118558085.943       -1239.764          46.000    22560837.708    92382856.842        -965.991          46.000  
G30  25741016.003   135269959.827        -986.456          40.000    25741004.266   105405470.529        -768.817          38.000  
G29  23855350.814   125360722.127       -2068.582          44.000    23855337.160    97683875.837       -1611.808          42.000  
G20  23889503.647   125540193.446       -2233.832          43.000                                                                  
G23  26828046.753   140982347.145        2556.522          40.000    26828038.942   109856680.627        1992.342          38.000  
G18  24447105.422   128470411.841        2778.021          45.000    24447091.628   100106936.264        2164.531          45.000  
G15  22208001.384   116703840.500        1695.287          47.000    22207986.249    90937995.974        1320.971          45.000  
G11  25208305.112   132470541.641       -3331.246          41.000    25208294.860   103223744.008       -2595.550          41.000  
G07  27616442.589   145125381.851       -2150.543          33.000    27616428.876                       -1675.156          32.000  
> 2024 08 28 03 21 53.7060000  0 11                     
G13  21744138.135   114266218.949        -406.451          47.000                                                                  
G24  27262673.457   143266342.954        3599.714          34.000    27262673.225   111636092.000        2804.499          33.000  
G05  22560865.230   118558147.932       -1239.862          46.000    22560849.503    92382905.145        -966.089          46.000  
G30  25741025.406   135270009.157        -986.615          40.000    25741013.648   105405508.974        -769.012          38.000  
G29  23855370.487   125360825.554       -2068.605          44.000    23855356.857    97683956.424       -1611.782          42.000  
G20  23889524.919   125540305.166       -2234.265          43.000                                                                  
G23  26828022.423   140982219.327        2556.374          40.000    26828014.622   109856581.035        1991.980          38.000  
G18  24447078.997   128470272.952        2777.811          45.000    24447065.183   100106828.040        2164.432          45.000  
G15  22207985.269   116703755.742        1695.133          47.000    22207970.116    90937929.925        1320.909          45.000  
G11  25208336.806   132470708.197       -3331.146          41.000    25208326.544   103223873.793       -2595.655          41.000  
G07  27616463.086                       -2149.800          33.000    27616449.346                       -1676.117          32.000  
> 2024 08 28 03 21 53.7560000  0 11                     
G13  21744142.003   114266239.274        -406.543          47.000                                                                  
G24  27262639.186   143266162.957        3599.834          34.000    27262638.964   111635951.730        2805.132          33.000  
G05  22560877.021   118558209.920       -1239.832          46.000    22560861.305    92382953.450        -966.138          46.000  
G30  25741034.815   135270058.498        -986.798          40.000    25741023.036   105405547.422        -769.043          38.000  
G29  23855390.174   125360928.983       -2068.642          44.000    23855376.519    97684037.033       -1612.151          42.000  
G20  23889546.173   125540416.881       -2234.338          43.000                                                                  
G23  26827998.113   140982091.500        2556.467          40.000    26827990.287   109856481.444        1991.764          38.000  
G18  24447052.595   128470134.059        2777.802          45.000    24447038.736   100106719.801        2164.729          45.000  
G15  22207969.158   116703670.983        1695.134          47.000    22207953.970    90937863.877        1320.897          45.000  
G11  25208368.479   132470874.762       -3331.288          41.000    25208358.248   103224003.590       -2595.938          41.000  
G07  27616483.546                       -2150.653          32.000    27616469.773                       -1675.219          32.000  
> 2024 08 28 03 21 53.8060000  0 11                     
G13  21744145.854   114266259.586        -406.347          47.000                                                                  
G24  27262604.919   143265982.949        3599.939          34.000    27262604.700   111635811.435        2805.813          33.000  
G05  22560888.805   118558271.910       -1239.844          46.000    22560873.129    92383001.748        -966.046          46.000  
G30  25741044.200   135270107.824        -986.639          40.000    25741032.417   105405585.846        -768.665          38.000  
G29  23855409.851   125361032.401       -2068.460          44.000    23855396.203    97684117.605       -1611.645          42.000  
G20  23889567.409   125540528.570       -2233.903          43.000                                                                  
G23  26827973.777   140981963.673        2556.498          40.000    26827965.961   109856381.812        1992.464          38.000  
G18  24447026.154   128469995.155        2777.974          45.000    24447012.303   100106611.572        2164.642          45.000  
G15  22207953.032   116703586.219        1695.208          47.000    22207937.851    90937797.825        1320.971          45.000  
G11  25208400.175   132471041.323       -3331.269          41.000    25208389.930   103224133.379       -2595.869          41.000  
G07  27616503.990                       -2149.441          33.000    27616490.209                       -1675.053          32.000  
> 2024 08 28 03 21 53.8560000  0 11                     
G13  21744149.708   114266279.907        -406.443          47.000                                                                  
G24  27262570.664   143265802.956        3599.845          34.000    27262570.441   111635671.167        2805.525          33.000  
G05  22560900.589   118558333.889       -1239.630          46.000    22560884.925    92383050.049        -966.058          46.000  
G30  25741053.581   135270157.154        -986.578          40.000    25741041.799   105405624.284        -768.799          38.000  
G29  23855429.534   125361135.828       -2068.548          44.000    23855415.884    97684198.198       -1611.817          42.000  
G20  23889588.677   125540640.275       -2234.035          43.000                                                                  
G23  26827949.464   140981835.840        2556.666          40.000    26827941.639   109856282.224        1991.940          38.000  
G18  24446999.743   128469856.261        2777.902          45.000    24446985.845   100106503.335        2164.743          45.000  
G15  22207936.886   116703501.452        1695.269          47.000    22207921.716    90937731.779        1320.897          45.000  
G11  25208431.878   132471207.888       -3331.337          41.000    25208421.620   103224263.165       -2595.808          41.000  
G07  27616524.448                       -2149.928          32.000    27616510.635   113085007.485       -1675.050          32.000  
> 2024 08 28 03 21 53.9060000  0 11                     
G13  21744153.579   114266300.238        -406.662          47.000                                                                  
G24  27262536.403   143265622.959        3599.785          34.000    27262536.205   111635530.951        2804.637          33.000  
G05  22560912.396   118558395.880       -1239.813          46.000    22560896.732    92383098.356        -966.180          46.000  
G30  25741062.970   135270206.494        -986.780          40.000    25741051.178   105405662.731        -769.031          38.000  
G29  23855449.230   125361239.265       -2068.753          44.000    23855435.574    97684278.807       -1612.163          42.000  
G20  23889609.929   125540751.994       -2234.386          43.000                                                                  
G23  26827925.148   140981708.028        2556.332          40.000    26827917.322   109856182.629        1991.843          38.000  
G18  24446973.294   128469717.373        2777.731          45.000    24446959.407   100106395.108        2164.536          45.000  
G15  22207920.798   116703416.706        1694.955          47.000    22207905.586    90937665.738        1320.768          45.000  
G11  25208463.573   132471374.446       -3331.232          41.000    25208453.307   103224392.954       -2595.826          41.000  
G07  27616544.926                       -2150.094          32.000    27616531.085   113085091.223       -1674.720          32.000  
> 2024 08 28 03 21 53.9560000  0 11                     
G13  21744157.432   114266320.579        -406.904          47.000                                                                  
G24  27262502.146   143265442.950        3599.998          34.000    27262501.944   111635390.682        2805.131          33.000  
G05  22560924.225   118558457.885       -1240.118          46.000    22560908.539    92383146.664        -966.205          46.000  
G30  25741072.357   135270255.841        -987.012          40.000    25741060.560   105405701.190        -769.232          38.000  
G29  23855468.911   125361342.705       -2068.835          44.000    23855455.243    97684359.407       -1612.128          42.000  
G20  23889631.182   125540863.700       -2234.266          43.000                                                                  
G23  26827900.819   140981580.220        2556.134          40.000    26827892.983   109856083.026        1991.910          38.000  
G18  24446946.883   128469578.486        2777.645          45.000    24446932.968   100106286.890        2164.324          45.000  
G15  22207904.663   116703331.953        1694.944          47.000    22207889.440    90937599.700        1320.670          45.000  
G11  25208495.243   132471541.010       -3331.194          41.000    25208484.980   103224522.738       -2595.765          41.000  
G07  27616565.379                       -2150.531          33.000    27616551.530   113085174.999       -1675.310          32.000  
> 2024 08 28 03 21 54.0060000  0 11                     
G13  21744161.293   114266340.916        -406.873          47.000                                                                  
G24  27262467.885   143265262.948        3600.172          34.000    27262467.676   111635250.428        2805.014          33.000  
G05  22560936.018   118558519.885       -1240.106          46.000    22560920.334    92383194.969        -966.138          46.000  
G30  25741081.748   135270305.186        -986.957          40.000    25741069.933   105405739.627        -768.909          38.000  
G29  23855488.596   125361446.149       -2068.935          44.000    23855474.933    97684440.006       -1612.045          42.000  
G20  23889652.438   125540975.417       -2234.389          43.000                                                                  
G23  26827876.465   140981452.394        2556.358          40.000    26827868.658   109855983.428        1991.899          38.000  
G18  24446920.441   128469439.599        2777.675          45.000    24446906.526   100106178.668        2164.323          45.000  
G15  22207888.511   116703247.207        1694.846          47.000    22207873.315    90937533.662        1320.677          45.000  
G11  25208526.950   132471707.572       -3331.182          41.000    25208516.683   103224652.538       -2595.950          41.000  
G07  27616585.834                       -2150.479          33.000    27616571.967   113085258.786       -1675.776          32.000  
> 2024 08 28 03 21 54.0560000  0 11                     
G13  21744165.150   114266361.246        -406.689          47.000                                                                  
G24  27262433.653   143265082.953        3600.152          34.000    27262433.419   111635110.152        2805.299          33.000  
G05  22560947.812   118558581.867       -1239.752          46.000    22560932.126    92383243.276        -966.113          46.000  
G30  25741091.150   135270354.533        -987.000          40.000    25741079.311   105405778.065        -768.720          38.000  
G29  23855508.249   125361549.584       -2068.821          44.000    23855494.623    97684520.601       -1611.942          42.000  
G20  23889673.708   125541087.138       -2234.418          43.000                                                                  
G23  26827852.144   140981324.584        2556.188          40.000    26827844.349   109855883.805        1992.373          38.000  
G18  24446894.014   128469300.704        2777.821          45.000    24446880.086   100106070.439        2164.503          45.000  
G15  22207872.376   116703162.457        1694.902          47.000    22207857.207    90937467.628        1320.616          45.000  
G11  25208558.648   132471874.151       -3331.484          41.000    25208548.385   103224782.330       -2595.887          41.000  
G07  27616606.286                       -2149.595          33.000    27616592.454   113085342.548       -1675.492          32.000  
> 2024 08 28 03 21 54.1060000  0 11                     
G13  21744169.018   114266381.571        -406.546          47.000                                                                  
G24  27262399.384   143264902.947        3600.178          34.000    27262399.160   111634969.894        2805.169          33.000  
G05  22560959.622   118558643.862       -1239.844          46.000    22560943.934    92383291.584        -966.174          46.000  
G30  25741100.539   135270403.878        -986.975          40.000    25741088.698   105405816.526        -769.165          38.000  
G29  23855527.920   125361653.022       -2068.775          44.000    23855514.307    97684601.204       -1612.029          42.000  
G20  23889694.956   125541198.854       -2234.387          43.000                                                                  
G23  26827827.804   140981196.740        2556.660          40.000    26827820.045   109855784.229        1991.765          38.000  
G18  24446867.598   128469161.818        2777.736          45.000    24446853.647   100105962.214        2164.489          45.000  
G15  22207856.248   116703077.707        1694.927          47.000    22207841.091    90937401.584        1320.814          45.000  
G11  25208590.330   132472040.721       -3331.459          41.000    25208580.094   103224912.127       -2595.998          41.000  
G07  27616626.735                       -2149.897          33.000    27616612.894   113085426.326       -1675.585          32.000  
> 2024 08 28 03 21 54.1560000  0 11                     
G13  21744172.903   114266401.912        -406.801          47.000                                                                  
G24  27262365.129   143264722.950        3599.947          34.000    27262364.887   111634829.643        2804.984          33.000  
G05  22560971.424   118558705.861       -1239.978          46.000    22560955.727    92383339.894        -966.254          46.000  
G30  25741109.914   135270453.221        -986.951          40.000    25741098.111   105405854.995        -769.489          38.000  
G29  23855547.604   125361756.463       -2068.842          44.000    23855533.971    97684681.815       -1612.235          42.000  
G20  23889716.205   125541310.549       -2234.033          43.000                                                                  
G23  26827803.487   140981068.927        2556.411          40.000    26827795.732   109855684.629        1991.918          38.000  
G18  24446841.189   128469022.928        2777.770          45.000    24446827.235   100105853.988        2164.494          45.000  
G15  22207840.113   116702992.957        1694.958          47.000    22207824.958    90937335.548        1320.764          45.000  
G11  25208622.025   132472207.291       -3331.502          41.000    25208611.786   103225041.911       -2595.788          41.000  
G07  27616647.193                       -2150.377          33.000    27616633.350   113085510.107       -1675.613          32.000  
> 2024 08 28 03 21 54.2060000  0 11                     
G13  21744176.773   114266422.255        -406.936          47.000                                                                  
G24  27262330.868   143264542.979        3599.473          34.000    27262330.630   111634689.368        2805.308          33.000  
G05  22560983.209   118558767.853       -1239.868          46.000    22560967.524    92383388.203        -966.217          46.000  
G30  25741119.304   135270502.560        -986.829          40.000    25741107.471   105405893.437        -769.092          38.000  
G29  23855567.308   125361859.904       -2068.881          44.000    23855553.663    97684762.408       -1612.024          42.000  
G20  23889737.452   125541422.265       -2234.200          43.000                                                                  
G23  26827779.179   140980941.114        2556.318          40.000    26827771.433   109855585.025        1992.059          38.000  
G18  24446814.786   128468884.041        2777.725          45.000    24446800.815   100105745.765        2164.462          45.000  
G15  22207823.975   116702908.218        1694.761          47.000    22207808.823    90937269.511        1320.721          45.000  
G11  25208653.721   132472373.856       -3331.447          41.000    25208643.505   103225171.705       -2595.844          41.000  
G07  27616667.623                       -2150.360          33.000    27616653.830   113085593.882       -1675.796          32.000  
> 2024 08 28 03 21 54.2560000  0 11                     
G13  21744180.647   114266442.593        -406.896          47.000                                                                  
G24  27262296.602   143264362.948        3600.368          34.000    27262296.373   111634549.109        2805.202          33.000  
G05  22560994.992   118558829.845       -1239.868          46.000    22560979.320    92383436.507        -966.125          46.000  
G30  25741128.689   135270551.909        -987.012          40.000    25741116.855   105405931.880        -768.982          38.000  
G29  23855586.997   125361963.343       -2068.846          44.000    23855573.342    97684843.022       -1612.265          42.000  
G20  23889758.717   125541533.989       -2234.472          43.000                                                                  
G23  26827754.845   140980813.287        2556.391          40.000    26827747.102   109855485.423        1991.992          38.000  
G18  24446788.361   128468745.148        2777.774          45.000    24446774.384   100105637.541        2164.398          45.000  
G15  22207807.839   116702823.469        1694.878          47.000    22207792.704    90937203.486        1320.480          45.000  
G11  25208685.436   132472540.420       -3331.423          41.000    25208675.195   103225301.506       -2596.048          41.000  
G07  27616688.055                       -2149.542          33.000    27616674.268   113085677.638       -1675.402          32.000  
> 2024 08 28 03 21 54.3060000  0 11                     
G13  21744184.498   114266462.940        -407.014          47.000                                                                  
G24  27262262.335   143264182.969        3599.779          34.000    27262262.121   111634408.876        2804.610          33.000  
G05  22561006.805   118558891.856       -1240.186          46.000    22560991.110    92383484.826        -966.345          46.000  
G30  25741138.079   135270601.262        -987.128          40.000    25741126.250   105405970.354        -769.519          38.000  
G29  23855606.677   125362066.791       -2069.023          44.000    23855593.019    97684923.624       -1612.163          42.000  
G20  23889779.976   125541645.714       -2234.581          43.000                                                                  
G23  26827730.517   140980685.478        2556.174          40.000    26827722.792   109855385.830        1991.866          38.000  
G18  24446761.939   128468606.273        2777.496          45.000    24446747.974   100105529.322        2164.343          45.000  
G15  22207791.723   116702738.728        1694.798          47.000    22207776.577    90937137.446        1320.679          45.000  
G11  25208717.141   132472707.006       -3331.736          41.000    25208706.911   103225431.307       -2596.109          41.000  
G07  27616708.461                       -2150.090          33.000    27616694.713   113085761.407       -1675.514          32.000  
> 2024 08 28 03 21 54.3560000  0 11                     
G13  21744188.367   114266483.296        -407.161          47.000                                                                  
G24  27262228.073   143264002.992        3599.497          34.000    27262227.863   111634268.615        2804.958          33.000  
G05  22561018.615   118558953.862       -1240.216          46.000    22561002.920    92383533.138        -966.339          46.000  
G30  25741147.468   135270650.629        -987.341          40.000    25741135.645   105406008.817        -769.470          38.000  
G29  23855626.342   125362170.252       -2069.234          44.000    23855612.710    97685004.245       -1612.415          42.000  
G20  23889801.217   125541757.435       -2234.564          43.000                                                                  
G23  26827706.198   140980557.661        2556.210          40.000    26827698.485   109855286.247        1991.677          38.000  
G18  24446735.521   128468467.390        2777.545          45.000    24446721.535   100105421.104        2164.320          45.000  
G15  22207775.615   116702654.002        1694.509          47.000    22207760.434    90937071.413        1320.666          45.000  
G11  25208748.815   132472873.576       -3331.537          41.000    25208738.577   103225561.108       -2596.089          41.000  
G07  27616728.935                       -2150.929          33.000    27616715.168   113085845.176       -1675.286          32.000  
> 2024 08 28 03 21 54.4060000  0 11                     
G13  21744192.247   114266503.656        -407.259          47.000                                                                  
G24  27262193.822   143263822.979        3600.036          34.000    27262193.604   111634128.349        2805.240          33.000  
G05  22561030.404   118559015.865       -1240.161          46.000    22561014.680    92383581.456        -966.388          46.000  
G30  25741156.857   135270699.992        -987.354          40.000    25741145.039   105406047.269        -769.183          38.000  
G29  23855646.025   125362273.707       -2069.253          44.000    23855632.404    97685084.869       -1612.590          42.000  
G20  23889822.481   125541869.159       -2234.568          43.000                                                                  
G23  26827681.875   140980429.859        2556.033          40.000    26827674.187   109855186.650        1991.819          38.000  
G18  24446709.093   128468328.517        2777.408          45.000    24446695.125   100105312.886        2164.289          45.000  
G15  22207759.468   116702569.271        1694.511          47.000    22207744.305    90937005.394        1320.407          45.000  
G11  25208780.511   132473040.164       -3331.784          41.000    25208770.287   103225690.904       -2595.984          41.000  
G07  27616749.439                       -2151.220          33.000    27616735.594                       -1675.481          32.000  
> 2024 08 28 03 21 54.4560000  0 11                     
G13  21744196.136   114266523.998        -406.935          47.000                                                                  
G24  27262159.564   143263642.962        3600.294          34.000    27262159.338   111633988.097        2805.047          33.000  
G05  22561042.203   118559077.870       -1240.125          46.000    22561026.470    92383629.771        -966.376          46.000  
G30  25741166.229   135270749.344        -987.219          40.000    25741154.421   105406085.737        -769.360          38.000  
G29  23855665.701   125362377.157       -2069.114          44.000    23855652.103    97685165.474       -1612.264          42.000  
G20  23889843.734   125541980.876       -2234.390          43.000                                                                  
G23  26827657.555   140980302.027        2556.428          40.000    26827649.882   109855087.038        1992.193          38.000  
G18  24446682.645   128468189.632        2777.634          45.000    24446668.699   100105204.667        2164.355          45.000  
G15  22207743.351   116702484.523        1694.825          47.000    22207728.179    90936939.372        1320.359          45.000  
G11  25208812.222   132473206.728       -3331.469          41.000    25208802.005   103225820.701       -2595.910          41.000  
G07  27616769.910                       -2149.187          33.000    27616756.064   113086012.754       -1675.782          32.000  
> 2024 08 28 03 21 54.5060000  0 11                     
G13  21744200.015   114266544.345        -406.926          47.000                                                                  
G24  27262125.303   143263462.961        3600.059          34.000    27262125.098   111633847.822        2805.399          33.000  
G05  22561053.993   118559139.868       -1239.990          46.000    22561038.254    92383678.085        -966.327          46.000  
G30  25741175.620   135270798.703        -987.213          40.000    25741163.798   105406124.185        -769.098          38.000  
G29  23855685.374   125362480.611       -2069.141          44.000    23855671.789    97685246.084       -1612.212          42.000  
G20  23889864.984   125542092.580       -2234.164          43.000                                                                  
G23  26827633.239   140980174.219        2556.258          40.000    26827625.565   109854987.433        1992.183          38.000  
G18  24446656.208   128468050.750        2777.676          45.000    24446642.297   100105096.453        2164.298          45.000  
G15  22207727.235   116702399.790        1694.720          47.000    22207712.043    90936873.342        1320.495          45.000  
G11  25208843.922   132473373.322       -3331.814          41.000    25208833.718   103225950.499       -2595.954          41.000  
G07  27616790.361                       -2150.295          33.000    27616776.520                       -1675.740          32.000  
> 2024 08 28 03 21 54.5560000  0 11                     
G13  21744203.864   114266564.704        -407.128          47.000                                                                  
G24  27262091.061   143263282.981        3599.723          34.000    27262090.839   111633707.556        2805.354          33.000  
G05  22561065.780   118559201.876       -1240.131          46.000    22561050.054    92383726.405        -966.406          46.000  
G30  25741185.012   135270848.064        -987.262          40.000    25741173.187   105406162.644        -769.092          38.000  
G29  23855705.087   125362584.073       -2069.261          44.000    23855691.495    97685326.698       -1612.299          42.000  
G20  23889886.256   125542204.314       -2234.528          43.000                                                                  
G23  26827608.901   140980046.400        2556.295          40.000    26827601.255   109854887.856        1991.644          38.000  
G18  24446629.771   128467911.872        2777.566          45.000    24446615.847   100104988.236        2164.297          45.000  
G15  22207711.120   116702315.067        1694.461          47.000    22207695.917    90936807.315        1320.482          45.000  
G11  25208875.598   132473539.897       -3331.597          41.000    25208865.421   103226080.310       -2596.219          41.000  
G07  27616810.841                       -2151.273          33.000    27616796.981                       -1675.373          32.000  
> 2024 08 28 03 21 54.6060000  0 11                     
G13  21744207.717   114266585.064        -407.246          47.000                                                                  
G24  27262056.851   143263102.977        3600.169          34.000    27262056.592   111633567.305        2805.012          33.000  
G05  22561077.593   118559263.888       -1240.277          46.000    22561061.858    92383774.717        -966.272          46.000  
G30  25741194.392   135270897.423        -987.256          40.000    25741182.583   105406201.126        -769.550          38.000  
G29  23855724.780   125362687.532       -2069.246          44.000    23855711.180    97685407.324       -1612.523          42.000  
G20  23889907.511   125542316.049       -2234.722          43.000                                                                  
G23  26827584.594   140979918.586        2556.319          40.000    26827576.912   109854788.255        1991.907          38.000  
G18  24446603.344   128467772.997        2777.477          45.000    24446589.417   100104880.014        2164.386          45.000  
G15  22207695.009   116702230.341        1694.407          47.000    22207679.806    90936741.293        1320.415          45.000  
G11  25208907.293   132473706.461       -3331.283          41.000    25208897.139   103226210.110       -2596.119          41.000  
G07  27616831.346                       -2151.261          33.000    27616817.433                       -1675.203          32.000  
> 2024 08 28 03 21 54.6560000  0 11                     
G13  21744211.610   114266605.427        -407.325          47.000                                                                  
G24  27262022.572   143262922.974        3600.269          35.000    27262022.347   111633427.051        2805.014          33.000  
G05  22561089.379   118559325.894       -1240.167          46.000    22561073.632    92383823.036        -966.394          46.000  
G30  25741203.780   135270946.788        -987.360          40.000    25741191.983   105406239.585        -769.287          38.000  
G29  23855744.467   125362790.987       -2069.186          44.000    23855730.872    97685487.940       -1612.454          42.000  
G20  23889928.766   125542427.760       -2234.341          43.000                                                                  
G23  26827560.262   140979790.767        2556.361          40.000    26827552.578   109854688.658        1991.890          38.000  
G18  24446576.926   128467634.122        2777.435          45.000    24446562.986   100104771.796        2164.380          45.000  
G15  22207678.897   116702145.608        1694.555          47.000    22207663.683    90936675.277        1320.323          45.000  
G11  25208938.995   132473873.035       -3331.396          41.000    25208928.836   103226339.914       -2596.107          41.000  
G07  27616851.782                       -2149.651          33.000    27616837.877                       -1675.160          32.000  
