     3.03           OBSERVATION DATA    M: Mixed            RINEX VERSION / TYPE
RTKCONV 2.4.3 b34                       20240116 091110 UTC PGM / RUN BY / DATE 
format: u-blox UBX                                          COMMENT             
log: C:\Users\NavLab\Desktop\RTKLIB_bin-rtklib_2.4.3\COM5___COMMENT             
                                                            MARKER NAME         
                                                            MARKER NUMBER       
                                                            MARKER TYPE         
                                                            OBSERVER / AGENCY   
                                                            REC # / TYPE / VERS 
                                                            ANT # / TYPE        
        0.0000        0.0000        0.0000                  APPROX POSITION XYZ 
        0.0000        0.0000        0.0000                  ANTENNA: DELTA H/E/N
G    4 C1C L1C D1C S1C                                      SYS / # / OBS TYPES 
E    4 C1C L1C D1C S1C                                      SYS / # / OBS TYPES 
J    4 C1C L1C D1C S1C                                      SYS / # / OBS TYPES 
S    4 C1C L1C D1C S1C                                      SYS / # / OBS TYPES 
  2023    12    06    08    58   56.6270000     GPS         TIME OF FIRST OBS   
  2023    12    06    09    04   28.0020000     GPS         TIME OF LAST OBS    
G L1C                                                       SYS / PHASE SHIFT   
E L1C  0.00000                                              SYS / PHASE SHIFT   
J L1C                                                       SYS / PHASE SHIFT   
S L1C                                                       SYS / PHASE SHIFT   
  0                                                         GLONASS SLOT / FRQ #
 C1C    0.000 C1P    0.000 C2C    0.000 C2P    0.000        GLONASS COD/PHS/BIS 
                                                            END OF HEADER       
> 2023 12 06 08 58 56.6270000  0 14                     
S28  38986757.844                2         -8.295          40.000  
G16  21607374.414   113547517.2451      -1872.914          48.000  
G27  20615584.460   108335622.2901        122.769          50.000  
G26  23080853.425                3      -2565.875          38.000  
G09  22491156.550   118191820.9371       -199.885          45.000  
E04  25614062.668   134602784.5031      -2110.652          44.000  
E31  25265064.665   132768804.2831       1280.518          48.000  
G08  22045792.422                3       2761.110          42.000  
E09  26013616.957   136702466.1361        418.276          46.000  
G04  22233756.838   116839169.2311      -2223.565          46.000  
E26  26558303.223                1       1832.620          37.000  
E21  27639743.090                1      -2102.094          30.000  
G07  24769342.090                3       3124.143          33.000  
J02  39977932.830   210085449.2391        -53.345          47.000  
> 2023 12 06 08 58 56.7520000  0 14                     
S28  38986757.978                2         -4.740          36.000  
G16  21607418.967   113547751.332       -1872.848          48.000  
G27  20615581.594   108335607.003         122.000          50.000  
G26  23080914.414                2      -2564.977          38.000  
G09  22491161.270   118191845.833        -199.288          44.000  
E04  25614112.797   134603048.323       -2110.362          44.000  
E31  25265034.109   132768644.094        1281.493          47.000  
G08  22045726.661                2       2762.938          45.000  
E09  26013607.105   136702413.899         418.040          46.000  
G04  22233809.761   116839447.253       -2223.724          46.000  
E26  26558259.684                        1830.485          35.000  
E21  27639791.650                       -2099.942          30.000  
G07  24769268.239                2       3120.847          39.000  
J02  39977934.102   210085455.901         -53.640          47.000  
> 2023 12 06 08 58 56.8770000  0 14                     
S28  38986758.136                2         -6.113          38.000  
G16  21607463.518   113547985.427       -1872.694          48.000  
G27  20615578.687   108335591.657         122.832          51.000  
G26  23080975.314   121291350.4713      -2565.356          38.000  
G09  22491166.004   118191870.720        -198.978          44.000  
E04  25614163.016   134603312.169       -2110.925          44.000  
E31  25265003.629   132768483.936        1281.332          47.000  
G08  22045660.979                3       2761.621          42.000  
E09  26013597.248   136702361.530         419.098          46.000  
G04  22233862.655   116839725.207       -2223.633          46.000  
E26  26558216.100                        1832.462          38.000  
E21  27639840.867                       -2101.844          31.000  
G07  24769194.608                3       3123.828          34.000  
J02  39977935.379   210085462.529         -52.946          47.000  
> 2023 12 06 08 58 57.0020000  0 14                     
S28  38986758.285                2         -5.285          38.000  
G16  21607508.062   113548219.519       -1872.642          47.000  
G27  20615575.775   108335576.349         122.165          50.000  
G26  23081037.307   121291671.0952      -2564.557          38.000  
G09  22491170.737   118191895.564        -199.014          44.000  
E04  25614213.224   134603575.951       -2109.083          45.000  
E31  25264973.137   132768323.718        1281.845          47.000  
G08  22045595.276                3       2764.111          47.000  
E09  26013587.298   136702309.222         418.446          46.000  
G04  22233915.544   116840003.252       -2224.394          46.000  
E26  26558172.512                        1832.322          39.000  
E21  27639892.295                       -2100.465          31.000  
G07  24769120.542                3       3128.607          39.000  
J02  39977936.637   210085469.151         -53.092          47.000  
> 2023 12 06 08 58 57.1270000  0 14                     
S28  38986758.496                2         -6.469          38.000  
G16  21607552.588   113548453.587       -1872.420          48.000  
G27  20615572.860   108335561.027         122.520          49.000  
G26  23081097.431   121291991.7522      -2565.283          38.000  
G09  22491175.501   118191920.419        -199.088          45.000  
E04  25614263.414                       -2110.783          44.000  
E31  25264942.720   132768163.531        1281.405          47.000  
G08  22045529.530                2       2762.703          47.000  
E09  26013577.299   136702256.916         418.600          46.000  
G04  22233968.454   116840281.201       -2224.301          47.000  
E26  26558128.867                        1831.818          39.000  
E21  27639940.678                       -2101.532          31.000  
G07  24769045.455                3       3132.910          40.000  
J02  39977937.908   210085475.761         -52.841          47.000  
> 2023 12 06 08 58 57.2520000  0 14                     
S28  38986758.666                2         -6.180          38.000  
G16  21607597.120   113548687.659       -1872.570          48.000  
G27  20615569.946   108335545.715         122.426          50.000  
G26  23081158.086   121292312.4352      -2565.850          38.000  
G09  22491180.273   118191945.390        -200.093          45.000  
E04  25614313.645                       -2111.102          44.000  
E31  25264912.180   132768003.362        1281.339          47.000  
G08  22045463.804                2       2763.961          45.000  
E09  26013567.472   136702204.614         418.341          46.000  
G04  22234021.355   116840559.221       -2224.750          46.000  
E26  26558085.287                        1831.862          38.000  
E21  27639990.905                       -2100.803          35.000  
G07  24768971.844                2       3131.503          30.000  
J02  39977939.169   210085482.394         -53.003          47.000  
> 2023 12 06 08 58 57.3770000  0 14                     
S28  38986758.825                2         -6.888          38.000  
G16  21607641.674   113548921.785       -1873.051          47.000  
G27  20615567.049   108335530.449         122.247          50.000  
G26  23081219.128   121292633.1062      -2565.527          40.000  
G09  22491185.005   118191970.215        -198.364          44.000  
E04  25614363.773   134604367.533       -2110.340          44.000  
E31  25264881.611   132767843.145        1281.846          47.000  
G08  22045398.076                2       2763.131          46.000  
E09  26013557.461   136702152.331         418.412          45.000  
G04  22234074.235   116840837.175       -2223.144          46.000  
E26  26558041.711                        1831.545          35.000  
E21  27640041.429                       -2100.389          35.000  
G07  24768895.597                3       3134.668          34.000  
J02  39977940.440   210085489.050         -53.384          47.000  
> 2023 12 06 08 58 57.5020000  0 14                     
S28  38986758.996                2         -6.553          38.000  
G16  21607686.193   113549155.881       -1872.962          47.000  
G27  20615564.123   108335515.208         121.849          50.000  
G26  23081279.422   121292953.8162      -2566.095          40.000  
G09  22491189.786   118191995.144        -199.611          45.000  
E04  25614413.966   134604631.370       -2110.672          45.000  
E31  25264851.157   132767682.943        1281.528          47.000  
G08  22045332.335                2       2763.171          46.000  
E09  26013547.392   136702100.006         418.339          44.000  
G04  22234127.136   116841115.252       -2225.156          46.000  
E26  26557998.165                        1830.831          38.000  
E21  27640090.688                       -2101.435          35.000  
G07  24768821.025                2       3135.732          37.000  
J02  39977941.699   210085495.695         -53.260          47.000  
> 2023 12 06 08 58 57.6270000  0 14                     
S28  38986759.155                2         -6.648          38.000  
G16  21607730.760   113549390.011       -1872.906          47.000  
G27  20615561.214   108335499.942         122.004          49.000  
G26  23081340.580   121293274.5012      -2566.064          40.000  
G09  22491194.504   118192020.009        -199.172          45.000  
E04  25614464.146   134604895.261       -2111.514          45.000  
E31  25264820.636   132767522.740        1281.619          47.000  
G08  22045266.617                2       2763.163          46.000  
E09  26013537.451   136702047.693         418.353          44.000  
G04  22234180.039   116841393.251       -2224.027          46.000  
E26  26557954.647                        1832.049          40.000  
E21  27640140.107                       -2101.177          35.000  
G07  24768748.816                2       3133.374          36.000  
J02  39977942.968   210085502.371         -53.744          47.000  
> 2023 12 06 08 58 57.7520000  0 14                     
S28  38986759.301                2         -7.885          38.000  
G16  21607775.313   113549624.145       -1872.911          48.000  
G27  20615558.313   108335484.761         121.673          50.000  
G26  23081402.231   121293595.1892      -2565.282          41.000  
G09  22491199.246   118192044.920        -199.114          45.000  
E04  25614514.253   134605159.148       -2111.250          45.000  
E31  25264790.254   132767362.512        1281.829          48.000  
G08  22045200.879   115848311.8323       2763.263          47.000  
E09  26013527.456   136701995.385         418.810          43.000  
G04  22234232.965   116841671.310       -2224.680          45.000  
E26  26557911.071                        1830.414          40.000  
E21  27640192.694                       -2101.855          35.000  
G07  24768675.155                2       3135.658          39.000  
J02  39977944.233   210085509.011         -53.253          47.000  
> 2023 12 06 08 58 57.8770000  0 14                     
S28  38986759.470                2         -6.928          38.000  
G16  21607819.885   113549858.273       -1872.916          48.000  
G27  20615555.412   108335469.547         121.680          49.000  
G26  23081464.090   121293915.9332      -2565.833          41.000  
G09  22491204.011   118192069.882        -200.216          45.000  
E04  25614564.393   134605423.010       -2111.067          44.000  
E31  25264759.802   132767202.309        1281.593          47.000  
G08  22045135.165   115847966.4572       2763.024          47.000  
E09  26013517.384   136701943.118         417.611          44.000  
G04  22234285.881   116841949.375       -2224.926          46.000  
E26  26557867.505                        1830.136          39.000  
E21  27640243.589                       -2101.394          35.000  
G07  24768599.796                2       3133.341          39.000  
J02  39977945.507   210085515.696         -53.589          47.000  
> 2023 12 06 08 58 58.0020000  0 14                     
S28  38986759.628                2         -6.633          38.000  
G16  21607864.451   113550092.448       -1873.686          46.000  
G27  20615552.516   108335454.378         121.033          49.000  
G26  23081525.600   121294236.6562      -2565.798          41.000  
G09  22491208.748   118192094.787        -199.290          45.000  
E04  25614614.570   134605686.903       -2111.174          45.000  
E31  25264729.311   132767042.108        1281.675          47.000  
G08  22045069.450   115847621.0862       2762.534          46.000  
E09  26013507.420   136701890.745         419.589          43.000  
G04  22234338.795   116842227.414       -2224.266          45.000  
E26  26557823.913                        1830.581          39.000  
E21  27640291.399   145250690.7001      -2101.505          35.000  
G07  24768524.787                2       3127.853          36.000  
J02  39977946.789   210085522.359         -53.318          47.000  
> 2023 12 06 08 58 58.1270000  0 14                     
S28  38986759.813   204876804.8622         -7.026          38.000  
G16  21607909.016   113550326.538       -1872.723          46.000  
G27  20615549.610   108335439.178         121.501          50.000  
G26  23081586.557   121294557.3612      -2565.405          41.000  
G09  22491213.481   118192119.681        -199.511          45.000  
E04  25614664.704   134605950.791       -2111.321          44.000  
E31  25264698.832   132766881.870        1281.706          47.000  
G08  22045003.729   115847275.7412       2762.452          47.000  
E09  26013497.479   136701838.485         417.693          44.000  
G04  22234391.715   116842505.507       -2225.019          45.000  
E26  26557780.372                        1831.013          39.000  
E21  27640338.616   145250953.321       -2100.526          35.000  
G07  24768450.770                2       3136.129          37.000  
J02  39977948.073   210085529.030         -53.713          48.000  
> 2023 12 06 08 58 58.2520000  0 14                     
S28  38986759.988   204876805.6982         -7.062          38.000  
G16  21607953.604   113550560.755       -1873.513          47.000  
G27  20615546.723   108335424.024         121.226          49.000  
G26  23081647.840   121294878.1452      -2566.612          41.000  
G09  22491218.218   118192144.636        -199.768          45.000  
E04  25614714.882   134606214.726       -2111.559          44.000  
E31  25264668.336   132766721.749        1281.017          47.000  
G08  22044938.023   115846930.4092       2762.662          47.000  
E09  26013487.488   136701786.207         418.869          43.000  
G04  22234444.617   116842783.577       -2224.521          45.000  
E26  26557736.813                        1830.077          39.000  
E21  27640390.503                       -2101.332          35.000  
G07  24768375.784                2       3135.183          37.000  
J02  39977949.340   210085535.693         -53.094          47.000  
> 2023 12 06 08 58 58.3770000  0 14                     
S28  38986760.181                2         -6.756          36.000  
G16  21607998.160   113550794.869       -1873.238          47.000  
G27  20615543.877   108335408.877         120.886          49.000  
G26  23081707.775   121295198.8392      -2565.564          41.000  
G09  22491223.020   118192169.650        -200.283          45.000  
E04  25614764.965   134606478.637       -2111.334          44.000  
E31  25264637.951   132766561.486        1281.850          48.000  
G08  22044872.297   115846585.0792       2762.711          47.000  
E09  26013477.444   136701733.913         417.824          45.000  
G04  22234497.541   116843061.680       -2224.594          46.000  
E26  26557693.251                        1830.593          39.000  
E21  27640441.555   145251478.689       -2101.015          35.000  
G07  24768301.663                2       3136.020          34.000  
J02  39977950.661   210085542.361         -53.685          48.000  
> 2023 12 06 08 58 58.5020000  0 14                     
S28  38986760.340                2         -8.718          36.000  
G16  21608042.739   113551029.062       -1873.853          46.000  
G27  20615540.993   108335393.756         120.686          49.000  
G26  23081769.280   121295519.6322      -2566.853          41.000  
G09  22491227.794   118192194.607        -199.513          45.000  
E04  25614815.180   134606742.585       -2111.763          44.000  
E31  25264607.528   132766401.292        1281.574          48.000  
G08  22044806.592   115846239.8102       2761.788          46.000  
E09  26013467.738   136701681.681         417.852          45.000  
G04  22234550.500   116843339.838       -2225.574          46.000  
E26  26557649.720                        1828.873          36.000  
E21  27640491.368                       -2101.798          35.000  
G07  24768224.468                2       3135.954          37.000  
J02  39977951.934   210085549.043         -53.712          47.000  
> 2023 12 06 08 58 58.6270000  0 14                     
S28  38986760.510                2         -6.657          36.000  
G16  21608087.287   113551263.224       -1873.091          47.000  
G27  20615538.137   108335378.694         120.403          50.000  
G26  23081830.957   121295840.3272      -2565.442          41.000  
G09  22491232.552   118192219.559        -199.857          45.000  
E04  25614865.365   134607006.572       -2111.924          44.000  
E31  25264576.971   132766241.127        1281.323          48.000  
G08  22044740.902   115845894.5182       2762.179          46.000  
E09  26013457.828   136701629.317         419.106          42.000  
G04  22234603.460   116843618.024       -2225.645          45.000  
E26  26557606.232                        1829.067          36.000  
E21  27640541.752                       -2101.848          36.000  
G07  24768150.038                2       3130.244          34.000  
J02  39977953.211   210085555.752         -53.528          47.000  
> 2023 12 06 08 58 58.7520000  0 13                     
S28  38986760.720                2         -8.462          36.000  
G16  21608131.855   113551497.417       -1873.987          47.000  
G27  20615535.253   108335363.593         120.561          50.000  
G26  23081891.434   121296161.1232      -2566.910          42.000  
G09  22491237.301   118192244.612        -200.241          45.000  
E04  25614915.593   134607270.553       -2111.810          44.000  
E31  25264546.427   132766080.963        1281.226          47.000  
G08  22044675.209   115845549.3162       2761.595          46.000  
E09  26013447.917   136701577.123         416.935          42.000  
G04  22234656.389   116843896.192       -2225.446          44.000  
E26  26557562.735                        1830.388          38.000  
E21  27640590.001   145252266.754       -2101.339          36.000  
J02  39977954.461   210085562.440         -53.569          47.000  
> 2023 12 06 08 58 58.8770000  0 13                     
S28  38986760.894   204876810.1442         -6.161          36.000  
G16  21608176.418   113551731.582       -1873.434          47.000  
G27  20615532.384   108335348.525         120.614          49.000  
G26  23081951.883   121296481.8702      -2566.211          41.000  
G09  22491242.055   118192269.563        -200.017          44.000  
E04  25614965.805   134607534.531       -2111.960          44.000  
E31  25264515.780   132765920.726        1282.063          47.000  
G08  22044609.495   115845203.9932       2762.672          46.000  
E09  26013438.001   136701524.933         417.918          42.000  
G04  22234709.301   116844174.343       -2225.271          45.000  
E26  26557519.158                        1830.519          41.000  
E21  27640640.800   145252529.480       -2101.500          36.000  
J02  39977955.739   210085569.111         -53.490          47.000  
> 2023 12 06 08 58 59.0020000  0 13                     
S28  38986761.051   204876811.0362         -7.396          38.000  
G16  21608220.997   113551965.773       -1873.846          47.000  
G27  20615529.518   108335333.439         120.613          49.000  
G26  23082012.909   121296802.6342      -2566.519          42.000  
G09  22491246.872   118192294.605        -199.852          45.000  
E04  25615015.967   134607798.491       -2111.903          44.000  
E31  25264485.382   132765760.517        1281.489          47.000  
G08  22044543.800   115844858.7432       2761.910          46.000  
E09  26013427.965   136701472.586         418.579          42.000  
G04  22234762.224   116844452.510       -2225.079          45.000  
E26  26557475.631                        1829.227          38.000  
E21  27640691.446   145252792.159       -2101.653          36.000  
J02  39977956.989   210085575.799         -53.418          47.000  
> 2023 12 06 08 58 59.1270000  0 13                     
S28  38986761.207   204876811.9322         -7.572          36.000  
G16  21608265.549   113552199.921       -1873.406          47.000  
G27  20615526.687   108335318.381         120.143          50.000  
G26  23082073.089   121297123.3312      -2565.607          42.000  
G09  22491251.629   118192319.585        -200.522          45.000  
E04  25615066.069   134608062.452       -2111.645          44.000  
E31  25264454.881   132765600.316        1281.506          47.000  
G08  22044478.085   115844513.4652       2762.097          46.000  
E09  26013417.976   136701420.417         417.252          43.000  
G04  22234815.152   116844730.679       -2225.067          44.000  
E26  26557432.096                        1831.340          39.000  
E21  27640741.987   145253054.820       -2101.178          36.000  
J02  39977958.221   210085582.467         -53.402          47.000  
> 2023 12 06 08 58 59.2520000  0 13                     
S28  38986761.366   204876812.8182         -7.031          36.000  
G16  21608310.110   113552434.088       -1873.489          47.000  
G27  20615523.813   108335303.313         120.642          49.000  
G26  23082134.242   121297444.0992      -2565.752          42.000  
G09  22491256.364   118192344.552        -199.536          44.000  
E04  25615116.312   134608326.417       -2111.587          45.000  
E31  25264424.379   132765440.133        1281.383          47.000  
G08  22044412.382   115844168.2302       2761.871          46.000  
E09  26013407.917                         417.860          39.000  
G04  22234868.093   116845008.835       -2225.556          44.000  
E26  26557388.519                        1828.997          35.000  
E21  27640791.224   145253317.530       -2101.609          36.000  
J02  39977959.491   210085589.129         -53.385          47.000  
> 2023 12 06 08 58 59.3770000  0 13                     
S28  38986761.527   204876813.6662         -6.405          36.000  
G16  21608354.650   113552668.261       -1873.223          46.000  
G27  20615520.947   108335288.266         120.193          49.000  
G26  23082194.770   121297764.8612      -2565.771          42.000  
G09  22491261.103   118192369.602        -201.055          45.000  
E04  25615166.628   134608590.424       -2112.278          45.000  
E31  25264393.899   132765279.903        1281.806          48.000  
G08  22044346.687   115843822.9922       2761.940          46.000  
E09  26013397.868                         418.714          39.000  
G04  22234921.053   116845287.072       -2225.961          45.000  
E26  26557344.995                        1830.440          39.000  
E21  27640841.655   145253580.208       -2101.522          36.000  
J02  39977960.773   210085595.823         -53.599          47.000  
> 2023 12 06 08 58 59.5020000  0 13                     
S28  38986761.684   204876814.5052         -6.845          36.000  
G16  21608399.204   113552902.446       -1873.172          46.000  
G27  20615518.061   108335273.223         120.330          49.000  
G26  23082256.716   121298085.6032      -2565.970          42.000  
G09  22491265.820   118192394.552        -199.059          45.000  
E04  25615216.899   134608854.403       -2111.825          44.000  
E31  25264363.594   132765119.677        1281.771          48.000  
G08  22044280.978   115843477.7712       2761.880          46.000  
E09  26013387.757                         417.871          41.000  
G04  22234973.964   116845565.233       -2225.405          44.000  
E26  26557301.448                        1831.407          37.000  
E21  27640889.088   145253842.961       -2102.595          36.000  
J02  39977962.036   210085602.463         -53.151          47.000  
> 2023 12 06 08 58 59.6270000  0 13                     
S28  38986761.894   204876815.4382         -7.906          36.000  
G16  21608443.741   113553136.654       -1873.895          47.000  
G27  20615515.174   108335258.197         120.173          49.000  
G26  23082318.235   121298406.3952      -2566.321          41.000  
G09  22491270.601   118192419.592        -201.088          45.000  
E04  25615267.114   134609118.354       -2111.723          44.000  
E31  25264333.051   132764959.445        1281.682          47.000  
G08  22044215.260   115843132.5082       2762.040          46.000  
E09  26013377.761   136701211.146         418.415          44.000  
G04  22235026.899   116845843.414       -2225.315          44.000  
E26  26557257.973                        1825.851          31.000  
E21  27640941.008   145254105.587       -2100.619          36.000  
J02  39977963.304   210085609.151         -53.556          47.000  
> 2023 12 06 08 58 59.7520000  0 13                     
S28  38986762.047   204876816.2942         -7.379          38.000  
G16  21608488.303   113553370.827       -1873.505          46.000  
G27  20615512.329   108335243.185         120.116          50.000  
G26  23082379.739   121298727.1472      -2566.329          42.000  
G09  22491275.347   118192444.636        -200.575          46.000  
E04  25615317.336   134609382.333       -2111.453          44.000  
E31  25264302.499   132764799.170        1282.440          46.000  
G08  22044149.545   115842787.2882       2761.821          47.000  
E09  26013367.977   136701158.896         417.418          44.000  
G04  22235079.853   116846121.633       -2226.288          44.000  
E26  26557214.414                        1829.688          34.000  
E21  27640990.663   145254368.319       -2101.782          36.000  
J02  39977964.593   210085615.804         -53.427          47.000  
> 2023 12 06 08 58 59.8770000  0 13                     
S28  38986762.220                2         -4.470          34.000  
G16  21608532.877   113553605.065       -1874.010          46.000  
G27  20615509.494   108335228.195         119.786          49.000  
G26  23082441.059   121299047.9642      -2566.772          42.000  
G09  22491280.101   118192469.673        -201.413          46.000  
E04  25615367.474   134609646.293       -2111.520          44.000  
E31  25264271.971   132764639.005        1281.388          47.000  
G08  22044083.857   115842442.0432       2762.174          46.000  
E09  26013358.024   136701106.663         418.157          45.000  
G04  22235132.826   116846399.827       -2225.363          45.000  
E26  26557170.652                        1829.519          37.000  
E21  27641040.418   145254631.042       -2102.046          36.000  
J02  39977965.895   210085622.491         -53.384          47.000  
> 2023 12 06 08 59 00.0020000  0 13                     
S28  38986762.382                2         -6.665          34.000  
G16  21608577.442   113553839.262       -1873.401          46.000  
G27  20615506.654   108335213.159         120.233          49.000  
G26  23082501.956   121299368.6862      -2565.485          42.000  
G09  22491284.853   118192494.655        -199.966          46.000  
E04  25615417.696   134609910.246       -2111.505          44.000  
E31  25264241.451   132764478.714        1282.406          47.000  
G08  22044018.167   115842096.7792       2762.088          47.000  
E09  26013347.958   136701054.329         418.677          43.000  
G04  22235185.755   116846677.961       -2225.011          45.000  
E26  26557127.018                        1830.887          39.000  
E21  27641091.264   145254893.786       -2101.903          36.000  
J02  39977967.164   210085629.121         -52.802          47.000  
> 2023 12 06 08 59 00.1270000  0 13                     
S28  38986762.506                2         -5.087          34.000  
G16  21608622.004   113554073.481       -1874.121          46.000  
G27  20615503.821   108335198.154         119.745          49.000  
G26  23082563.317   121299689.4912      -2566.119          42.000  
G09  22491289.653   118192519.702        -200.772          44.000  
E04  25615467.896   134610174.169       -2111.356          44.000  
E31  25264211.035   132764318.493        1281.768          46.000  
G08  22043952.461   115841751.5002       2761.991          47.000  
E09  26013338.129   136701002.147         416.936          44.000  
G04  22235238.681   116846956.152       -2225.900          45.000  
E26  26557083.462                        1829.590          39.000  
E21  27641140.887   145255156.478       -2101.640          36.000  
J02  39977968.426   210085635.781         -53.333          47.000  
> 2023 12 06 08 59 00.2520000  0 13                     
S28  38986762.644                2         -5.140          34.000  
G16  21608666.570   113554307.724       -1874.260          47.000  
G27  20615500.952   108335183.191         119.408          49.000  
G26  23082624.044   121300010.3132      -2567.207          42.000  
G09  22491294.436   118192544.747        -199.837          44.000  
E04  25615518.173   134610438.205       -2112.457          44.000  
E31  25264180.525   132764158.291        1281.714          46.000  
G08  22043886.762   115841406.3022       2761.322          47.000  
E09  26013328.142   136700949.883         418.198          44.000  
G04  22235291.629   116847234.345       -2225.500          45.000  
E26  26557040.063                        1828.732          39.000  
E21  27641191.089   145255419.196       -2101.995          36.000  
J02  39977969.718   210085642.473         -53.622          47.000  
> 2023 12 06 08 59 00.3770000  0 13                     
S28  38986762.855                3         -9.277          34.000  
G16  21608711.135   113554541.987       -1874.239          46.000  
G27  20615498.123   108335168.287         119.275          49.000  
G26  23082684.357   121300331.1262      -2566.498          42.000  
G09  22491299.212   118192569.851        -201.136          45.000  
E04  25615568.458   134610702.230       -2112.494          44.000  
E31  25264150.005   132763998.085        1281.472          46.000  
G08  22043821.077   115841061.1262       2760.694          46.000  
E09  26013318.255   136700897.666         417.796          45.000  
G04  22235344.549   116847512.570       -2225.745          44.000  
E26  26556996.476                        1830.089          39.000  
E21  27641241.180   145255681.974       -2102.473          35.000  
J02  39977970.958   210085649.190         -53.738          47.000  
> 2023 12 06 08 59 00.5020000  0 13                     
S28  38986763.017                3         -5.469          36.000  
G16  21608755.679   113554776.196       -1873.292          46.000  
G27  20615495.296   108335153.339         119.352          49.000  
G26  23082745.717   121300651.9432      -2566.980          41.000  
G09  22491303.976   118192594.858        -199.432          43.000  
E04  25615618.640   134610966.183       -2111.468          43.000  
E31  25264119.552   132763837.827        1282.237          48.000  
G08  22043755.383   115840715.8902       2761.937          46.000  
E09  26013308.443   136700845.450         417.231          46.000  
G04  22235397.516   116847790.820       -2226.580          45.000  
E26  26556952.953                        1829.092          36.000  
E21  27641291.779                       -2101.102          35.000  
J02  39977972.230   210085655.867         -53.640          47.000  
> 2023 12 06 08 59 00.6270000  0 13                     
S28  38986763.126                2         -6.633          34.000  
G16  21608800.268   113555010.420       -1873.439          46.000  
G27  20615492.463   108335138.386         119.410          49.000  
G26  23082806.650   121300972.7082      -2566.052          41.000  
G09  22491308.774   118192620.039        -201.694          45.000  
E04  25615668.772   134611230.230       -2112.904          43.000  
E31  25264088.948   132763677.599        1281.881          46.000  
G08  22043689.702   115840370.7092       2761.081          47.000  
E09  26013298.437   136700793.230         417.244          44.000  
G04  22235450.479   116848069.075       -2226.281          45.000  
E26  26556909.420                        1830.176          36.000  
E21  27641340.986                       -2102.071          33.000  
J02  39977973.501   210085662.492         -52.927          47.000  
> 2023 12 06 08 59 00.7520000  0 13                     
S28  38986763.316                2         -7.718          36.000  
G16  21608844.829   113555244.636       -1873.866          46.000  
G27  20615489.655   108335123.455         119.218          49.000  
G26  23082867.508   121301292.9341      -2565.649          41.000  
G09  22491313.522   118192645.073        -200.186          45.000  
E04  25615719.083   134611494.270       -2112.284          44.000  
E31  25264058.506   132763517.449        1281.148          47.000  
G08  22043624.041   115840025.570        2760.731          46.000  
E09  26013288.365   136700740.978         417.927          41.000  
G04  22235503.451   116848347.296       -2226.232          46.000  
E26  26556865.964                        1829.864          36.000  
E21  27641391.161                       -2101.208          33.000  
J02  39977974.773   210085669.158         -53.647          47.000  
> 2023 12 06 08 59 00.8770000  0 13                     
S28  38986763.496                2         -8.751          33.000  
G16  21608889.389   113555478.860       -1873.983          46.000  
G27  20615486.848   108335108.549         119.078          49.000  
G26  23082928.294   121301613.710       -2566.040          40.000  
G09  22491318.373   118192670.291        -201.757          44.000  
E04  25615769.337   134611758.267       -2111.686          44.000  
E31  25264028.000   132763357.187        1282.111          47.000  
G08  22043558.338   115839680.380        2761.808          46.000  
E09  26013278.537   136700688.843         416.975          43.000  
G04  22235556.424   116848625.638       -2226.471          44.000  
E26  26556822.460                        1828.453          36.000  
E21  27641438.970                       -2101.156          33.000  
J02  39977976.028   210085675.806         -53.260          47.000  
> 2023 12 06 08 59 01.0020000  0 13                     
S28  38986763.699                2         -8.299          34.000  
G16  21608933.942   113555713.058       -1873.302          46.000  
G27  20615483.999   108335093.622         119.430          49.000  
G26  23082989.087   121301934.466       -2565.384          40.000  
G09  22491323.177   118192695.415        -200.856          45.000  
E04  25615819.585   134612022.342       -2112.698          44.000  
E31  25263997.366   132763197.067        1280.956          45.000  
G08  22043492.655   115839335.262        2760.518          47.000  
E09  26013268.635   136700636.706         416.994          43.000  
G04  22235609.378   116848903.888       -2226.382          44.000  
E26  26556778.865                        1830.081          36.000  
E21  27641489.123                       -2101.974          33.000  
J02  39977977.278   210085682.444         -53.079          47.000  
> 2023 12 06 08 59 01.1270000  0 14                     
S28  38986763.874                2         -7.438          37.000  
G16  21608978.528   113555947.311       -1874.519          46.000  
G27  20615481.119   108335078.689         119.574          49.000  
G26  23083050.309   121302255.226       -2566.333          40.000  
G09  22491327.952   118192720.635        -202.230          45.000  
E04  25615869.948   134612286.413       -2112.905          45.000  
E31  25263966.824   132763036.930        1280.876          46.000  
G08  22043426.952   115838990.119        2761.710          46.000  
E09  26013258.606   136700584.567         416.963          44.000  
G04  22235662.369   116849182.261       -2226.892          44.000  
E26  26556735.383                        1829.357          36.000  
E21  27641538.957                       -2102.050          33.000  
G07  24766656.665                3       3131.326          33.000  
J02  39977978.531   210085689.067         -52.875          47.000  
> 2023 12 06 08 59 01.2520000  0 14                     
S28  38986764.041                2         -6.174          36.000  
G16  21609023.084   113556181.484       -1873.670          46.000  
G27  20615478.281   108335063.826         118.859          49.000  
G26  23083111.595   121302575.993       -2566.160          42.000  
G09  22491332.725   118192745.815        -201.584          45.000  
E04  25615920.134   134612550.475       -2112.549          44.000  
E31  25263936.368   132762876.722        1281.852          47.000  
G08  22043361.302   115838644.956        2761.194          47.000  
E09  26013248.678   136700532.494         416.842          44.000  
G04  22235715.304   116849460.496       -2225.360          44.000  
E26  26556691.949                        1829.486          33.000  
E21  27641588.983                       -2100.467          33.000  
G07  24766582.598                2       3134.383          38.000  
J02  39977979.776   210085695.669         -52.640          47.000  
> 2023 12 06 08 59 01.3770000  0 14                     
S28  38986764.216                2         -7.391          36.000  
G16  21609067.656   113556415.682       -1873.156          47.000  
G27  20615475.396   108335048.860         119.602          49.000  
G26  23083172.683   121302896.688       -2565.277          42.000  
G09  22491337.549   118192771.016        -201.828          45.000  
E04  25615970.427   134612814.484       -2111.992          45.000  
E31  25263905.845   132762716.551        1281.376          46.000  
G08  22043295.632   115838299.792        2761.950          46.000  
E09  26013238.862   136700480.377         416.840          41.000  
G04  22235768.266   116849738.828       -2227.034          44.000  
E26  26556648.504                        1830.016          33.000  
E21  27641638.948                       -2101.594          33.000  
G07  24766507.911                2       3135.865          38.000  
J02  39977981.050   210085702.281         -52.411          47.000  
> 2023 12 06 08 59 01.5020000  0 14                     
S28  38986764.386                2         -7.137          37.000  
G16  21609112.234   113556649.881       -1873.643          46.000  
G27  20615472.534   108335033.975         119.011          49.000  
G26  23083233.766   121303217.394       -2565.150          42.000  
G09  22491342.362   118192796.236        -201.807          45.000  
E04  25616020.656   134613078.586       -2112.744          45.000  
E31  25263875.326   132762556.455        1280.404          46.000  
G08  22043229.969   115837954.716        2760.211          47.000  
E09  26013228.972   136700428.345         415.941          39.000  
G04  22235821.246   116850017.244       -2227.682          43.000  
E26  26556604.924                3       1833.153          32.000  
E21  27641689.277                       -2099.311          33.000  
G07  24766433.218                2       3132.680          33.000  
J02  39977982.330   210085708.868         -52.740          48.000  
> 2023 12 06 08 59 01.6270000  0 14                     
S28  38986764.556                2         -7.758          37.000  
G16  21609156.803   113556884.083       -1873.555          46.000  
G27  20615469.669   108335019.060         119.211          49.000  
G26  23083294.712   121303538.012       -2564.703          42.000  
G09  22491347.167   118192821.551        -203.209          44.000  
E04  25616070.843   134613342.685       -2113.044          45.000  
E31  25263844.890   132762396.334        1280.766          46.000  
G08  22043164.260   115837609.589        2760.188          45.000  
E09  26013219.066   136700376.215         417.118          41.000  
G04  22235874.224   116850295.557       -2227.040          45.000  
E26  26556562.019                3       1828.507          28.000  
E21  27641739.696                       -2100.614          33.000  
G07  24766360.040                2       3130.765          33.000  
J02  39977983.562   210085715.452         -52.896          48.000  
> 2023 12 06 08 59 01.7520000  0 14                     
S28  38986764.734                2         -8.247          37.000  
G16  21609201.372   113557118.268       -1874.076          45.000  
G27  20615466.851   108335004.164         119.258          50.000  
G26  23083355.725   121303858.699       -2565.193          42.000  
G09  22491351.976   118192846.864        -202.289          45.000  
E04  25616121.145   134613606.887       -2113.512          44.000  
E31  25263814.443   132762236.240        1280.742          47.000  
G08  22043098.589   115837264.509        2760.321          45.000  
E09  26013209.227   136700324.294         415.057          41.000  
G04  22235927.211   116850573.967       -2227.360          44.000  
E26  26556518.259                        1829.828          29.000  
E21  27641789.292                       -2100.413          33.000  
G07  24766286.745                2       3132.336          37.000  
J02  39977984.755   210085722.003         -52.240          47.000  
> 2023 12 06 08 59 01.8770000  0 14                     
S28  38986764.907                2         -6.416          37.000  
G16  21609245.896   113557352.363       -1872.336          46.000  
G27  20615463.997   108334989.259         119.480          50.000  
G26  23083416.830   121304179.285       -2564.209          42.000  
G09  22491356.830   118192872.261        -203.722          45.000  
E04  25616171.403   134613871.008       -2112.948          44.000  
E31  25263783.971   132762076.238        1279.809          47.000  
G08  22043032.918   115836919.426        2760.444          45.000  
E09  26013199.263   136700272.263         416.691          42.000  
G04  22235980.181   116850852.399       -2227.820          45.000  
E26  26556474.771                3       1830.515          29.000  
E21  27641840.018                       -2099.448          33.000  
G07  24766210.248                2       3133.914          37.000  
J02  39977985.990   210085728.548         -52.257          47.000  
> 2023 12 06 08 59 02.0020000  0 14                     
S28  38986765.135                2        -10.248          33.000  
G16  21609290.458   113557586.514       -1872.974          46.000  
G27  20615461.170   108334974.374         119.172          49.000  
G26  23083477.840   121304499.856       -2565.142          40.000  
G09  22491361.666   118192897.707        -203.917          44.000  
E04  25616221.744   134614135.308       -2114.815          44.000  
E31  25263753.512   132761916.268        1279.433          47.000  
G08  22042967.261   115836574.440        2759.752          47.000  
E09  26013189.280   136700220.334         414.893          43.000  
G04  22236033.199   116851130.847       -2227.921          45.000  
E26  26556430.027                3       1830.447          29.000  
E21  27641890.192                       -2098.844          33.000  
G07  24766133.003                2       3132.389          39.000  
J02  39977987.255   210085735.068         -52.201          47.000  
> 2023 12 06 08 59 02.1270000  0 14                     
S28  38986765.312                2         -8.496          36.000  
G16  21609334.956   113557820.614       -1871.843          45.000  
G27  20615458.298   108334959.472         119.436          50.000  
G26  23083538.843   121304820.302       -2563.458          41.000  
G09  22491366.515   118192923.206        -203.677          45.000  
E04  25616272.024   134614399.557       -2114.050          44.000  
E31  25263723.165   132761756.310        1279.633          47.000  
G08  22042901.639   115836229.501        2759.290          47.000  
E09  26013179.500                         415.615          39.000  
G04  22236086.235   116851409.413       -2228.506          45.000  
E26  26556387.387                        1831.519          29.000  
E21  27641939.639                       -2096.920          33.000  
G07  24766058.741                2       3130.934          36.000  
J02  39977988.467   210085741.548         -51.408          47.000  
> 2023 12 06 08 59 02.2520000  0 14                     
S28  38986765.478                2         -9.146          36.000  
G16  21609379.467   113558054.690       -1873.098          46.000  
G27  20615455.463   108334944.581         119.041          49.000  
G26  23083599.835   121305140.731       -2563.419          41.000  
G09  22491371.409   118192948.820        -205.579          45.000  
E04  25616322.424   134614663.846       -2114.416          44.000  
E31  25263692.677   132761596.436        1278.706          47.000  
G08  22042835.978   115835884.512        2759.943          48.000  
E09  26013169.756                         412.411          42.000  
G04  22236139.257   116851687.969       -2228.866          45.000  
E26  26556341.498                3       1836.271          29.000  
E21  27641989.651                       -2096.854          34.000  
G07  24765985.179                2       3128.078          36.000  
J02  39977989.679   210085747.982         -51.528          47.000  
> 2023 12 06 08 59 02.3770000  0 14                     
S28  38986765.706                2         -9.906          36.000  
G16  21609424.006   113558288.715       -1872.668          46.000  
G27  20615452.655   108334929.684         119.069          49.000  
G26  23083660.814   121305461.099       -2563.379          41.000  
G09  22491376.291   118192974.396        -205.151          45.000  
E04  25616372.731   134614928.211       -2115.027          45.000  
E31  25263662.047   132761436.613        1278.503          47.000  
G08  22042770.347   115835539.639        2758.405          48.000  
E09  26013159.835                         413.493          39.000  
G04  22236192.281   116851966.600       -2229.288          45.000  
E26  26556298.891                3       1831.411          30.000  
E21  27642039.484                       -2096.974          34.000  
G07  24765911.151                2       3132.889          38.000  
J02  39977990.921   210085754.441         -51.731          47.000  
> 2023 12 06 08 59 02.5020000  0 14                     
S28  38986765.910                2         -9.950          36.000  
G16  21609468.507   113558522.736       -1872.177          46.000  
G27  20615449.891   108334914.816         118.818          50.000  
G26  23083721.775   121305781.351       -2561.579          41.000  
G09  22491381.200   118193000.187        -206.381          44.000  
E04  25616422.933   134615192.661       -2115.996          45.000  
E31  25263631.720   132761276.828        1278.119          47.000  
G08  22042704.716   115835194.767        2759.003          46.000  
E09  26013149.986                         412.464          44.000  
G04  22236245.324   116852245.374       -2230.563          45.000  
E26  26556253.911                        1835.003          30.000  
E21  27642089.540                       -2097.045          34.000  
G07  24765835.697                3       3126.072          33.000  
J02  39977992.154   210085760.845         -51.094          47.000  
> 2023 12 06 08 59 02.6270000  0 13                     
S28  38986766.154                2        -10.531          36.000  
G16  21609512.983   113558756.657       -1871.186          44.000  
G27  20615447.085   108334899.883         119.489          50.000  
G26  23083782.741   121306101.675       -2561.987          41.000  
G09  22491386.053   118193025.870        -206.000          46.000  
E04  25616473.176   134615457.099       -2115.935          43.000  
E31  25263601.370   132761117.104        1277.334          46.000  
G08  22042639.113   115834849.927        2758.687          46.000  
E09  26013140.121                         412.980          44.000  
G04  22236298.371   116852524.065       -2230.534          45.000  
E26  26556210.958                3       1835.195          30.000  
E21  27642140.036                       -2096.252          34.000  
J02  39977993.410   210085767.233         -51.000          47.000  
> 2023 12 06 08 59 02.7520000  0 13                     
S28  38986766.390                2        -10.849          36.000  
G16  21609557.526   113558990.627       -1871.892          46.000  
G27  20615444.281   108334884.985         118.990          49.000  
G26  23083843.661   121306421.825       -2560.777          41.000  
G09  22491391.009   118193051.759        -207.288          45.000  
E04  25616523.484   134615721.648       -2116.982          44.000  
E31  25263571.022   132760957.393        1277.153          47.000  
G08  22042573.493   115834505.119        2758.223          46.000  
E09  26013130.328                         411.801          43.000  
G04  22236351.419   116852802.868       -2230.476          45.000  
E26  26556166.058                3       1832.395          30.000  
E21  27642189.718                       -2095.242          34.000  
J02  39977994.650   210085773.594         -51.074          47.000  
> 2023 12 06 08 59 02.8770000  0 13                     
S28  38986766.638                2        -12.082          36.000  
G16  21609602.073   113559224.584       -1871.315          45.000  
G27  20615441.432   108334870.102         119.324          50.000  
G26  23083904.605   121306742.046       -2561.108          43.000  
G09  22491395.968   118193077.675        -207.585          44.000  
E04  25616573.768   134615986.150       -2116.108          42.000  
E31  25263540.623   132760797.814        1276.693          46.000  
G08  22042507.911   115834160.400        2757.168          48.000  
E09  26013120.559   136699858.739         411.431          43.000  
G04  22236404.452   116853081.681       -2231.053          45.000  
E26  26556121.519                        1835.326          30.000  
E21  27642239.485                       -2095.549          34.000  
J02  39977995.868   210085779.921         -50.748          47.000  
> 2023 12 06 08 59 03.0020000  0 14                     
S28  38986766.928                2        -10.791          36.000  
G16  21609646.597   113559458.473       -1870.943          46.000  
G27  20615438.614   108334855.213         119.202          49.000  
J03  38513191.070                3        135.445          32.000  
G26  23083965.489   121307062.088       -2559.706          42.000  
G09  22491400.905   118193103.649        -207.585          45.000  
E04  25616624.197   134616250.728       -2116.913          43.000  
E31  25263510.273   132760638.207        1276.806          47.000  
G08  22042442.316   115833815.659        2757.930          47.000  
E09  26013110.856   136699807.318         410.939          40.000  
G04  22236457.541   116853360.570       -2231.379          46.000  
E26  26556080.326                        1835.276          30.000  
E21  27642289.487                       -2096.271          37.000  
J02  39977997.097   210085786.245         -50.303          47.000  
> 2023 12 06 08 59 03.1270000  0 14                     
S28  38986767.162                2        -11.552          36.000  
G16  21609691.099   113559692.389       -1871.602          46.000  
G27  20615435.792   108334840.318         118.977          49.000  
J03  38513180.439                3        135.445          32.000  
G26  23084026.455   121307382.279       -2560.815          41.000  
G09  22491405.856   118193129.602        -208.577          45.000  
E04  25616674.516   134616515.311       -2116.608          43.000  
E31  25263479.952   132760478.603        1276.744          47.000  
G08  22042376.709   115833470.898        2757.919          48.000  
E09  26013101.035                         411.448          43.000  
G04  22236510.604   116853639.424       -2230.908          45.000  
E26  26556038.488                        1834.870          30.000  
E21  27642339.475                       -2094.542          37.000  
J02  39977998.304   210085792.543         -50.258          47.000  
> 2023 12 06 08 59 03.2520000  0 14                     
S28  38986767.471                2        -12.802          36.000  
G16  21609735.628   113559926.370       -1871.884          46.000  
G27  20615432.976   108334825.470         118.935          50.000  
J03  38513169.509                3        135.445          32.000  
G26  23084087.379   121307702.438       -2561.517          41.000  
G09  22491410.844   118193155.597        -208.337          45.000  
E04  25616724.862   134616779.862       -2116.600          44.000  
E31  25263449.679   132760319.041        1276.275          47.000  
G08  22042311.102   115833126.161        2757.715          48.000  
E09  26013091.214                         410.017          44.000  
G04  22236563.665   116853918.295       -2230.886          46.000  
E26  26555998.164                3       1834.509          33.000  
E21  27642389.173                       -2095.236          36.000  
J02  39977999.545   210085798.881         -50.801          47.000  
> 2023 12 06 08 59 03.3770000  0 14                     
S28  38986767.656                2         -9.452          36.000  
G16  21609780.133   113560160.292       -1871.500          46.000  
G27  20615430.159   108334810.622         118.826          49.000  
J03  38513164.355                3        135.445          32.000  
G26  23084148.319   121308022.577       -2561.603          40.000  
G09  22491415.781   118193181.512        -207.335          44.000  
E04  25616775.239   134617044.520       -2117.350          44.000  
E31  25263419.480   132760159.406        1276.723          48.000  
G08  22042245.529   115832781.515        2756.860          48.000  
E09  26013081.433                         412.254          42.000  
G04  22236616.761   116854197.195       -2231.417          45.000  
E26  26555952.986                3       1834.302          29.000  
E21  27642439.182                       -2095.201          36.000  
J02  39978000.749   210085805.199         -50.402          47.000  
> 2023 12 06 08 59 03.5020000  0 14                     
S28  38986768.002                2        -12.857          36.000  
G16  21609824.652   113560394.245       -1871.926          46.000  
G27  20615427.329   108334795.807         118.509          50.000  
J03  38513160.184                3        135.445          32.000  
G26  23084209.256   121308342.715       -2561.156          40.000  
G09  22491420.744   118193207.583        -208.746          45.000  
E04  25616825.588   134617309.122       -2117.139          43.000  
E31  25263388.941   132759999.845        1276.640          46.000  
G08  22042179.923   115832436.767        2758.207          47.000  
E09  26013071.649                         411.477          42.000  
G04  22236669.802   116854476.103       -2230.807          45.000  
E26  26555906.286                        1836.400          29.000  
E21  27642489.026                       -2095.084          36.000  
J02  39978001.951   210085811.544         -51.062          47.000  
> 2023 12 06 08 59 03.6270000  0 15                     
S28  38986768.241                2        -10.815          36.000  
G16  21609869.170   113560628.150       -1871.374          46.000  
G27  20615424.498   108334780.960         118.708          49.000  
J03  38513158.001                3        135.445          32.000  
G26  23084270.174   121308662.885       -2561.251          41.000  
G09  22491425.703   118193233.545        -208.222          46.000  
E04  25616875.897   134617573.714       -2116.725          43.000  
E31  25263358.505   132759840.241        1277.076          47.000  
G08  22042114.327   115832092.080        2757.710          46.000  
E09  26013061.772                         411.076          44.000  
G04  22236722.888   116854755.033       -2231.606          45.000  
E26  26555865.155                3       1831.193          29.000  
E21  27642538.856                       -2096.145          34.000  
G07  24765165.773                3       3129.932          34.000  
J02  39978003.160   210085817.836         -50.382          47.000  
> 2023 12 06 08 59 03.7520000  0 15                     
S28  38986768.511                2        -11.902          35.000  
G16  21609913.702   113560862.044       -1870.630          47.000  
G27  20615421.630   108334766.071         119.174          49.000  
J03  38513157.028                3        135.445          32.000  
G26  23084331.085   121308982.942       -2560.891          40.000  
G09  22491430.694   118193259.605        -208.640          45.000  
E04  25616926.210   134617838.354       -2117.244          44.000  
E31  25263328.241   132759680.703        1275.797          47.000  
G08  22042048.764   115831747.429        2756.629          46.000  
E09  26013052.025   136699498.778         411.127          46.000  
G04  22236776.005   116855034.082       -2233.350          44.000  
E26  26555824.816                1       1836.163          29.000  
E21  27642588.683                       -2093.239          34.000  
G07  24765090.416                2       3129.476          37.000  
J02  39978004.321   210085824.075         -49.576          47.000  
> 2023 12 06 08 59 03.8770000  0 15                     
S28  38986768.790                2        -11.004          35.000  
G16  21609958.167   113561095.843       -1870.775          47.000  
G27  20615418.783   108334751.163         119.202          50.000  
J03  38513143.856                3        135.445          32.000  
G26  23084391.984   121309302.872       -2559.335          43.000  
G09  22491435.636   118193285.686        -208.755          45.000  
E04  25616976.712   134618103.065       -2117.729          44.000  
E31  25263297.916   132759521.140        1276.246          47.000  
G08  22041983.162   115831402.743        2756.832          46.000  
E09  26013042.325   136699447.462         410.577          45.000  
G04  22236829.065   116855312.903       -2231.302          43.000  
E26  26555781.678                3       1837.118          29.000  
E21  27642638.492                       -2094.458          34.000  
G07  24765017.642                2       3128.095          41.000  
J02  39978005.493   210085830.274         -50.093          47.000  
> 2023 12 06 08 59 04.0020000  0 15                     
S28  38986769.119                2        -13.458          35.000  
G16  21610002.715   113561329.893       -1873.727          46.000  
G27  20615416.017   108334736.467         116.763          49.000  
J03  38513139.390                3        135.445          32.000  
G26  23084452.935   121309623.154       -2564.186          40.000  
G09  22491440.629   118193311.746        -208.613          45.000  
E04  25617026.996   134618367.695       -2116.955          43.000  
E31  25263267.645   132759361.606        1276.210          47.000  
G08  22041917.610   115831058.141        2756.387          46.000  
E09  26013032.596   136699396.057         410.998          45.000  
G04  22236882.199   116855591.953       -2232.840          45.000  
E26  26555735.004                3       1833.256          29.000  
E21  27642688.428                       -2097.446          34.000  
G07  24764944.389                2       3130.044          39.000  
J02  39978006.741   210085836.685         -52.286          47.000  
> 2023 12 06 08 59 04.1270000  0 15                     
S28  38986769.354                2        -11.181          35.000  
G16  21610047.242   113561563.887       -1871.885          47.000  
G27  20615413.266   108334721.735         117.728          49.000  
J03  38513134.106                3        135.445          32.000  
G26  23084513.853   121309943.239       -2560.199          41.000  
G09  22491445.609   118193337.863        -209.358          45.000  
E04  25617077.341   134618632.406       -2118.228          44.000  
E31  25263237.279   132759202.055        1276.420          47.000  
G08  22041852.060   115830713.492        2757.087          46.000  
E09  26013022.774   136699344.721         410.702          45.000  
G04  22236935.286   116855870.907       -2231.180          45.000  
E26  26555688.178                1       1834.704          30.000  
E21  27642738.308                       -2095.342          34.000  
G07  24764869.341                2       3128.915          37.000  
J02  39978007.955   210085843.021         -50.703          47.000  
> 2023 12 06 08 59 04.2520000  0 15                     
S28  38986769.611                2        -12.459          35.000  
G16  21610091.763   113561797.871       -1871.514          47.000  
G27  20615410.470   108334706.974         117.972          49.000  
J03  38513134.023                3        135.445          32.000  
G26  23084574.778   121310263.445       -2561.812          40.000  
G09  22491450.573   118193363.948        -208.941          44.000  
E04  25617127.746   134618897.100       -2117.671          44.000  
E31  25263206.850   132759042.622        1274.936          46.000  
G08  22041786.478   115830368.872        2756.761          46.000  
E09  26013013.158   136699293.451         409.923          46.000  
G04  22236988.394   116856149.898       -2232.211          45.000  
E26  26555648.273                        1835.019          33.000  
E21  27642788.161                       -2094.595          34.000  
G07  24764794.460                3       3129.004          39.000  
J02  39978009.155   210085849.373         -50.950          47.000  
> 2023 12 06 08 59 04.3770000  0 15                     
S28  38986769.919                2        -11.246          35.000  
G16  21610136.254   113562031.784       -1871.614          47.000  
G27  20615407.645   108334692.200         118.019          49.000  
J03  38513129.669                3        135.445          32.000  
G26  23084635.680                       -2561.437          40.000  
G09  22491455.528   118193390.113        -209.271          45.000  
E04  25617178.026   134619161.753       -2117.163          43.000  
E31  25263176.479   132758883.059        1276.590          46.000  
G08  22041720.890   115830024.295        2756.652          47.000  
E09  26013003.359   136699242.219         409.749          45.000  
G04  22237041.493   116856428.968       -2232.978          46.000  
E26  26555602.882                        1834.867          33.000  
E21  27642838.049                       -2093.710          37.000  
G07  24764719.620                3       3128.900          39.000  
J02  39978010.339   210085855.610         -49.657          47.000  
> 2023 12 06 08 59 04.5020000  0 15                     
S28  38986770.253                2        -11.506          35.000  
G16  21610180.785   113562265.742       -1871.640          47.000  
G27  20615404.797   108334677.408         118.214          49.000  
J03  38513127.052                3        135.445          32.000  
G26  23084696.614                       -2560.612          41.000  
G09  22491460.502   118193416.262        -209.126          45.000  
E04  25617228.437   134619426.511       -2118.426          44.000  
E31  25263146.151   132758723.601        1275.608          46.000  
G08  22041655.314   115829679.665        2757.344          47.000  
E09  26012993.355   136699190.881         410.908          44.000  
G04  22237094.564   116856707.942       -2231.543          44.000  
E26  26555562.292                3       1833.886          33.000  
E21  27642887.913                       -2095.060          36.000  
G07  24764644.809                2       3129.567          39.000  
J02  39978011.572   210085861.898         -50.430          47.000  
> 2023 12 06 08 59 04.6270000  0 15                     
S28  38986770.569                2        -12.716          35.000  
G16  21610225.301   113562499.621       -1871.823          47.000  
G27  20615402.011   108334662.666         117.703          49.000  
J03  38513132.932                3        135.445          32.000  
G26  23084757.545                       -2561.120          40.000  
G09  22491465.466   118193442.405        -209.386          45.000  
E04  25617278.821   134619691.176       -2117.535          44.000  
E31  25263115.906   132758564.055        1276.259          47.000  
G08  22041589.768   115829335.153        2755.775          48.000  
E09  26012983.648   136699139.586         410.450          45.000  
G04  22237147.678   116856987.015       -2232.663          44.000  
E26  26555518.470                3       1841.300          29.000  
E21  27642937.785                       -2094.236          34.000  
G07  24764572.709                2       3129.423          40.000  
J02  39978012.830   210085868.196         -50.621          47.000  
> 2023 12 06 08 59 04.7520000  0 15                     
S28  38986770.793                2        -11.378          35.000  
G16  21610269.821   113562733.559       -1871.165          47.000  
G27  20615399.211   108334647.870         119.184          49.000  
J03  38513132.424                3        135.445          31.000  
G26  23084818.447                       -2560.114          41.000  
G09  22491470.466   118193468.530        -208.173          45.000  
E04  25617329.093   134619955.847       -2116.015          43.000  
E31  25263085.569   132758404.519        1276.485          47.000  
G08  22041524.169   115828990.465        2758.159          47.000  
E09  26012973.782   136699088.298         410.861          44.000  
G04  22237200.759   116857265.996       -2231.274          45.000  
E26  26555477.308                3       1841.300          29.000  
E21  27642987.626                       -2091.654          34.000  
G07  24764498.374                2       3130.960          42.000  
J02  39978013.999   210085874.395         -49.221          47.000  
> 2023 12 06 08 59 04.8770000  0 15                     
S28  38986771.062                2        -12.265          35.000  
G16  21610314.301   113562967.340       -1869.893          47.000  
G27  20615396.394   108334633.016         118.409          50.000  
J03  38513135.397                3        135.445          31.000  
G26  23084879.366                       -2561.219          40.000  
G09  22491475.469   118193494.712        -211.035          46.000  
E04  25617379.407   134620220.528       -2118.163          44.000  
E31  25263055.206   132758244.935        1275.772          47.000  
G08  22041458.561   115828645.817        2757.004          46.000  
E09  26012963.912   136699036.944         410.503          45.000  
G04  22237253.858   116857545.000       -2232.458          45.000  
E26  26555433.882                3       1834.333          29.000  
E21  27643036.512                3      -2088.104          34.000  
G07  24764423.593                2       3128.931          43.000  
J02  39978015.174   210085880.580         -49.901          47.000  
> 2023 12 06 08 59 05.0020000  0 15                     
S28  38986771.441                2        -15.208          35.000  
G16  21610358.819   113563201.327       -1872.035          47.000  
G27  20615393.654   108334618.474         115.436          49.000  
J03  38513138.020                3        135.445          31.000  
G26  23084940.259   121312183.663       -2558.311          43.000  
G09  22491480.458   118193521.065        -212.013          44.000  
E04  25617429.866   134620485.500       -2120.310          43.000  
E31  25263024.927   132758085.665        1273.188          47.000  
G08  22041393.052   115828301.508        2753.907          47.000  
E09  26012954.225   136698985.949         407.172          45.000  
G04  22237307.013   116857824.269       -2234.755          45.000  
E26  26555385.430                        1833.417          29.000  
E21  27643085.541                1      -2094.543          34.000  
G07  24764349.352                2       3127.899          44.000  
J02  39978016.404   210085886.919         -51.144          46.000  
> 2023 12 06 08 59 05.1270000  0 15                     
S28  38986771.718                2        -13.811          35.000  
G16  21610403.347   113563435.325       -1872.281          47.000  
G27  20615390.875   108334603.848         116.941          49.000  
J03  38513139.053                3        135.445          31.000  
G26  23085001.210                       -2561.620          41.000  
G09  22491485.449   118193547.474        -210.665          45.000  
E04  25617480.242   134620750.418       -2118.978          43.000  
E31  25262994.621   132757926.360        1274.875          47.000  
G08  22041327.513   115827957.086        2755.445          48.000  
E09  26012944.588   136698934.835         409.326          44.000  
G04  22237360.127   116858103.529       -2233.418          44.000  
E26  26555342.513                        1835.639          34.000  
E21  27643137.163                       -2095.419          30.000  
G07  24764274.861                2       3128.373          44.000  
J02  39978017.588   210085893.252         -50.559          47.000  
> 2023 12 06 08 59 05.2520000  0 14                     
S28  38986771.950                2        -10.637          35.000  
G16  21610447.865   113563669.231       -1871.172          47.000  
G27  20615388.023   108334589.054         118.985          49.000  
G26  23085062.110                       -2561.149          41.000  
G09  22491490.406   118193573.580        -207.698          44.000  
E04  25617530.579   134621015.074       -2116.626          44.000  
E31  25262964.196   132757766.758        1277.727          47.000  
G08  22041261.914   115827612.455        2757.781          47.000  
E09  26012934.706   136698883.525         411.456          45.000  
G04  22237413.209   116858382.546       -2231.697          44.000  
E26  26555296.839                        1834.808          30.000  
E21  27643186.982                3      -2090.621          30.000  
G07  24764200.140                2       3130.829          45.000  
J02  39978018.764   210085899.485         -49.211          47.000  
> 2023 12 06 08 59 05.3770000  0 14                     
S28  38986772.254                2        -12.066          35.000  
G16  21610492.366   113563903.101       -1871.341          47.000  
G27  20615385.163   108334574.280         118.148          50.000  
G26  23085122.996                       -2558.580          42.000  
G09  22491495.388   118193599.708        -209.365          45.000  
E04  25617581.025   134621279.758       -2117.991          44.000  
E31  25262933.779   132757607.177        1276.375          47.000  
G08  22041196.319   115827267.852        2756.621          47.000  
E09  26012924.854   136698832.176         410.583          45.000  
G04  22237466.296   116858661.527       -2231.958          46.000  
E26  26555253.435                        1835.779          31.000  
E21  27643236.276                3      -2096.915          31.000  
G07  24764123.966                2       3129.385          44.000  
J02  39978019.926   210085905.630         -49.397          47.000  
> 2023 12 06 08 59 05.5020000  0 14                     
S28  38986772.563                2        -14.015          32.000  
G16  21610536.886   113564137.025       -1872.146          46.000  
G27  20615382.387   108334559.621         116.540          50.000  
G26  23085183.910   121313463.863       -2560.106          41.000  
G09  22491500.412   118193626.075        -211.644          45.000  
E04  25617631.504   134621544.609       -2119.502          44.000  
E31  25262903.447   132757447.792        1274.214          47.000  
G08  22041130.789   115826923.390        2755.287          47.000  
E09  26012915.285   136698781.074         408.429          45.000  
G04  22237519.437   116858940.727       -2234.569          44.000  
E26  26555210.389                        1834.943          31.000  
E21  27643284.939                       -2095.115          31.000  
G07  24764050.247                2       3129.197          43.000  
J02  39978021.088   210085911.914         -50.774          47.000  
> 2023 12 06 08 59 05.6270000  0 14                     
S28  38986772.948                3        -14.355          32.000  
G16  21610581.427   113564371.023       -1872.416          45.000  
G27  20615379.596   108334545.022         116.796          50.000  
G26  23085244.841   121313783.973       -2561.185          41.000  
G09  22491505.444   118193652.513        -211.858          45.000  
E04  25617681.904   134621809.519       -2119.498          43.000  
E31  25262873.167   132757288.480        1274.329          47.000  
G08  22041065.245   115826578.983        2755.086          47.000  
E09  26012905.484   136698730.046         407.944          45.000  
G04  22237572.631   116859219.990       -2234.125          45.000  
E26  26555168.611                        1835.871          35.000  
E21  27643335.567                       -2094.272          32.000  
G07  24763975.690                2       3127.793          43.000  
J02  39978022.297   210085918.221         -50.736          47.000  
> 2023 12 06 08 59 05.7520000  0 14                     
S28  38986773.348                3        -18.555          32.000  
G16  21610625.913   113564604.937       -1871.941          45.000  
G27  20615376.792   108334530.347         117.500          50.000  
G26  23085305.743   121314104.046       -2561.021          41.000  
G09  22491510.473   118193678.835        -210.223          45.000  
E04  25617732.243   134622074.301       -2117.896          43.000  
E31  25262842.729   132757129.030        1276.282          46.000  
G08  22040999.668   115826234.473        2756.619          47.000  
E09  26012895.591   136698678.871         409.610          44.000  
G04  22237625.725   116859499.119       -2232.523          45.000  
E26  26555123.562                        1835.315          35.000  
E21  27643385.500                       -2093.935          32.000  
G07  24763899.993                2       3128.110          44.000  
J02  39978023.476   210085924.440         -49.518          48.000  
> 2023 12 06 08 59 05.8770000  0 14                     
S28  38986773.651                2         -8.915          32.000  
G16  21610670.461   113564838.924       -1872.105          46.000  
G27  20615374.014   108334515.644         117.814          50.000  
G26  23085366.650   121314424.058       -2560.395          41.000  
G09  22491515.459   118193705.018        -209.052          44.000  
E04  25617782.577   134622338.996       -2117.532          44.000  
E31  25262812.334   132756969.478        1276.629          47.000  
G08  22040934.082   115825889.912        2756.268          47.000  
E09  26012885.979   136698627.643         410.436          44.000  
G04  22237678.833   116859778.163       -2232.474          45.000  
E26  26555077.312                        1833.128          35.000  
E21  27643436.266                       -2093.938          35.000  
G07  24763826.164   130134784.1913       3128.664          44.000  
J02  39978024.698   210085930.669         -49.551          47.000  
> 2023 12 06 08 59 06.0020000  0 14                     
S28  38986773.938                2        -12.820          35.000  
G16  21610714.968   113565072.842       -1871.911          46.000  
G27  20615371.275   108334501.000         116.673          49.000  
G26  23085427.560   121314744.134       -2561.117          39.000  
G09  22491520.459   118193731.370        -211.524          45.000  
E04  25617832.983   134622603.750       -2118.093          45.000  
E31  25262782.005   132756810.043        1275.025          47.000  
G08  22040868.502   115825545.355        2756.141          47.000  
E09  26012876.353   136698576.466         409.201          46.000  
G04  22237731.979   116860057.328       -2233.305          44.000  
E26  26555032.145                        1834.776          32.000  
E21  27643485.951                3      -2095.799          31.000  
G07  24763750.631   130134393.0552       3128.777          42.000  
J02  39978025.911   210085936.933         -50.314          47.000  
> 2023 12 06 08 59 06.1270000  0 14                     
S28  38986774.249                2        -14.067          37.000  
G16  21610759.496   113565306.846       -1871.910          47.000  
G27  20615368.502   108334486.420         116.216          50.000  
G26  23085488.494   121315064.315       -2562.120          39.000  
G09  22491525.502   118193757.759        -212.073          45.000  
E04  25617883.422   134622868.671       -2120.056          44.000  
E31  25262751.639   132756650.694        1274.248          46.000  
G08  22040802.966   115825200.927        2754.478          47.000  
E09  26012866.576   136698525.440         407.522          46.000  
G04  22237785.134   116860336.514       -2233.873          44.000  
E26  26554991.573                3       1834.893          32.000  
E21  27643536.625                3      -2094.027          32.000  
G07  24763676.823                2       3126.471          42.000  
J02  39978027.105   210085943.200         -50.171          47.000  
> 2023 12 06 08 59 06.2520000  0 14                     
S28  38986774.511                2        -11.778          35.000  
G16  21610804.079   113565540.923       -1872.460          47.000  
G27  20615365.731   108334471.884         116.538          50.000  
G26  23085549.401   121315384.327       -2559.464          42.000  
G09  22491530.495   118193784.158        -211.022          45.000  
E04  25617933.871   134623133.532       -2118.730          44.000  
E31  25262721.248   132756491.340        1274.513          47.000  
G08  22040737.380   115824856.498        2755.704          47.000  
E09  26012856.960   136698474.343         408.429          46.000  
G04  22237838.272   116860615.770       -2233.924          45.000  
E26  26554946.495                3       1833.429          32.000  
E21  27643585.370                       -2094.189          32.000  
G07  24763602.337                2       3129.382          42.000  
J02  39978028.332   210085949.549         -50.985          47.000  
> 2023 12 06 08 59 06.3770000  0 14                     
S28  38986774.830                2        -11.556          38.000  
G16  21610848.624   113565774.930       -1872.248          46.000  
G27  20615362.934   108334457.247         117.302          50.000  
G26  23085610.331   121315704.511       -2561.562          41.000  
G09  22491535.511   118193810.486        -210.457          44.000  
E04  25617984.247   134623398.276       -2117.678          44.000  
E31  25262690.957   132756331.837        1276.328          47.000  
G08  22040671.853   115824511.998        2756.140          48.000  
E09  26012847.210   136698423.146         409.733          45.000  
G04  22237891.401   116860894.869       -2232.413          44.000  
E26  26554904.922                        1833.608          32.000  
E21  27643635.009                       -2096.933          32.000  
G07  24763526.753                2       3129.136          42.000  
J02  39978029.549   210085955.782         -49.668          47.000  
> 2023 12 06 08 59 06.5020000  0 14                     
S28  38986775.109                2        -10.751          38.000  
G16  21610893.137   113566008.934       -1872.506          47.000  
G27  20615360.208   108334442.641         116.802          50.000  
G26  23085671.265   121316024.579       -2561.040          42.000  
G09  22491540.503   118193836.744        -209.996          45.000  
E04  25618034.644   134623662.993       -2117.695          43.000  
E31  25262660.538   132756172.314        1275.970          47.000  
G08  22040606.300   115824167.474        2755.691          48.000  
E09  26012837.327   136698371.981         409.113          45.000  
G04  22237944.515   116861174.005       -2233.423          45.000  
E26  26554858.577                        1836.497          32.000  
E21  27643686.809                       -2095.464          32.000  
G07  24763452.416                2       3128.491          42.000  
J02  39978030.774   210085962.035         -50.160          47.000  
> 2023 12 06 08 59 06.6270000  0 14                     
S28  38986775.374                2        -12.347          38.000  
G16  21610937.670   113566242.882       -1871.377          47.000  
G27  20615357.450   108334428.030         116.559          49.000  
G26  23085732.172   121316344.731       -2562.038          41.000  
G09  22491545.556   118193863.102        -211.498          45.000  
E04  25618085.040   134623927.800       -2118.926          43.000  
E31  25262630.353   132756012.901        1275.029          47.000  
G08  22040540.746   115823822.950        2756.336          46.000  
E09  26012827.638   136698320.895         408.231          45.000  
G04  22237997.632   116861453.087       -2232.808          45.000  
E26  26554816.602                        1833.426          33.000  
E21  27643737.174                       -2093.699          38.000  
G07  24763379.460                2       3128.359          42.000  
J02  39978031.937   210085968.255         -49.946          47.000  
> 2023 12 06 08 59 06.7520000  0 14                     
S28  38986775.660                2        -11.266          38.000  
G16  21610982.193   113566476.892       -1872.202          45.000  
G27  20615354.709   108334413.479         116.435          49.000  
G26  23085793.057   121316664.746       -2560.473          43.000  
G09  22491550.587   118193889.495        -211.424          44.000  
E04  25618135.431   134624192.576       -2118.057          43.000  
E31  25262599.959   132755853.449        1275.434          46.000  
G08  22040475.197   115823478.444        2756.026          46.000  
E09  26012817.946   136698269.757         409.252          46.000  
G04  22238050.790   116861732.325       -2234.302          45.000  
E26  26554774.298                        1834.314          36.000  
E21  27643786.530                       -2095.555          35.000  
G07  24763306.353                2       3127.594          43.000  
J02  39978033.131   210085974.544         -50.338          47.000  
> 2023 12 06 08 59 06.8770000  0 14                     
S28  38986775.983                2        -12.769          36.000  
G16  21611026.711   113566710.961       -1872.469          45.000  
G27  20615351.926   108334398.871         116.638          49.000  
G26  23085854.001   121316984.916       -2561.452          42.000  
G09  22491555.579   118193915.853        -211.198          44.000  
E04  25618185.863   134624457.351       -2118.165          43.000  
E31  25262569.650   132755694.029        1275.404          47.000  
G08  22040409.638   115823133.949        2756.349          46.000  
E09  26012808.190   136698218.689         408.466          45.000  
G04  22238103.908   116862011.405       -2232.331          46.000  
E26  26554730.869                        1835.412          36.000  
E21  27643835.529                       -2094.892          35.000  
G07  24763231.513                2       3128.611          40.000  
J02  39978034.294   210085980.774         -49.953          47.000  
> 2023 12 06 08 59 07.0020000  0 14                     
S28  38986776.256                2        -11.246          40.000  
G16  21611071.203   113566944.960       -1871.611          46.000  
G27  20615349.166   108334384.365         115.724          49.000  
G26  23085914.907   121317305.014       -2560.547          42.000  
G09  22491560.578   118193942.205        -210.557          45.000  
E04  25618236.280   134624722.174       -2118.509          43.000  
E31  25262539.222   132755534.586        1275.506          46.000  
G08  22040344.095   115822789.526        2754.579          48.000  
E09  26012798.458   136698167.580         408.807          46.000  
G04  22238157.063   116862290.676       -2234.656          45.000  
E26  26554686.091                        1833.598          38.000  
E21  27643884.343                       -2093.471          35.000  
G07  24763158.361                2       3129.544          42.000  
J02  39978035.482   210085987.043         -50.306          47.000  
> 2023 12 06 08 59 07.1270000  0 14                     
S28  38986776.528   204876893.1323        -12.687          39.000  
G16  21611115.703   113567179.020       -1872.611          47.000  
G27  20615346.356   108334369.825         116.349          49.000  
G26  23085975.829   121317625.087       -2559.249          43.000  
G09  22491565.652   118193968.643        -211.972          45.000  
E04  25618286.740   134624987.067       -2119.739          41.000  
E31  25262508.966   132755375.138        1275.583          46.000  
G08  22040278.534   115822445.057        2755.898          48.000  
E09  26012788.968   136698116.458         408.876          46.000  
G04  22238210.164   116862569.827       -2233.234          46.000  
E26  26554642.019                        1833.370          38.000  
E21  27643932.716                       -2095.087          32.000  
G07  24763083.897                2       3129.236          43.000  
J02  39978036.633   210085993.287         -49.846          47.000  
> 2023 12 06 08 59 07.2520000  0 14                     
S28  38986776.798   204876894.6102        -11.926          39.000  
G16  21611160.222   113567412.978       -1871.776          46.000  
G27  20615343.576   108334355.291         116.226          49.000  
G26  23086036.764                       -2560.372          42.000  
G09  22491570.679   118193995.030        -211.199          45.000  
E04  25618337.159   134625251.799       -2117.936          43.000  
E31  25262478.629   132755215.704        1275.475          47.000  
G08  22040213.038   115822100.629        2755.367          48.000  
E09  26012779.334   136698065.374         408.651          46.000  
G04  22238263.332   116862849.065       -2233.755          46.000  
E26  26554598.129                        1833.886          40.000  
E21  27643984.226                3      -2088.655          27.000  
G07  24763008.702                2       3127.088          40.000  
J02  39978037.819   210085999.561         -50.419          47.000  
> 2023 12 06 08 59 07.3770000  0 14                     
S28  38986777.129   204876896.2092        -13.679          35.000  
G16  21611204.787   113567647.058       -1872.109          45.000  
G27  20615340.836   108334340.778         115.817          50.000  
G26  23086097.655                       -2562.062          41.000  
G09  22491575.692   118194021.443        -211.731          45.000  
E04  25618387.522   134625516.667       -2118.860          43.000  
E31  25262448.326   132755056.249        1275.588          47.000  
G08  22040147.490   115821756.206        2755.777          48.000  
E09  26012769.631   136698014.269         408.747          46.000  
G04  22238316.471   116863128.296       -2234.137          46.000  
E26  26554554.082                        1833.052          38.000  
E21  27644035.241                3      -2094.350          28.000  
G07  24762933.825                        3128.821          40.000  
J02  39978038.989   210086005.816         -50.397          47.000  
> 2023 12 06 08 59 07.5020000  0 14                     
S28  38986777.403   204876897.6412        -11.378          38.000  
G16  21611249.281   113567881.057       -1872.339          46.000  
G27  20615338.060   108334326.257         116.451          49.000  
G26  23086158.573   121318585.495       -2561.027          41.000  
G09  22491580.699   118194047.831        -211.076          45.000  
E04  25618437.933   134625781.508       -2118.957          41.000  
E31  25262418.073   132754896.803        1275.541          47.000  
G08  22040081.967   115821411.777        2755.192          48.000  
E09  26012760.106   136697963.202         408.657          46.000  
G04  22238369.627   116863407.472       -2233.440          46.000  
E26  26554509.781                        1833.533          38.000  
E21  27644083.333                       -2095.702          32.000  
G07  24762859.833                        3129.952          40.000  
J02  39978040.179   210086012.047         -49.838          47.000  
> 2023 12 06 08 59 07.6270000  0 14                     
S28  38986777.685                2        -12.223          35.000  
G16  21611293.805   113568115.060       -1871.917          46.000  
G27  20615335.305   108334311.762         115.991          49.000  
G26  23086219.522   121318905.672       -2562.152          41.000  
G09  22491585.717   118194074.271        -211.816          45.000  
E04  25618488.382   134626046.364       -2119.023          43.000  
E31  25262387.663   132754737.350        1275.536          47.000  
G08  22040016.412   115821067.347        2755.608          48.000  
E09  26012750.475   136697912.092         408.884          46.000  
G04  22238422.752   116863686.705       -2234.143          45.000  
E26  26554467.773                        1833.423          38.000  
E21  27644133.872                       -2094.716          32.000  
G07  24762784.209                        3128.498          40.000  
J02  39978041.373   210086018.292         -50.161          47.000  
> 2023 12 06 08 59 07.7520000  0 15                     
S28  38986777.937                2        -11.518          36.000  
G16  21611338.355   113568349.137       -1872.609          46.000  
G27  20615332.515   108334297.292         115.656          49.000  
J03  38513077.185                3        134.563          36.000  
G26  23086280.386   121319225.732       -2560.566          42.000  
G09  22491590.742   118194100.673        -211.504          45.000  
E04  25618538.854   134626311.169       -2118.837          43.000  
E31  25262357.275   132754577.887        1275.794          47.000  
G08  22039950.878   115820722.935        2755.055          48.000  
E09  26012740.693   136697861.014         408.563          46.000  
G04  22238475.910   116863965.955       -2234.302          45.000  
E26  26554422.974                        1833.456          38.000  
E21  27644184.796                       -2094.783          32.000  
G07  24762709.557                        3129.562          40.000  
J02  39978042.612   210086024.527         -49.851          48.000  
> 2023 12 06 08 59 07.8770000  0 15                     
S28  38986778.211                2        -12.261          38.000  
G16  21611382.873   113568583.139       -1871.137          44.000  
G27  20615329.745   108334282.803         115.563          49.000  
J03  38513067.788                3        134.563          34.000  
G26  23086341.331                       -2560.396          41.000  
G09  22491595.785   118194127.097        -211.873          44.000  
E04  25618589.196   134626575.992       -2118.692          43.000  
E31  25262327.027   132754418.418        1275.753          47.000  
G08  22039885.362   115820378.538        2754.883          47.000  
E09  26012730.871   136697809.932         408.537          46.000  
G04  22238529.026   116864245.133       -2233.147          46.000  
E26  26554379.158                        1832.699          38.000  
E21  27644236.016                3      -2091.366          32.000  
G07  24762635.755                        3129.287          40.000  
J02  39978043.821   210086030.745         -49.777          48.000  
> 2023 12 06 08 59 08.0020000  0 15                     
S28  38986778.529                2        -11.803          33.000  
G16  21611427.428   113568817.214       -1873.299          45.000  
G27  20615326.992   108334268.347         115.454          49.000  
J03  38513061.187                3        134.563          30.000  
G26  23086402.260                       -2561.595          41.000  
G09  22491600.870   118194153.549        -211.644          44.000  
E04  25618639.655   134626840.896       -2119.526          43.000  
E31  25262296.689   132754258.975        1275.398          47.000  
G08  22039819.804   115820034.123        2754.960          48.000  
E09  26012721.290   136697758.820         408.791          46.000  
G04  22238582.193   116864524.436       -2234.532          46.000  
E26  26554333.585                        1832.424          38.000  
E21  27644285.033                3      -2093.392          32.000  
G07  24762560.919                        3128.850          40.000  
J02  39978045.051   210086037.033         -50.514          48.000  
> 2023 12 06 08 59 08.1270000  0 14                     
S28  38986778.777                2        -11.954          33.000  
G16  21611471.985   113569051.257       -1872.214          45.000  
G27  20615324.266   108334253.909         115.417          49.000  
G26  23086463.178                       -2560.467          42.000  
G09  22491605.860   118194179.972        -211.445          45.000  
E04  25618689.969   134627105.740       -2118.606          44.000  
E31  25262266.392   132754099.528        1275.491          47.000  
G08  22039754.302   115819689.744        2755.002          48.000  
E09  26012711.565   136697707.779         408.215          46.000  
G04  22238635.346   116864803.687       -2233.856          45.000  
E26  26554292.077                        1832.745          38.000  
E21  27644329.568                       -2095.709          32.000  
G07  24762486.320                        3129.588          42.000  
J02  39978046.243   210086043.257         -49.686          47.000  
> 2023 12 06 08 59 08.2520000  0 14                     
S28  38986779.053                2        -13.095          33.000  
G16  21611516.476   113569285.291       -1872.442          45.000  
G27  20615321.556   108334239.486         115.245          49.000  
G26  23086524.127   121320506.288       -2560.372          42.000  
G09  22491610.899   118194206.428        -211.634          45.000  
E04  25618740.326   134627370.642       -2119.205          44.000  
E31  25262236.061   132753940.059        1275.864          47.000  
G08  22039688.809   115819345.398        2754.808          48.000  
E09  26012701.767   136697656.655         409.025          46.000  
G04  22238688.477   116865082.995       -2234.538          45.000  
E26  26554248.649                        1832.474          38.000  
E21  27644381.348                       -2094.285          32.000  
G07  24762411.961                        3130.060          40.000  
J02  39978047.471   210086049.524         -50.496          48.000  
> 2023 12 06 08 59 08.3770000  0 14                     
S28  38986779.292                2         -9.480          33.000  
G16  21611561.023   113569519.343       -1872.536          45.000  
G27  20615318.828   108334225.046         115.372          48.000  
G26  23086585.087   121320826.390       -2561.448          42.000  
G09  22491615.956   118194232.877        -211.943          45.000  
E04  25618790.756   134627635.529       -2118.972          45.000  
E31  25262205.652   132753780.554        1276.057          47.000  
G08  22039623.282   115819001.067        2754.507          49.000  
E09  26012692.147   136697605.580         408.325          46.000  
G04  22238741.627   116865362.256       -2234.117          45.000  
E26  26554204.095                        1832.532          38.000  
E21  27644431.077                       -2094.446          31.000  
G07  24762337.864                        3129.693          42.000  
J02  39978048.688   210086055.741         -49.457          47.000  
> 2023 12 06 08 59 08.5020000  0 14                     
S28  38986779.582                2        -13.546          36.000  
G16  21611605.495   113569753.302       -1871.434          45.000  
G27  20615316.102   108334210.621         115.552          49.000  
G26  23086645.993   121321146.536       -2561.291          40.000  
G09  22491621.028   118194259.354        -211.550          45.000  
E04  25618841.149   134627900.454       -2119.640          44.000  
E31  25262175.164   132753621.128        1275.364          46.000  
G08  22039557.739   115818656.751        2754.238          48.000  
E09  26012682.454   136697554.473         408.895          46.000  
G04  22238794.795   116865641.617       -2234.811          44.000  
E26  26554160.115                        1832.930          38.000  
E21  27644478.266                       -2093.582          31.000  
G07  24762264.166   130126570.555        3130.236          43.000  
J02  39978049.904   210086061.956         -49.954          47.000  
> 2023 12 06 08 59 08.6270000  0 14                     
S28  38986779.859                2        -12.515          36.000  
G16  21611650.033   113569987.342       -1872.364          45.000  
G27  20615313.377   108334196.258         114.758          49.000  
G26  23086706.888   121321466.619       -2560.162          40.000  
G09  22491626.052   118194285.791        -211.432          45.000  
E04  25618891.510   134628165.370       -2119.558          44.000  
E31  25262144.728   132753461.639        1276.091          46.000  
G08  22039492.205   115818312.458        2753.925          48.000  
E09  26012672.683   136697503.395         408.545          46.000  
G04  22238847.984   116865920.953       -2234.843          45.000  
E26  26554116.954                        1832.020          38.000  
E21  27644531.852                       -2094.380          31.000  
G07  24762189.722   130126179.399        3129.038          44.000  
J02  39978051.082   210086068.229         -50.421          47.000  
> 2023 12 06 08 59 08.7520000  0 14                     
S28  38986780.312                2        -17.169          32.000  
G16  21611694.571   113570221.383       -1872.548          46.000  
G27  20615310.625   108334181.855         115.065          49.000  
G26  23086767.813   121321786.744       -2561.293          41.000  
G09  22491631.079   118194312.307        -212.650          45.000  
E04  25618941.882   134628430.354       -2119.990          44.000  
E31  25262114.415   132753302.156        1275.771          46.000  
G08  22039426.686   115817968.178        2754.001          48.000  
E09  26012662.947   136697452.293         408.628          46.000  
G04  22238901.171   116866200.335       -2235.186          45.000  
E26  26554074.281                        1832.967          38.000  
E21  27644581.035                       -2097.157          31.000  
G07  24762115.035   130125788.130        3130.789          42.000  
J02  39978052.232   210086074.432         -49.681          47.000  
> 2023 12 06 08 59 08.8770000  0 14                     
S28  38986780.559                2        -11.189          32.000  
G16  21611739.109   113570455.387       -1872.256          47.000  
G27  20615307.923   108334167.542         114.172          49.000  
G26  23086828.754   121322106.928       -2560.942          41.000  
G09  22491636.120   118194338.806        -212.010          45.000  
E04  25618992.349   134628695.302       -2119.842          44.000  
E31  25262083.979   132753142.745        1275.062          46.000  
G08  22039361.197   115817623.959        2753.419          48.000  
E09  26012653.369   136697401.224         408.512          46.000  
G04  22238954.353   116866479.752       -2235.654          45.000  
E26  26554028.923                        1832.207          38.000  
E21  27644632.051                       -2094.814          31.000  
G07  24762040.872   130125396.916        3129.709          43.000  
J02  39978053.415   210086080.713         -50.630          48.000  
> 2023 12 06 08 59 09.0020000  0 14                     
S28  38986780.864                2        -11.447          35.000  
G16  21611783.665   113570689.467       -1872.652          46.000  
G27  20615305.174   108334153.196         114.851          48.000  
G26  23086889.689   121322427.050       -2561.688          41.000  
G09  22491641.180   118194365.268        -211.977          46.000  
E04  25619042.873   134628960.346       -2120.343          44.000  
E31  25262053.623   132752983.227        1276.383          46.000  
G08  22039295.709   115817279.732        2753.795          49.000  
E09  26012643.554   136697350.144         408.583          45.000  
G04  22239007.568   116866759.155       -2235.232          45.000  
E26  26553986.911                        1831.963          38.000  
E21  27644681.154                       -2095.106          31.000  
G07  24761966.402   130125005.683        3130.114          43.000  
J02  39978054.573   210086086.952         -49.943          47.000  
> 2023 12 06 08 59 09.1270000  0 14                     
S28  38986781.194                2        -13.121          35.000  
G16  21611828.200   113570923.479       -1872.230          47.000  
G27  20615302.471   108334138.903         113.868          49.000  
G26  23086950.656   121322747.299       -2562.997          39.000  
G09  22491646.239   118194391.843        -212.444          45.000  
E04  25619093.332   134629225.389       -2120.615          44.000  
E31  25262023.238   132752823.768        1275.647          46.000  
G08  22039230.224   115816935.616        2752.425          48.000  
E09  26012633.785   136697299.054         408.789          45.000  
G04  22239060.765   116867038.649       -2236.342          45.000  
E26  26553941.205   139541924.5491       1831.930          38.000  
E21  27644728.689                       -2095.229          31.000  
G07  24761892.135   130124614.328        3130.531          43.000  
J02  39978055.733   210086093.220         -50.410          47.000  
> 2023 12 06 08 59 09.2520000  0 14                     
S28  38986781.519                2        -12.805          32.000  
G16  21611872.738   113571157.490       -1872.010          46.000  
G27  20615299.742   108334124.606         114.702          49.000  
G26  23087011.538   121323067.213       -2558.376          41.000  
G09  22491651.262   118194418.286        -211.570          46.000  
E04  25619143.753   134629490.450       -2120.443          44.000  
E31  25261992.854   132752664.325        1275.475          46.000  
G08  22039164.740   115816591.457        2753.538          47.000  
E09  26012624.125   136697247.955         408.888          45.000  
G04  22239113.947   116867318.118       -2236.204          45.000  
E26  26553897.897   139541695.513        1832.194          38.000  
E21  27644779.667                       -2094.315          32.000  
G07  24761817.602   130124223.103        3129.804          43.000  
J02  39978056.895   210086099.449         -49.894          48.000  
> 2023 12 06 08 59 09.3770000  0 14                     
S28  38986781.914                2        -14.256          32.000  
G16  21611917.270   113571391.486       -1872.568          46.000  
G27  20615297.004   108334110.276         114.603          49.000  
G26  23087072.461                       -2562.196          39.000  
G09  22491656.310   118194444.840        -212.287          45.000  
E04  25619194.232   134629755.493       -2120.431          44.000  
E31  25261962.433   132752504.792        1276.342          46.000  
G08  22039099.237   115816247.300        2752.805          47.000  
E09  26012614.509   136697196.801         409.425          46.000  
G04  22239167.118   116867597.544       -2234.964          45.000  
E26  26553854.789   139541466.532        1832.032          39.000  
E21  27644829.118                       -2094.355          32.000  
G07  24761742.837   130123831.649        3131.541          42.000  
J02  39978058.089   210086105.703         -49.988          48.000  
> 2023 12 06 08 59 09.5020000  0 14                     
S28  38986782.199                2        -12.601          38.000  
G16  21611961.805   113571625.455       -1871.661          46.000  
G27  20615294.241   108334096.021         114.376          49.000  
G26  23087133.333                       -2560.618          41.000  
G09  22491661.355   118194471.325        -211.740          45.000  
E04  25619244.620   134630020.567       -2120.557          44.000  
E31  25261932.141   132752345.295        1276.045          46.000  
G08  22039033.762   115815903.205        2752.533          47.000  
E09  26012604.724   136697145.714         408.685          45.000  
G04  22239220.333   116867877.126       -2236.984          46.000  
E26  26553811.101   139541237.550        1831.913          38.000  
E21  27644881.774                       -2095.521          32.000  
G07  24761668.396   130123440.388        3129.167          44.000  
J02  39978059.257   210086111.920         -49.695          48.000  
> 2023 12 06 08 59 09.6270000  0 14                     
S28  38986782.506                2        -13.771          35.000  
G16  21612006.351   113571859.474       -1872.135          45.000  
G27  20615291.522   108334081.779         113.615          49.000  
G26  23087194.273   121324027.719       -2561.383          41.000  
G09  22491666.433   118194497.872        -212.181          45.000  
E04  25619295.071   134630285.664       -2121.029          43.000  
E31  25261901.851   132752185.822        1275.748          46.000  
G08  22038968.271   115815559.099        2752.414          47.000  
E09  26012595.033   136697094.628         408.740          45.000  
G04  22239273.484   116868156.563       -2235.415          45.000  
E26  26553767.936   139541008.569        1831.821          38.000  
E21  27644930.788                       -2094.771          31.000  
G07  24761593.920   130123049.003        3131.738          43.000  
J02  39978060.442   210086118.180         -50.197          48.000  
> 2023 12 06 08 59 09.7520000  0 14                     
S28  38986782.754                2        -11.543          35.000  
G16  21612050.918   113572093.512       -1872.105          45.000  
G27  20615288.794   108334067.524         113.880          49.000  
G26  23087255.147   121324347.697       -2560.305          40.000  
G09  22491671.489   118194524.406        -212.310          45.000  
E04  25619345.506   134630550.803       -2121.618          44.000  
E31  25261871.496   132752026.306        1276.053          47.000  
G08  22038902.769   115815215.037        2752.950          47.000  
E09  26012585.228   136697043.507         408.927          45.000  
G04  22239326.689   116868436.149       -2237.134          45.000  
E26  26553724.575   139540779.656        1830.430          38.000  
E21  27644979.055                       -2094.110          31.000  
G07  24761519.637   130122657.652        3130.265          43.000  
J02  39978061.639   210086124.421         -49.961          48.000  
> 2023 12 06 08 59 09.8770000  0 14                     
S28  38986783.123                2        -14.085          37.000  
G16  21612095.440   113572327.507       -1872.022          45.000  
G27  20615286.082   108334053.296         113.473          49.000  
G26  23087316.080                       -2561.031          40.000  
G09  22491676.564   118194550.961        -212.371          46.000  
E04  25619395.980   134630815.859       -2120.121          44.000  
E31  25261841.140   132751866.828        1275.746          47.000  
G08  22038837.295   115814870.887        2752.959          46.000  
E09  26012575.281   136696992.396         408.944          45.000  
G04  22239379.852   116868715.650       -2235.925          46.000  
E26  26553679.232                        1831.185          38.000  
E21  27645027.203                       -2096.040          31.000  
G07  24761445.120   130122266.267        3131.190          42.000  
J02  39978062.852   210086130.668         -50.052          48.000  
> 2023 12 06 08 59 10.0020000  0 14                     
S28  38986783.444                2        -12.190          39.000  
G16  21612140.001   113572561.526       -1872.188          46.000  
G27  20615283.402   108334039.050         113.840          49.000  
G26  23087376.969                       -2561.126          40.000  
G09  22491681.600   118194577.458        -211.809          45.000  
E04  25619446.440   134631080.950       -2120.963          43.000  
E31  25261810.722   132751707.297        1276.333          47.000  
G08  22038771.828   115814526.856        2752.689          47.000  
E09  26012565.620   136696941.317         408.535          45.000  
G04  22239433.051   116868995.173       -2236.607          44.000  
E26  26553637.942   139540321.727        1832.058          38.000  
E21  27645080.405                       -2095.832          31.000  
G07  24761370.634   130121874.884        3130.242          42.000  
J02  39978064.051   210086136.896         -49.818          48.000  
> 2023 12 06 08 59 10.1270000  0 14                     
S28  38986783.781                2        -14.109          39.000  
G16  21612184.548   113572795.599       -1872.860          46.000  
G27  20615280.720   108334024.853         113.256          49.000  
G26  23087437.940                       -2561.965          40.000  
G09  22491686.647   118194604.025        -212.427          46.000  
E04  25619496.866   134631346.004       -2120.060          43.000  
E31  25261780.345   132751547.756        1276.299          47.000  
G08  22038706.364   115814182.771        2751.857          47.000  
E09  26012555.881   136696890.132         409.560          45.000  
G04  22239486.245   116869274.718       -2237.099          44.000  
E26  26553593.102   139540092.902        1830.205          38.000  
E21  27645130.867                       -2093.826          35.000  
G07  24761296.153   130121483.446        3132.110          42.000  
J02  39978065.239   210086143.178         -50.408          48.000  
> 2023 12 06 08 59 10.2520000  0 14                     
S28  38986784.098                2        -11.521          35.000  
G16  21612229.094   113573029.647       -1872.332          46.000  
G27  20615278.058   108334010.715         113.052          49.000  
G26  23087498.837                       -2560.755          40.000  
G09  22491691.674   118194630.495        -211.877          45.000  
E04  25619547.389   134631611.195       -2121.917          44.000  
E31  25261749.908   132751388.225        1276.241          47.000  
G08  22038640.863   115813838.693        2752.542          46.000  
E09  26012545.979   136696838.993         409.207          44.000  
G04  22239539.432   116869554.232       -2235.836          45.000  
E26  26553551.553   139539864.049        1830.660          40.000  
E21  27645183.264                       -2098.137          31.000  
G07  24761221.686   130121092.055        3131.699          42.000  
J02  39978066.443   210086149.460         -50.465          48.000  
> 2023 12 06 08 59 10.3770000  0 15                     
S37  38199545.560                3        -29.266          37.000  
S28  38986784.432                2        -13.539          37.000  
G16  21612273.643   113573263.729       -1872.810          46.000  
G27  20615275.339   108333996.547         113.040          50.000  
G26  23087559.795                       -2564.728          38.000  
G09  22491696.753   118194657.026        -212.171          45.000  
E04  25619597.764   134631876.275       -2120.569          44.000  
E31  25261719.566   132751228.626        1277.002          47.000  
G08  22038575.440   115813494.696        2752.095          46.000  
E09  26012536.200   136696787.829         409.424          45.000  
G04  22239592.628   116869833.758       -2235.775          44.000  
E26  26553508.442   139539635.260        1829.999          40.000  
E21  27645229.006                       -2095.126          31.000  
G07  24761147.195   130120700.548        3132.177          42.000  
J02  39978067.637   210086155.760         -50.391          48.000  
> 2023 12 06 08 59 10.5020000  0 15                     
S37  38199546.352                2        -33.290          36.000  
S28  38986784.714                2        -14.533          38.000  
G16  21612318.191   113573497.837       -1873.088          46.000  
G27  20615272.653   108333982.412         112.711          49.000  
G26  23087620.699                       -2560.436          41.000  
G09  22491701.776   118194683.498        -211.836          45.000  
E04  25619648.245   134632141.271       -2119.900          43.000  
E31  25261689.245   132751069.024        1276.852          47.000  
G08  22038509.933   115813150.572        2752.714          46.000  
E09  26012526.519   136696736.637         409.525          44.000  
G04  22239645.838   116870113.315       -2236.580          44.000  
E26  26553466.736   139539406.488        1830.459          38.000  
E21  27645283.305                3      -2094.924          31.000  
G07  24761072.723   130120309.091        3131.574          42.000  
J02  39978068.845   210086162.064         -50.668          48.000  
> 2023 12 06 08 59 10.6270000  0 15                     
S37  38199547.170                3        -33.984          38.000  
S28  38986784.940                2         -9.548          37.000  
G16  21612362.720   113573731.923       -1872.509          46.000  
G27  20615269.963   108333968.248         113.237          49.000  
G26  23087681.679                       -2563.515          40.000  
G09  22491706.811   118194709.931        -211.239          45.000  
E04  25619698.701   134632406.377       -2121.032          41.000  
E31  25261658.929   132750909.418        1276.779          48.000  
G08  22038444.480   115812806.499        2752.412          47.000  
E09  26012516.699   136696685.442         409.586          44.000  
G04  22239699.035   116870392.842       -2236.613          43.000  
E26  26553421.499   139539177.693        1830.295          38.000  
E21  27645330.158                3      -2094.962          31.000  
G07  24760998.202   130119917.533        3132.422          42.000  
J02  39978070.010   210086168.350         -50.312          48.000  
> 2023 12 06 08 59 10.7520000  0 15                     
S37  38199547.955                2        -31.467          38.000  
S28  38986785.212                2        -12.723          35.000  
G16  21612407.285   113573966.111       -1873.740          46.000  
G27  20615267.320   108333954.156         112.675          49.000  
G26  23087742.637                       -2562.028          40.000  
G09  22491711.849   118194736.407        -211.924          46.000  
E04  25619749.238   134632671.466       -2120.874          43.000  
E31  25261628.537   132750749.772        1277.225          47.000  
G08  22038379.032   115812462.409        2752.603          48.000  
E09  26012506.855   136696634.210         409.751          44.000  
G04  22239752.211   116870672.316       -2235.759          44.000  
E26  26553376.489   139538949.014        1829.083          38.000  
E21  27645379.165                       -2096.280          31.000  
G07  24760923.732   130119526.093        3131.018          41.000  
J02  39978071.188   210086174.705         -51.459          48.000  
> 2023 12 06 08 59 10.8770000  0 15                     
S37  38199548.758                2        -30.730          38.000  
S28  38986785.570                2        -11.707          35.000  
G16  21612451.829   113574200.220       -1873.081          46.000  
G27  20615264.658   108333940.071         112.567          49.000  
G26  23087803.626                       -2564.214          38.000  
G09  22491716.909   118194762.835        -211.666          47.000  
E04  25619799.686   134632936.482       -2120.106          44.000  
E31  25261598.132   132750590.140        1277.187          47.000  
G08  22038313.543   115812118.331        2752.619          48.000  
E09  26012497.187   136696583.012         409.698          44.000  
G04  22239805.438   116870951.873       -2236.132          44.000  
E26  26553333.503   139538720.342        1829.476          38.000  
E21  27645429.536                       -2097.839          31.000  
G07  24760849.214   130119134.485        3133.107          42.000  
J02  39978072.387   210086181.010         -50.068          48.000  
> 2023 12 06 08 59 11.0020000  0 15                     
S37  38199549.521                2        -30.859          40.000  
S28  38986785.790                2        -10.812          35.000  
G16  21612496.358   113574434.339       -1872.717          45.000  
G27  20615262.002   108333925.935         113.147          49.000  
G26  23087864.545                       -2561.082          39.000  
G09  22491721.923   118194789.280        -211.660          45.000  
E04  25619850.078   134633201.519       -2120.533          44.000  
E31  25261567.773   132750430.476        1277.202          47.000  
G08  22038248.080   115811774.287        2752.288          47.000  
E09  26012487.392   136696531.722         410.572          44.000  
G04  22239858.653   116871231.363       -2236.470          44.000  
E26  26553289.859   139538491.651        1829.231          38.000  
E21  27645479.388                       -2096.034          30.000  
G07  24760774.666   130118742.887        3132.287          44.000  
J02  39978073.593   210086187.314         -50.778          48.000  
> 2023 12 06 08 59 11.1270000  0 15                     
S37  38199550.262                2        -30.508          40.000  
S28  38986786.131                2        -14.619          35.000  
G16  21612540.925   113574668.493       -1873.425          46.000  
G27  20615259.307   108333911.841         112.720          49.000  
G26  23087925.532   121327870.626       -2564.016          40.000  
G09  22491726.970   118194815.748        -211.800          45.000  
E04  25619900.456   134633466.537       -2119.768          42.000  
E31  25261537.485   132750270.824        1277.353          48.000  
G08  22038182.605   115811430.211        2752.150          48.000  
E09  26012477.587   136696480.548         409.173          44.000  
G04  22239911.805   116871510.820       -2235.635          44.000  
E26  26553246.476   139538262.967        1829.911          40.000  
E21  27645527.915                       -2093.458          30.000  
G07  24760700.162   130118351.323        3133.019          44.000  
J02  39978074.778   210086193.611         -50.541          48.000  
> 2023 12 06 08 59 11.2520000  0 15                     
S37  38199551.008   200739994.0173        -31.427          40.000  
S28  38986786.350                2         -9.620          35.000  
G16  21612585.492   113574902.618       -1872.992          45.000  
G27  20615256.632   108333897.813         112.114          49.000  
G26  23087986.522   121328190.950       -2562.713          41.000  
G09  22491732.001   118194842.201        -211.494          46.000  
E04  25619950.882   134633731.459       -2119.228          43.000  
E31  25261507.158   132750111.162        1277.206          47.000  
G08  22038117.133   115811086.142        2752.504          48.000  
E09  26012467.847   136696429.293         410.221          44.000  
G04  22239964.978   116871790.268       -2235.618          42.000  
E26  26553203.098   139538034.317        1828.722          40.000  
E21  27645578.449                       -2094.936          30.000  
G07  24760625.661   130117959.758        3131.988          43.000  
J02  39978075.970   210086199.930         -50.582          48.000  
> 2023 12 06 08 59 11.3770000  0 16                     
S37  38199551.796   200739997.9232        -31.546          40.000  
S28  38986786.674                2        -12.849          37.000  
G16  21612630.030   113575136.825       -1873.556          45.000  
G27  20615253.926   108333883.735         112.617          49.000  
J03  38512951.417                3        130.411          34.000  
G26  23088047.522   121328511.303       -2563.086          41.000  
G09  22491737.019   118194868.611        -211.632          47.000  
E04  25620001.335   134633996.692       -2121.507          40.000  
E31  25261476.853   132749951.474        1277.422          47.000  
G08  22038051.658   115810742.056        2753.016          46.000  
E09  26012458.074   136696378.051         409.739          43.000  
G04  22240018.197   116872069.803       -2237.325          43.000  
E26  26553159.914   139537805.726        1828.789          40.000  
E21  27645627.840                       -2096.899          30.000  
G07  24760551.139   130117568.170        3132.390          43.000  
J02  39978077.154   210086206.273         -50.766          48.000  
> 2023 12 06 08 59 11.5020000  0 16                     
S37  38199552.532   200740001.7502        -31.318          40.000  
S28  38986786.999                3        -11.753          31.000  
G16  21612674.567   113575370.990       -1873.558          46.000  
G27  20615251.236   108333869.694         112.326          49.000  
J03  38512951.777                3        130.411          34.000  
G26  23088108.470   121328831.702       -2564.033          40.000  
G09  22491742.057   118194895.089        -212.180          46.000  
E04  25620051.817   134634261.568       -2118.848          41.000  
E31  25261446.416   132749791.790        1277.353          47.000  
G08  22037986.221   115810398.063        2750.786          46.000  
E09  26012448.189   136696326.858         409.459          44.000  
G04  22240071.404   116872349.338       -2235.132          43.000  
E26  26553115.848   139537577.069        1828.958          40.000  
E21  27645677.904                       -2098.627          30.000  
G07  24760476.616   130117176.576        3132.785          41.000  
J02  39978078.365   210086212.612         -50.876          48.000  
> 2023 12 06 08 59 11.6270000  0 16                     
S37  38199553.281   200740005.5682        -31.240          39.000  
S28  38986787.439                3        -15.088          35.000  
G16  21612719.160   113575605.197       -1873.956          46.000  
G27  20615248.578   108333855.720         111.342          49.000  
J03  38512949.211                3        128.711          34.000  
G26  23088169.448   121329152.126       -2563.200          40.000  
G09  22491747.130   118194921.602        -212.456          46.000  
E04  25620102.179   134634526.692       -2121.204          42.000  
E31  25261416.054   132749632.184        1276.622          47.000  
G08  22037920.794   115810053.980        2752.700          46.000  
E09  26012438.326   136696275.668         409.266          44.000  
G04  22240124.582   116872628.837       -2235.964          44.000  
E26  26553071.903   139537348.467        1828.865          38.000  
E21  27645728.206                       -2095.212          34.000  
G07  24760402.144   130116785.076        3131.437          41.000  
J02  39978079.597   210086218.954         -50.935          48.000  
> 2023 12 06 08 59 11.7520000  0 16                     
S37  38199554.010   200740009.4232        -30.432          41.000  
S28  38986787.721                2        -10.203          36.000  
G16  21612763.734   113575839.441       -1873.797          46.000  
G27  20615245.854   108333841.683         112.260          49.000  
J03  38512948.936                3        130.273          34.000  
G26  23088230.385   121329472.448       -2562.557          38.000  
G09  22491752.183   118194948.121        -212.153          46.000  
E04  25620152.637   134634791.776       -2120.320          42.000  
E31  25261385.569   132749472.575        1276.748          47.000  
G08  22037855.319   115809709.973        2752.421          45.000  
E09  26012428.661   136696224.525         409.292          44.000  
G04  22240177.765   116872908.441       -2237.754          45.000  
E26  26553029.352   139537119.825        1829.330          38.000  
E21  27645778.370                       -2096.801          33.000  
G07  24760327.637   130116393.496        3132.868          41.000  
J02  39978080.830   210086225.287         -50.476          48.000  
> 2023 12 06 08 59 11.8770000  0 16                     
S37  38199554.718   200740013.2222        -30.585          39.000  
S28  38986788.001                2        -14.486          38.000  
G16  21612808.300   113576073.639       -1873.662          46.000  
G27  20615243.201   108333827.678         112.084          49.000  
J03  38512944.804                2        128.503          35.000  
G26  23088291.419   121329792.927       -2564.327          38.000  
G09  22491757.224   118194974.626        -212.117          45.000  
E04  25620203.051   134635056.900       -2121.327          43.000  
E31  25261355.105   132749312.910        1277.540          48.000  
G08  22037789.826   115809365.845        2753.102          45.000  
E09  26012418.865   136696173.322         409.666          45.000  
G04  22240230.942   116873187.839       -2234.461          43.000  
E26  26552986.424   139536891.202        1828.853          38.000  
E21  27645826.184                3      -2094.850          30.000  
G07  24760253.150   130116001.967        3131.890          42.000  
J02  39978082.040   210086231.634         -50.862          48.000  
> 2023 12 06 08 59 12.0020000  0 16                     
S37  38199555.432   200740017.0302        -31.135          41.000  
S28  38986788.213                2        -10.063          38.000  
G16  21612852.889   113576307.861       -1874.119          46.000  
G27  20615240.502   108333813.627         112.275          49.000  
J03  38512941.115                2        130.189          35.000  
G26  23088352.365   121330113.225       -2562.677          41.000  
G09  22491762.272   118195001.152        -212.578          46.000  
E04  25620253.501   134635321.803       -2118.939          41.000  
E31  25261324.750   132749153.252        1277.167          47.000  
G08  22037724.345   115809021.728        2752.242          45.000  
E09  26012409.172   136696122.155         409.316          45.000  
G04  22240284.200   116873467.402       -2237.210          44.000  
E26  26552942.064   139536662.545        1829.293          38.000  
E21  27645879.454                3      -2095.173          29.000  
G07  24760178.653   130115610.459        3131.970          41.000  
J02  39978083.252   210086237.913         -50.270          48.000  
> 2023 12 06 08 59 12.1270000  0 17                     
S37  38199556.114                2        -29.715          41.000  
S28  38986788.537                2        -12.449          38.000  
G16  21612897.454   113576542.061       -1874.006          46.000  
E13  27714056.601                3       -613.098          28.000  
G27  20615237.820   108333799.616         111.930          50.000  
J03  38512938.989                2        131.029          34.000  
G26  23088413.336   121330433.524       -2562.305          40.000  
G09  22491767.324   118195027.714        -212.748          46.000  
E04  25620303.885   134635586.807       -2120.370          43.000  
E31  25261294.442   132748993.711        1275.913          47.000  
G08  22037658.902   115808677.774        2750.488          43.000  
E09  26012399.596   136696071.094         408.095          45.000  
G04  22240337.398   116873746.919       -2236.988          43.000  
E26  26552898.584   139536433.856        1829.568          38.000  
E21  27645929.757                       -2095.913          29.000  
G07  24760104.174   130115218.998        3131.065          41.000  
J02  39978084.445   210086244.236         -50.627          48.000  
> 2023 12 06 08 59 12.2520000  0 17                     
S37  38199556.838                2        -30.752          39.000  
S28  38986788.847                2        -11.273          41.000  
G16  21612942.025   113576776.270       -1873.756          46.000  
E13  27714070.688                1       -609.351          28.000  
G27  20615235.166   108333785.619         112.184          50.000  
J03  38512935.683                2        130.846          35.000  
G26  23088474.310   121330753.919       -2563.927          40.000  
G09  22491772.397   118195054.389        -213.829          46.000  
E04  25620354.291   134635851.843       -2120.176          41.000  
E31  25261264.185   132748834.182        1276.147          47.000  
G08  22037593.421   115808333.561        2754.344          42.000  
E09  26012390.004   136696020.102         407.645          45.000  
G04  22240390.577   116874026.381       -2236.721          43.000  
E26  26552854.322   139536205.115        1829.845          38.000  
E21  27645980.134                3      -2093.856          29.000  
G07  24760029.710   130114827.649        3130.755          42.000  
J02  39978085.630   210086250.526         -50.605          48.000  
> 2023 12 06 08 59 12.3770000  0 17                     
S37  38199557.531                2        -28.805          39.000  
S28  38986789.177                2        -12.809          41.000  
G16  21612986.571   113577010.466       -1873.754          47.000  
E13  27714084.408                        -609.705          29.000  
G27  20615232.516   108333771.593         112.191          50.000  
J03  38512931.816                2        130.361          35.000  
G26  23088535.259   121331074.241       -2562.597          38.000  
G09  22491777.457   118195081.022        -212.813          46.000  
E04  25620404.704   134636116.780       -2119.632          40.000  
E31  25261233.778   132748674.621        1276.309          46.000  
G08  22037527.953   115807989.544        2751.898          44.000  
E09  26012380.232   136695969.098         408.093          45.000  
G04  22240443.771   116874305.932       -2236.218          44.000  
E26  26552810.809   139535976.376        1830.033          38.000  
E21  27646029.525                3      -2097.440          29.000  
G07  24759955.221   130114436.260        3131.047          42.000  
J02  39978086.807   210086256.795         -50.164          48.000  
> 2023 12 06 08 59 12.5020000  0 17                     
S37  38199558.262                2        -28.765          41.000  
S28  38986789.462                2        -11.016          41.000  
G16  21613031.153   113577244.688       -1873.781          47.000  
E13  27714098.493                        -612.041          29.000  
G27  20615229.882   108333757.591         111.894          49.000  
J03  38512928.296                2        132.082          35.000  
G26  23088596.194   121331394.526       -2562.086          40.000  
G09  22491782.546   118195107.758        -214.408          45.000  
E04  25620455.177   134636381.978       -2121.581          44.000  
E31  25261203.546   132748515.160        1275.301          47.000  
G08  22037462.530   115807645.574        2751.586          42.000  
E09  26012370.559   136695918.128         407.514          46.000  
G04  22240496.989   116874585.505       -2236.389          44.000  
E26  26552767.328   139535747.579        1830.532          38.000  
E21  27646079.614                       -2095.066          29.000  
G07  24759880.760   130114044.917        3130.702          42.000  
J02  39978087.949   210086263.037         -49.974          48.000  
> 2023 12 06 08 59 12.6270000  0 17                     
S37  38199558.968                2        -29.594          39.000  
S28  38986789.777                2        -14.220          41.000  
G16  21613075.697   113577478.882       -1873.496          47.000  
E13  27714112.241                        -612.073          29.000  
G27  20615227.229   108333743.565         112.205          49.000  
J03  38512924.574                2        130.000          35.000  
G26  23088657.109   121331714.726       -2561.662          40.000  
G09  22491787.657   118195134.502        -214.211          45.000  
E04  25620505.552   134636647.002       -2120.115          43.000  
E31  25261173.115   132748355.732        1275.169          46.000  
G08  22037397.043   115807301.456        2752.929          44.000  
E09  26012360.960   136695867.232         407.158          45.000  
G04  22240550.235   116874865.136       -2238.231          46.000  
E26  26552723.830   139535518.748        1830.590          40.000  
E21  27646131.163                       -2096.550          29.000  
G07  24759806.321   130113653.690        3129.735          42.000  
J02  39978089.119   210086269.296         -50.132          48.000  
> 2023 12 06 08 59 12.7520000  0 17                     
S37  38199559.715   200740039.1102        -29.636          39.000  
S28  38986790.054                2        -12.592          41.000  
G16  21613120.263   113577713.084       -1873.495          47.000  
E13  27714122.656                        -612.043          29.000  
G27  20615224.606   108333729.589         111.742          49.000  
J03  38512920.843                2        134.005          35.000  
G26  23088718.056   121332035.005       -2562.047          40.000  
G09  22491792.761   118195161.347        -215.085          45.000  
E04  25620555.958   134636912.150       -2121.193          43.000  
E31  25261142.793   132748196.337        1274.972          46.000  
G08  22037331.545   115806957.354        2752.833          42.000  
E09  26012351.243   136695816.396         406.381          45.000  
G04  22240603.442   116875144.693       -2236.291          44.000  
E26  26552679.776   139535289.888        1831.073          40.000  
E21  27646180.242                       -2094.881          29.000  
G07  24759731.865   130113262.492        3129.718          42.000  
J02  39978090.319   210086275.528         -49.630          48.000  
> 2023 12 06 08 59 12.8770000  0 17                     
S37  38199560.417   200740042.6752        -28.817          41.000  
S28  38986790.381   204876965.6213        -13.182          41.000  
G16  21613164.818   113577947.258       -1873.612          46.000  
E13  27714141.003                        -610.135          33.000  
G27  20615221.987   108333715.579         112.031          49.000  
J03  38512917.010                2        133.605          35.000  
G26  23088778.979   121332355.206       -2561.552          40.000  
G09  22491797.901   118195188.235        -215.185          45.000  
E04  25620606.463   134637177.356       -2121.847          44.000  
E31  25261112.509   132748036.963        1275.024          46.000  
G08  22037266.097   115806613.415        2750.989          44.000  
E09  26012341.515   136695765.586         406.526          45.000  
G04  22240656.680   116875424.377       -2237.581          45.000  
E26  26552636.328   139535060.917        1832.084          40.000  
E21  27646228.602                       -2092.950          29.000  
G07  24759657.389   130112871.332        3129.220          43.000  
J02  39978091.526   210086281.737         -49.397          47.000  
> 2023 12 06 08 59 13.0020000  0 17                     
S37  38199561.104   200740046.2702        -29.174          41.000  
S28  38986790.706   204876967.2842        -13.347          42.000  
G16  21613209.357   113578181.417       -1873.078          47.000  
E13  27714150.878                        -610.268          33.000  
G27  20615219.324   108333701.553         112.231          50.000  
J03  38512914.768                3        134.229          32.000  
G26  23088839.910   121332675.333       -2560.607          40.000  
G09  22491802.999   118195215.177        -215.795          46.000  
E04  25620656.925   134637442.416       -2120.678          43.000  
E31  25261082.274   132747877.657        1274.014          46.000  
G08  22037200.603   115806269.338        2753.257          44.000  
E09  26012332.030   136695714.863         405.463          46.000  
G04  22240709.905   116875703.980       -2237.040          45.000  
E26  26552592.968   139534831.991        1831.304          40.000  
E21  27646275.726                3      -2092.814          29.000  
G07  24759582.975   130112480.219        3129.087          41.000  
J02  39978092.710   210086287.937         -49.684          47.000  
> 2023 12 06 08 59 13.1270000  0 17                     
S37  38199561.810   200740049.8642        -29.277          41.000  
S28  38986790.956   204876968.7862        -12.121          40.000  
G16  21613253.906   113578415.548       -1873.065          47.000  
E13  27714168.487                        -609.582          34.000  
G27  20615216.666   108333687.561         111.852          49.000  
J03  38512911.467                3        138.031          35.000  
G26  23088900.858   121332995.462       -2561.099          40.000  
G09  22491808.126   118195242.119        -215.682          45.000  
E04  25620707.430   134637707.679       -2122.621          45.000  
E31  25261051.900   132747718.382        1274.020          46.000  
G08  22037135.201   115805925.434        2750.781          44.000  
E09  26012322.336   136695664.182         405.126          46.000  
G04  22240763.169   116875983.772       -2238.342          45.000  
E26  26552549.722   139534602.962        1832.687          39.000  
E21  27646326.238                3      -2093.684          29.000  
G07  24759508.560   130112089.131        3129.020          42.000  
J02  39978093.904   210086294.083         -49.249          47.000  
> 2023 12 06 08 59 13.2520000  0 17                     
S37  38199562.534   200740053.4722        -28.589          39.000  
S28  38986791.310                2        -12.498          41.000  
G16  21613298.457   113578649.672       -1873.110          47.000  
E13  27714181.926                        -610.602          34.000  
G27  20615213.964   108333673.520         112.040          50.000  
J03  38512907.827                3        133.887          35.000  
G26  23088961.765   121333315.523       -2560.592          40.000  
G09  22491813.287   118195269.133        -216.553          45.000  
E04  25620757.836   134637972.880       -2121.587          44.000  
E31  25261021.620   132747559.113        1274.038          46.000  
G08  22037069.683   115805581.325        2753.030          40.000  
E09  26012312.625   136695613.538         404.761          45.000  
G04  22240816.373   116876263.420       -2237.018          44.000  
E26  26552506.052   139534373.863        1833.025          39.000  
E21  27646378.119                3      -2094.587          28.000  
G07  24759434.163   130111698.109        3128.370          43.000  
J02  39978095.102   210086300.218         -49.207          47.000  
> 2023 12 06 08 59 13.3770000  0 17                     
S37  38199563.197   200740056.9562        -28.507          42.000  
S28  38986791.604                2        -14.549          39.000  
G16  21613342.990   113578883.779       -1873.305          47.000  
E13  27714197.306                        -610.198          34.000  
G27  20615211.280   108333659.519         111.823          49.000  
J03  38512904.322                3        134.271          36.000  
G26  23089022.660   121333635.513       -2559.959          40.000  
G09  22491818.421   118195296.241        -217.088          46.000  
E04  25620808.292   134638238.184       -2122.816          44.000  
E31  25260991.400   132747399.931        1272.986          46.000  
G08  22037004.272   115805237.611        2748.906          41.000  
E09  26012303.089   136695562.954         404.085          45.000  
G04  22240869.673   116876543.321       -2239.570          45.000  
E26  26552462.624   139534144.849        1831.823          37.000  
E21  27646430.104                3      -2093.713          28.000  
G07  24759359.753   130111307.087        3127.934          43.000  
J02  39978096.271   210086306.341         -49.195          47.000  
> 2023 12 06 08 59 13.5020000  0 17                     
S37  38199563.894   200740060.5382        -29.156          40.000  
S28  38986791.952                2        -15.201          42.000  
G16  21613387.553   113579117.848       -1872.459          47.000  
E13  27714210.090                        -608.097          34.000  
G27  20615208.625   108333645.521         111.926          49.000  
J03  38512900.688                2        132.047          38.000  
G26  23089083.536   121333955.509       -2559.582          40.000  
G09  22491823.618   118195323.443        -217.867          46.000  
E04  25620858.700   134638503.467       -2122.028          43.000  
E31  25260961.135   132747240.783        1272.911          46.000  
G08  22036938.785                        2751.128          44.000  
E09  26012293.484   136695512.396         404.338          45.000  
G04  22240922.936   116876823.064       -2237.968          45.000  
E26  26552419.000   139533915.637        1833.889          37.000  
E21  27646479.244                1      -2093.396          28.000  
G07  24759285.371   130110916.194        3126.563          43.000  
J02  39978097.425   210086312.434         -48.632          47.000  
> 2023 12 06 08 59 13.6270000  0 17                     
S37  38199564.565   200740063.9782        -27.292          38.000  
S28  38986792.281                2        -11.730          40.000  
G16  21613432.086   113579351.890       -1872.511          46.000  
E13  27714223.385                        -610.346          34.000  
G27  20615205.968   108333631.476         112.360          49.000  
J03  38512896.643                2        134.518          38.000  
G26  23089144.409   121334275.382       -2559.130          40.000  
G09  22491828.763   118195350.572        -217.374          45.000  
E04  25620909.143   134638768.729       -2122.482          43.000  
E31  25260930.711   132747081.635        1273.227          46.000  
G08  22036873.366   115804549.774        2749.921          44.000  
E09  26012283.761   136695461.904         403.842          45.000  
G04  22240976.189   116877102.925       -2239.223          46.000  
E26  26552375.395   139533686.450        1833.668          37.000  
E21  27646528.053                       -2092.015          29.000  
G07  24759210.988   130110525.286        3127.013          43.000  
J02  39978098.605   210086318.503         -48.669          47.000  
> 2023 12 06 08 59 13.7520000  0 17                     
S37  38199565.269   200740067.5522        -29.838          38.000  
S28  38986792.645                2        -14.704          40.000  
G16  21613476.632   113579585.945       -1872.473          46.000  
E13  27714239.724                        -606.928          34.000  
G27  20615203.281   108333617.472         112.027          49.000  
J03  38512891.926                2        134.480          36.000  
G26  23089205.278   121334595.301       -2559.288          40.000  
G09  22491833.961   118195377.846        -218.425          45.000  
E04  25620959.623   134639034.153       -2124.094          44.000  
E31  25260900.480   132746922.573        1272.247          46.000  
G08  22036807.891   115804205.782        2752.196          43.000  
E09  26012274.180   136695411.497         403.017          45.000  
G04  22241029.449   116877382.815       -2238.809          45.000  
E26  26552331.798   139533457.128        1835.064          39.000  
E21  27646578.983                       -2089.839          29.000  
G07  24759136.628   130110134.467        3126.715          43.000  
J02  39978099.787   210086324.546         -48.428          48.000  
> 2023 12 06 08 59 13.8770000  0 17                     
S37  38199565.853                2        -27.917          40.000  
S28  38986792.982                2        -14.520          41.000  
G16  21613521.149   113579819.905       -1871.738          46.000  
E13  27714252.304                        -608.883          34.000  
G27  20615200.603   108333603.428         112.256          49.000  
J03  38512889.307                2        131.713          36.000  
G26  23089266.136   121334915.117       -2558.319          40.000  
G09  22491839.162   118195405.089        -218.098          45.000  
E04  25621010.081   134639299.471       -2122.382          43.000  
E31  25260870.204   132746763.503        1272.439          46.000  
G08  22036742.462   115803862.015        2750.181          44.000  
E09  26012264.676   136695361.082         403.177          45.000  
G04  22241082.706   116877662.721       -2239.706          45.000  
E26  26552288.199   139533227.871        1834.264          38.000  
E21  27646626.118                       -2091.880          29.000  
G07  24759062.239   130109743.609        3126.942          42.000  
J02  39978100.899   210086330.539         -47.852          48.000  
> 2023 12 06 08 59 14.0020000  0 17                     
S37  38199566.571                2        -27.372          38.000  
S28  38986793.303                2        -15.252          41.000  
G16  21613565.681   113580053.917       -1871.721          46.000  
E13  27714270.894                        -607.749          36.000  
G27  20615197.907   108333589.401         112.109          49.000  
J03  38512886.679                2        135.030          40.000  
G26  23089327.003   121335234.968       -2558.611          40.000  
G09  22491844.375   118195432.419        -219.146          45.000  
E04  25621060.641   134639564.876       -2123.460          43.000  
E31  25260839.921   132746604.445        1272.204          46.000  
G08  22036677.004   115803517.988        2752.953          43.000  
E09  26012255.041   136695310.683         402.723          46.000  
G04  22241136.000   116877942.591       -2239.073          45.000  
E26  26552244.647   139532998.584        1834.468          38.000  
E21  27646675.341                       -2091.739          29.000  
G07  24758987.898   130109352.801        3126.329          42.000  
J02  39978102.026   210086336.560         -48.243          48.000  
> 2023 12 06 08 59 14.1270000  0 17                     
S37  38199567.221                2        -26.321          38.000  
S28  38986793.615   204876982.8142        -13.552          40.000  
G16  21613610.199   113580287.924       -1872.031          46.000  
E13  27714284.229                        -607.937          36.000  
G27  20615195.241   108333575.405         111.844          49.000  
J03  38512884.479                2        133.358          38.000  
G26  23089387.838   121335554.703       -2557.191          42.000  
G09  22491849.588   118195459.743        -219.030          47.000  
E04  25621111.158   134639830.299       -2123.708          44.000  
E31  25260809.622   132746445.450        1271.704          46.000  
G08  22036611.645   115803174.256        2749.775          44.000  
E09  26012245.325   136695260.307         402.594          46.000  
G04  22241189.280   116878222.573       -2239.638          45.000  
E26  26552201.002   139532769.224        1834.820          38.000  
E21  27646726.175                       -2088.492          33.000  
G07  24758913.532   130108961.976        3126.316          42.000  
J02  39978103.157   210086342.537         -47.729          47.000  
> 2023 12 06 08 59 14.2520000  0 17                     
S37  38199567.907                2        -29.038          38.000  
S28  38986794.017   204876984.8072        -16.797          41.000  
G16  21613654.705   113580521.841       -1871.162          46.000  
E13  27714297.871                        -608.377          33.000  
G27  20615192.568   108333561.354         112.276          50.000  
J03  38512881.254                2        136.336          38.000  
G26  23089448.685   121335874.456       -2558.063          40.000  
G09  22491854.776   118195487.105        -219.290          46.000  
E04  25621161.689   134640095.739       -2123.968          44.000  
E31  25260779.295   132746286.417        1272.111          46.000  
G08  22036546.203   115802830.450        2750.194          45.000  
E09  26012235.817   136695209.986         402.494          45.000  
G04  22241242.544   116878502.547       -2240.219          45.000  
E26  26552157.343   139532539.918        1834.270          38.000  
E21  27646773.441                       -2089.853          33.000  
G07  24758839.183   130108571.168        3125.708          43.000  
J02  39978104.283   210086348.516         -48.191          47.000  
> 2023 12 06 08 59 14.3770000  0 17                     
S37  38199568.515                2        -27.383          40.000  
S28  38986794.375   204876986.6562        -15.392          41.000  
G16  21613699.202   113580755.808       -1871.838          46.000  
E13  27714310.761                3       -608.930          33.000  
G27  20615189.947   108333547.336         111.915          50.000  
J03  38512877.980                2        133.904          35.000  
G26  23089509.544   121336194.195       -2557.995          40.000  
G09  22491859.984   118195514.509        -219.437          46.000  
E04  25621212.190   134640361.219       -2124.055          44.000  
E31  25260749.120   132746127.448        1271.594          46.000  
G08  22036480.801   115802486.703        2749.755          46.000  
E09  26012226.272   136695159.677         402.453          45.000  
G04  22241295.839   116878782.578       -2240.592          45.000  
E26  26552113.712   139532310.471        1835.783          38.000  
E21  27646822.421                       -2092.409          28.000  
G07  24758764.815   130108180.426        3125.291          43.000  
J02  39978105.437   210086354.444         -47.299          47.000  
> 2023 12 06 08 59 14.5020000  0 17                     
S37  38199569.162                2        -26.945          41.000  
S28  38986794.730   204876988.5542        -15.215          40.000  
G16  21613743.738   113580989.708       -1871.071          46.000  
E13  27714322.720                3       -607.592          29.000  
G27  20615187.287   108333533.355         112.019          50.000  
J03  38512874.315                2        134.440          35.000  
G26  23089570.396   121336513.863       -2557.255          40.000  
G09  22491865.232   118195541.969        -220.181          46.000  
E04  25621262.799   134640626.703       -2124.030          44.000  
E31  25260718.848   132745968.515        1271.285          46.000  
G08  22036415.370   115802142.902        2749.988          46.000  
E09  26012216.626   136695109.430         401.728          45.000  
G04  22241349.135   116879062.656       -2241.523          45.000  
E26  26552070.030   139532081.061        1835.190          38.000  
E21  27646872.923                       -2090.070          28.000  
G07  24758690.499   130107789.788        3124.829          42.000  
J02  39978106.555   210086360.401         -47.944          47.000  
> 2023 12 06 08 59 14.6270000  0 17                     
S37  38199569.854                2        -27.252          38.000  
S28  38986795.104   204876990.4982        -14.084          40.000  
G16  21613788.282   113581223.665       -1871.618          46.000  
E13  27714336.320                        -608.514          29.000  
G27  20615184.677   108333519.335         112.039          49.000  
J03  38512871.607                3        134.229          38.000  
G26  23089631.234   121336833.483       -2556.366          42.000  
G09  22491870.456   118195569.449        -219.855          45.000  
E04  25621313.261   134640892.207       -2124.090          44.000  
E31  25260688.602   132745809.619        1271.139          46.000  
G08  22036349.974   115801799.151        2749.997          45.000  
E09  26012207.082   136695059.186         401.932          45.000  
G04  22241402.399   116879342.622       -2239.372          45.000  
E26  26552026.337   139531851.638        1835.144          38.000  
E21  27646924.926                       -2087.955          28.000  
G07  24758616.136   130107398.954        3126.779          43.000  
J02  39978107.678   210086366.316         -47.268          48.000  
> 2023 12 06 08 59 14.7520000  0 17                     
S37  38199570.543                2        -30.140          38.000  
S28  38986795.474   204876992.4282        -16.066          42.000  
G16  21613832.790   113581457.565       -1871.134          46.000  
E13  27714351.468                        -606.951          29.000  
G27  20615182.041   108333505.318         111.912          50.000  
J03  38512868.960                2        136.556          36.000  
G26  23089692.052   121337153.170       -2557.435          42.000  
G09  22491875.677   118195596.977        -220.273          46.000  
E04  25621363.789   134641157.748       -2124.638          44.000  
E31  25260658.386   132745650.700        1271.127          46.000  
G08  22036284.564   115801455.401        2750.116          46.000  
E09  26012197.503   136695008.981         401.133          45.000  
G04  22241455.695   116879622.771       -2241.588          45.000  
E26  26551982.669   139531622.146        1835.796          38.000  
E21  27646979.433                3      -2082.528          28.000  
G07  24758541.814   130107008.296        3124.663          43.000  
J02  39978108.801   210086372.214         -47.124          47.000  
> 2023 12 06 08 59 14.8770000  0 17                     
S37  38199571.136                2        -26.510          38.000  
S28  38986795.858   204876994.4152        -15.472          41.000  
G16  21613877.304   113581691.481       -1871.196          46.000  
E13  27714369.322                        -607.095          33.000  
G27  20615179.352   108333491.372         111.255          49.000  
J03  38512866.117                3        146.338          35.000  
G26  23089752.867   121337472.787       -2557.331          42.000  
G09  22491880.909   118195624.538        -220.621          46.000  
E04  25621414.382   134641423.360       -2124.764          44.000  
E31  25260628.205   132745491.851        1270.546          46.000  
G08  22036219.161   115801111.742        2748.709          45.000  
E09  26012187.880   136694958.849         400.860          45.000  
G04  22241508.990   116879902.916       -2241.281          45.000  
E26  26551938.963   139531392.689        1835.347          37.000  
E21  27647028.500                3      -2088.678          28.000  
G07  24758467.464   130106617.661        3125.494          43.000  
J02  39978109.935   210086378.118         -47.118          48.000  
> 2023 12 06 08 59 15.0020000  0 18                     
S37  38199571.806                2        -28.668          35.000  
S28  38986796.241   204876996.4672        -17.141          40.000  
G16  21613921.792   113581925.395       -1871.477          46.000  
E13  27714383.370                        -608.614          33.000  
G27  20615176.734   108333477.363         111.965          49.000  
J03  38512863.453                3        132.959          38.000  
G18  25063424.886                3       -777.109          25.000  
G26  23089813.721   121337792.356       -2556.412          42.000  
G09  22491886.198   118195652.180        -221.682          45.000  
E04  25621464.942   134641688.920       -2124.855          44.000  
E31  25260597.973   132745333.009        1270.541          46.000  
G08  22036153.752   115800768.041        2749.490          47.000  
E09  26012178.224   136694908.739         400.720          45.000  
G04  22241562.280   116880183.033       -2241.327          45.000  
E26  26551895.330   139531163.184        1836.082          38.000  
E21  27647074.590                3      -2089.033          28.000  
G07  24758393.162   130106227.084        3123.735          44.000  
J02  39978111.094   210086384.051         -47.469          47.000  
> 2023 12 06 08 59 15.1270000  0 17                     
S37  38199572.469                2        -28.772          33.000  
S28  38986796.600   204876998.4762        -15.586          40.000  
G16  21613966.306   113582159.303       -1871.420          46.000  
E13  27714397.799                        -607.000          33.000  
G27  20615174.115   108333463.417         111.594          49.000  
J03  38512859.846                2        133.884          35.000  
G26  23089874.561   121338112.002       -2557.556          39.000  
G09  22491891.440   118195679.779        -221.152          45.000  
E04  25621515.465   134641954.561       -2125.709          44.000  
E31  25260567.674   132745174.208        1270.583          45.000  
G08  22036088.383   115800424.409        2749.183          47.000  
E09  26012168.676   136694858.641         400.686          44.000  
G04  22241615.598   116880463.220       -2241.718          45.000  
E26  26551851.720   139530933.707        1835.431          38.000  
E21  27647122.895                       -2087.202          28.000  
G07  24758318.823   130105836.415        3125.824          43.000  
J02  39978112.204   210086389.909         -47.012          48.000  
> 2023 12 06 08 59 15.2520000  0 17                     
S37  38199573.100                2        -26.434          40.000  
S28  38986796.988   204877000.5542        -17.552          40.000  
G16  21614010.808   113582393.174       -1871.063          46.000  
E13  27714414.789                        -606.118          36.000  
G27  20615171.463   108333449.446         111.532          50.000  
J03  38512856.356                2        132.564          35.000  
G26  23089935.369   121338431.553       -2555.968          41.000  
G09  22491896.687   118195707.418        -221.313          45.000  
E04  25621565.972   134642220.193       -2125.304          44.000  
E31  25260537.411   132745015.371        1270.332          45.000  
G08  22036022.988   115800080.810        2748.296          47.000  
E09  26012159.123   136694808.519         400.846          45.000  
G04  22241668.901   116880743.387       -2241.662          45.000  
E26  26551808.111   139530704.142        1836.306          38.000  
E21  27647174.421                       -2089.670          28.000  
G07  24758244.502   130105445.796        3124.855          43.000  
J02  39978113.306   210086395.812         -47.345          47.000  
> 2023 12 06 08 59 15.3770000  0 17                     
S37  38199573.760                2        -28.229          35.000  
S28  38986797.382   204877002.5692        -15.620          41.000  
G16  21614055.308   113582627.077       -1871.357          46.000  
E13  27714427.241                        -608.768          33.000  
G27  20615168.790   108333435.478         111.692          50.000  
J03  38512853.370                2        136.625          35.000  
G26  23089996.211   121338751.115       -2555.924          41.000  
G09  22491901.965   118195735.081        -221.313          45.000  
E04  25621616.476   134642485.781       -2124.311          44.000  
E31  25260507.153   132744856.588        1270.196          45.000  
G08  22035957.579   115799737.099        2750.182          45.000  
E09  26012149.535   136694758.425         400.524          46.000  
G04  22241722.267   116881023.647       -2242.525          46.000  
E26  26551764.439   139530474.636        1836.215          38.000  
E21  27647221.791                       -2086.983          32.000  
G07  24758170.182   130105055.133        3124.887          41.000  
J02  39978114.419   210086401.674         -47.022          47.000  
> 2023 12 06 08 59 15.5020000  0 17                     
S37  38199574.411                2        -27.100          35.000  
S28  38986797.753   204877004.6652        -17.563          42.000  
G16  21614099.798   113582860.913       -1870.743          46.000  
E13  27714442.659                        -606.040          36.000  
G27  20615166.148   108333421.550         111.129          50.000  
J03  38512850.246                2        136.961          35.000  
G26  23090057.005   121339070.641       -2556.126          41.000  
G09  22491907.209   118195762.757        -221.535          46.000  
E04  25621667.117   134642751.553       -2126.959          45.000  
E31  25260476.942   132744697.748        1270.677          46.000  
G08  22035892.218   115799393.579        2747.649          47.000  
E09  26012140.133   136694708.365         400.477          46.000  
G04  22241775.581   116881303.810       -2241.590          46.000  
E26  26551720.834   139530245.079        1837.030          38.000  
E21  27647270.678                       -2088.923          32.000  
G07  24758095.839   130104664.553        3124.596          41.000  
J02  39978115.542   210086407.532         -46.951          48.000  
> 2023 12 06 08 59 15.6270000  0 18                     
S37  38199575.096                2        -27.309          37.000  
S28  38986798.132   204877006.6352        -14.871          40.000  
G16  21614144.323   113583094.847       -1871.409          46.000  
E13  27714456.412                        -607.214          36.000  
G27  20615163.473   108333407.601         111.609          49.000  
J03  38512846.413                2        136.241          32.000  
G18  25063520.994                3       -774.109          26.000  
G26  23090117.836   121339390.191       -2556.084          40.000  
G09  22491912.474   118195790.454        -221.502          46.000  
E04  25621717.626   134643017.180       -2125.088          43.000  
E31  25260446.740   132744538.989        1269.943          46.000  
G08  22035826.827   115799049.995        2748.525          47.000  
E09  26012130.764   136694658.334         400.287          46.000  
G04  22241828.902   116881584.078       -2241.904          45.000  
E26  26551677.130   139530015.613        1835.355          37.000  
E21  27647321.381                       -2087.866          32.000  
G07  24758021.514   130104274.009        3125.092          40.000  
J02  39978116.657   210086413.403         -46.853          47.000  
> 2023 12 06 08 59 15.7520000  0 18                     
S37  38199575.780                2        -27.919          37.000  
S28  38986798.590   204877008.8792        -18.294          40.000  
G16  21614188.842   113583328.691       -1870.918          46.000  
E13  27714471.502                        -607.919          33.000  
G27  20615160.809   108333393.722         110.893          49.000  
J03  38512842.899                2        131.566          27.000  
G18  25063537.699                3       -778.382          25.000  
G26  23090178.665   121339709.768       -2556.334          41.000  
G09  22491917.795   118195818.222        -222.458          46.000  
E04  25621768.274   134643282.857       -2125.838          45.000  
E31  25260416.547   132744380.218        1270.172          46.000  
G08  22035761.437   115798706.430        2748.389          47.000  
E09  26012121.142   136694608.299         400.046          46.000  
G04  22241882.246   116881864.394       -2242.677          45.000  
E26  26551633.471   139529786.038        1836.623          37.000  
E21  27647371.409                3      -2085.876          28.000  
G07  24757947.198   130103883.438        3124.806          40.000  
J02  39978117.803   210086419.266         -47.080          48.000  
> 2023 12 06 08 59 15.8770000  0 17                     
S37  38199576.431                2        -25.913          38.000  
S28  38986798.949   204877010.9252        -16.003          40.000  
G16  21614233.360   113583562.569       -1871.134          46.000  
E13  27714484.050                        -606.286          33.000  
G27  20615158.110   108333379.801         111.405          49.000  
G18  25063552.618                3       -776.331          26.000  
G26  23090239.444   121340029.252       -2556.359          41.000  
G09  22491923.085   118195846.011        -222.859          46.000  
E04  25621818.811   134643548.595       -2125.262          42.000  
E31  25260386.324   132744221.479        1269.909          46.000  
G08  22035696.070   115798362.926        2747.477          47.000  
E09  26012111.641   136694558.325         399.536          46.000  
G04  22241935.600   116882144.672       -2242.466          46.000  
E26  26551589.745   139529556.519        1836.141          38.000  
E21  27647421.781                3      -2088.034          28.000  
G07  24757872.886   130103492.855        3124.911          40.000  
J02  39978118.910   210086425.128         -46.887          48.000  
> 2023 12 06 08 59 16.0020000  0 17                     
S37  38199577.089                2        -28.344          40.000  
S28  38986799.383   204877013.1252        -17.640          40.000  
G16  21614277.872   113583796.471       -1871.424          45.000  
E13  27714499.585                        -606.976          33.000  
G27  20615155.470   108333365.903         110.975          49.000  
G18  25063571.880                2       -775.333          26.000  
G26  23090300.255   121340348.801       -2556.312          41.000  
G09  22491928.364   118195873.727        -221.960          46.000  
E04  25621869.391   134643814.408       -2126.835          45.000  
E31  25260356.078   132744062.744        1269.833          46.000  
G08  22035630.678   115798019.394        2748.323          47.000  
E09  26012102.222   136694508.317         399.870          45.000  
G04  22241988.934   116882425.000       -2243.316          45.000  
E26  26551546.096   139529326.977        1836.554          38.000  
E21  27647475.242                1      -2089.093          28.000  
G07  24757798.580   130103102.288        3124.736          42.000  
J02  39978120.066   210086431.003         -47.173          48.000  
> 2023 12 06 08 59 16.1270000  0 17                     
S37  38199577.736                2        -27.270          39.000  
S28  38986799.761   204877015.1752        -16.021          42.000  
G16  21614322.352   113584030.279       -1870.469          46.000  
E13  27714514.278                        -605.731          33.000  
G27  20615152.808   108333352.009         111.140          50.000  
G18  25063591.231                3       -782.378          26.000  
G26  23090361.038   121340668.266       -2555.885          40.000  
G09  22491933.655   118195901.517        -221.975          46.000  
E04  25621920.051   134644080.092       -2125.853          44.000  
E31  25260325.804   132743903.976        1270.130          46.000  
G08  22035565.281   115797675.839        2748.131          46.000  
E09  26012092.722   136694458.333         399.493          45.000  
G04  22242042.279   116882705.312       -2242.616          46.000  
E26  26551502.441   139529097.425        1836.543          38.000  
E21  27647520.047                       -2086.198          28.000  
G07  24757724.242   130102711.744        3125.000          42.000  
J02  39978121.172   210086436.787         -46.283          47.000  
> 2023 12 06 08 59 16.2520000  0 17                     
S37  38199578.421                2        -30.104          37.000  
S28  38986800.187                2        -16.998          40.000  
G16  21614366.863   113584264.096       -1870.283          45.000  
E13  27714525.885                        -606.590          33.000  
G27  20615150.132   108333338.090         111.207          50.000  
G18  25063610.007                3       -782.867          26.000  
G26  23090421.857   121340987.715       -2555.504          41.000  
G09  22491938.988   118195929.351        -222.927          46.000  
E04  25621970.617   134644345.913       -2126.936          44.000  
E31  25260295.544   132743745.258        1269.632          46.000  
G08  22035499.902   115797332.384        2747.125          46.000  
E09  26012083.061   136694408.373         399.600          45.000  
G04  22242095.637   116882985.643       -2242.253          44.000  
E26  26551458.713   139528867.872        1836.674          38.000  
E21  27647567.688                       -2088.908          28.000  
G07  24757649.924   130102321.188        3125.203          40.000  
J02  39978122.290   210086442.597         -46.575          47.000  
> 2023 12 06 08 59 16.3770000  0 17                     
S37  38199579.045                2        -24.865          37.000  
S28  38986800.633   204877019.6102        -18.821          43.000  
G16  21614411.365   113584497.929       -1870.832          46.000  
E13  27714542.420                        -605.988          36.000  
G27  20615147.505   108333324.240         110.582          49.000  
G18  25063628.166                3       -783.356          25.000  
G26  23090482.658   121341307.167       -2556.042          42.000  
G09  22491944.281   118195957.204        -223.342          46.000  
E04  25622021.260   134644611.724       -2127.048          43.000  
E31  25260265.314   132743586.586        1269.022          46.000  
G08  22035434.542   115796988.932        2747.604          46.000  
E09  26012073.573   136694358.433         399.288          45.000  
G04  22242149.034   116883266.069       -2243.866          44.000  
E26  26551415.016   139528638.300        1836.030          38.000  
E21  27647618.484                       -2086.914          28.000  
G07  24757575.644   130101930.664        3123.528          40.000  
J02  39978123.412   210086448.428         -46.594          47.000  
> 2023 12 06 08 59 16.5020000  0 17                     
S37  38199579.720                2        -29.889          35.000  
S28  38986801.041                2        -17.264          41.000  
G16  21614455.866   113584731.806       -1870.951          46.000  
E13  27714555.253                        -606.343          36.000  
G27  20615144.854   108333310.341         111.261          49.000  
G18  25063646.401                3       -776.831          25.000  
G26  23090543.426   121341626.602       -2555.936          42.000  
G09  22491949.551   118195985.106        -223.485          45.000  
E04  25622071.839   134644877.522       -2126.409          44.000  
E31  25260235.048   132743427.905        1269.244          46.000  
G08  22035369.175   115796645.477        2747.206          47.000  
E09  26012063.993   136694308.545         398.808          44.000  
G04  22242202.397   116883546.493       -2243.165          45.000  
E26  26551371.370   139528408.682        1837.035          38.000  
E21  27647670.222                       -2086.846          28.000  
G07  24757501.339   130101540.209        3122.980          40.000  
J02  39978124.546   210086454.214         -46.542          47.000  
> 2023 12 06 08 59 16.6270000  0 17                     
S37  38199580.394                2        -26.963          39.000  
S28  38986801.469   204877024.0892        -18.819          41.000  
G16  21614500.395   113584965.588       -1870.451          46.000  
E13  27714568.980                        -605.804          36.000  
G27  20615142.233   108333296.493         110.740          49.000  
G18  25063667.024                3       -765.508          25.000  
G26  23090604.157   121341945.959       -2555.210          40.000  
G09  22491954.888   118196013.080        -224.405          45.000  
E04  25622122.430   134645143.384       -2126.823          43.000  
E31  25260204.851   132743269.276        1268.840          46.000  
G08  22035303.835   115796302.033        2747.643          46.000  
E09  26012054.414   136694258.710         398.490          44.000  
G04  22242255.751   116883826.919       -2244.125          45.000  
E26  26551327.612   139528179.029        1837.130          38.000  
E21  27647717.351                       -2086.478          29.000  
G07  24757427.019   130101149.684        3124.233          40.000  
J02  39978125.687   210086460.005         -46.272          47.000  
> 2023 12 06 08 59 16.7520000  0 17                     
S37  38199581.033                2        -27.382          41.000  
S28  38986801.867   204877026.3332        -18.473          42.000  
G16  21614544.910   113585199.375       -1870.347          46.000  
E13  27714587.917                        -605.040          36.000  
G27  20615139.572   108333282.616         111.374          49.000  
G18  25063685.385                3       -770.564          25.000  
G26  23090664.916   121342265.278       -2554.144          40.000  
G09  22491960.189   118196041.029        -223.751          45.000  
E04  25622173.019   134645409.279       -2127.347          43.000  
E31  25260174.572   132743110.697        1268.504          46.000  
G08  22035238.513   115795958.681        2746.360          46.000  
E09  26012044.995   136694208.894         398.387          45.000  
G04  22242309.083   116884107.399       -2243.473          43.000  
E26  26551283.942   139527949.376        1837.547          38.000  
E21  27647766.136                       -2086.415          29.000  
G07  24757352.730   130100759.241        3123.545          41.000  
J02  39978126.791   210086465.760         -46.016          48.000  
> 2023 12 06 08 59 16.8770000  0 18                     
S37  38199581.713                1        -27.820          39.000  
S28  38986802.306   204877028.6652        -18.219          42.000  
G16  21614589.387   113585433.162       -1870.305          46.000  
E13  27714600.896                        -606.346          33.000  
G27  20615136.966   108333268.758         110.620          49.000  
J03  38512814.931                3        133.650          33.000  
G18  25063703.962                3       -772.834          25.000  
G26  23090725.719   121342584.641       -2554.850          40.000  
G09  22491965.552   118196069.079        -224.410          45.000  
E04  25622223.631   134645675.256       -2127.662          43.000  
E31  25260144.454   132742952.115        1268.468          46.000  
G08  22035173.162   115795615.317        2746.840          46.000  
E09  26012035.739   136694159.123         398.001          45.000  
G04  22242362.482   116884387.972       -2244.930          44.000  
E26  26551240.260   139527719.656        1837.597          38.000  
E21  27647814.448                       -2085.756          33.000  
G07  24757278.441   130100368.819        3122.681          39.000  
J02  39978127.904   210086471.519         -46.005          47.000  
> 2023 12 06 08 59 17.0020000  0 17                     
S37  38199582.381                         -27.590          39.000  
S28  38986802.748   204877031.0652        -19.372          42.000  
G16  21614633.835   113585666.924       -1870.136          46.000  
E13  27714614.876                        -605.242          34.000  
G27  20615134.340   108333254.910         110.784          49.000  
G18  25063723.781                3       -771.423          25.000  
G26  23090786.486   121342903.921       -2554.349          42.000  
G09  22491970.866   118196097.202        -225.428          45.000  
E04  25622274.242   134645941.208       -2127.827          44.000  
E31  25260114.370   132742793.573        1268.236          46.000  
G08  22035107.840   115795271.978        2746.748          47.000  
E09  26012026.225   136694109.403         397.549          44.000  
G04  22242415.859   116884668.531       -2244.611          46.000  
E26  26551196.560   139527489.921        1837.478          38.000  
E21  27647866.275                       -2085.473          33.000  
G07  24757204.167   130099978.455        3121.847          39.000  
J02  39978128.996   210086477.247         -45.605          47.000  
> 2023 12 06 08 59 17.1270000  0 17                     
S37  38199583.011   200740159.8211        -26.276          37.000  
S28  38986803.183   204877033.4082        -18.911          42.000  
G16  21614678.296   113585900.635       -1869.499          46.000  
E13  27714629.835                        -604.471          36.000  
G27  20615131.741   108333241.049         110.927          49.000  
G18  25063742.388                3       -776.948          25.000  
G26  23090847.230   121343223.138       -2553.796          42.000  
G09  22491976.221   118196125.285        -224.769          44.000  
E04  25622324.886   134646207.215       -2128.263          44.000  
E31  25260084.301   132742635.069        1268.002          47.000  
G08  22035042.466   115794928.638        2746.988          46.000  
E09  26012016.710   136694059.737         397.167          44.000  
G04  22242469.255   116884949.092       -2245.073          45.000  
E26  26551152.753   139527260.130        1837.983          38.000  
E21  27647917.656                       -2085.562          33.000  
G07  24757129.902   130099588.096        3122.845          39.000  
J02  39978130.091   210086482.948         -45.523          48.000  
> 2023 12 06 08 59 17.2520000  0 17                     
S37  38199583.644   200740163.141         -26.985          35.000  
S28  38986803.654   204877035.8312        -19.248          42.000  
G16  21614722.772   113586134.395       -1870.473          46.000  
E13  27714639.234                        -604.804          36.000  
G27  20615129.112   108333227.180         110.822          50.000  
G18  25063760.510                3       -773.481          25.000  
G26  23090907.968   121343542.342       -2553.476          41.000  
G09  22491981.615   118196153.484        -225.960          45.000  
E04  25622375.447   134646473.218       -2128.810          43.000  
E31  25260054.238   132742476.593        1267.524          47.000  
G08  22034977.129   115794585.324        2746.222          47.000  
E09  26012007.310   136694010.044         397.260          44.000  
G04  22242522.633   116885229.701       -2244.138          43.000  
E26  26551109.042   139527030.375        1838.299          38.000  
E21  27647965.038                       -2085.021          32.000  
G07  24757055.619   130099197.748        3123.051          39.000  
J02  39978131.178   210086488.657         -45.844          48.000  
> 2023 12 06 08 59 17.3770000  0 17                     
S37  38199584.286   200740166.614         -27.758          35.000  
S28  38986804.133   204877038.2092        -19.606          44.000  
G16  21614767.251   113586368.108       -1869.868          46.000  
E13  27714650.921   145641487.9001       -605.913          33.000  
G27  20615126.451   108333213.335         110.531          50.000  
G18  25063780.555                3       -772.509          25.000  
G26  23090968.727   121343861.567       -2553.293          41.000  
G09  22491986.972   118196181.638        -225.769          45.000  
E04  25622425.921   134646739.216       -2127.498          42.000  
E31  25260024.024   132742318.114        1267.827          47.000  
G08  22034911.814   115794242.036        2746.862          47.000  
E09  26011997.821   136693960.429         396.890          44.000  
G04  22242576.066   116885510.378       -2246.622          46.000  
E26  26551065.320   139526800.531        1838.113          39.000  
E21  27648015.966                       -2086.141          32.000  
G07  24756981.329   130098807.420        3122.570          39.000  
J02  39978132.241   210086494.329         -45.358          48.000  
> 2023 12 06 08 59 17.5020000  0 17                     
S37  38199584.944   200740169.944         -26.050          37.000  
S28  38986804.551   204877040.5832        -18.882          44.000  
G16  21614811.747   113586601.870       -1870.425          47.000  
E13  27714673.888   145641563.482        -604.668          36.000  
G27  20615123.803   108333199.491         110.948          49.000  
G18  25063798.346                3       -770.783          25.000  
G26  23091029.469   121344180.811       -2554.714          40.000  
G09  22491992.356   118196209.872        -225.942          44.000  
E04  25622476.522   134647005.232       -2128.334          42.000  
E31  25259993.955   132742159.663        1267.668          47.000  
G08  22034846.479   115793898.741        2745.916          47.000  
E09  26011988.158   136693910.830         396.652          44.000  
G04  22242629.442   116885790.954       -2244.468          45.000  
E26  26551021.598   139526570.698        1839.164          39.000  
E21  27648066.756                       -2085.640          28.000  
G07  24756907.058   130098417.199        3121.035          39.000  
J02  39978133.288   210086500.022         -45.575          48.000  
> 2023 12 06 08 59 17.6270000  0 17                     
S37  38199585.608   200740173.337         -27.237          39.000  
S28  38986805.009   204877042.9812        -19.275          44.000  
G16  21614856.203   113586835.554       -1869.675          46.000  
E13  27714685.556   145641639.198        -606.438          36.000  
G27  20615121.130   108333185.662         110.410          49.000  
G18  25063815.136                3       -775.721          25.000  
G26  23091090.203   121344500.006       -2553.289          40.000  
G09  22491997.724   118196238.065        -225.883          44.000  
E04  25622527.296   134647271.297       -2128.600          44.000  
E31  25259963.794   132742001.196        1267.768          47.000  
G08  22034781.156   115793555.455        2746.060          47.000  
E09  26011978.764   136693861.211         396.811          44.000  
G04  22242682.852   116886071.592       -2245.761          45.000  
E26  26550977.904   139526340.925        1837.882          39.000  
E21  27648117.438                       -2084.593          29.000  
G07  24756832.774   130098026.844        3123.313          37.000  
J02  39978134.338   210086505.693         -45.526          48.000  
> 2023 12 06 08 59 17.7520000  0 17                     
S37  38199586.262   200740176.669         -26.671          37.000  
S28  38986805.494   204877045.4592        -19.971          43.000  
G16  21614900.692   113587069.352       -1870.753          46.000  
E13  27714704.306   145641714.836        -604.882          36.000  
G27  20615118.487   108333171.862         110.444          49.000  
G18  25063829.889                3       -778.199          24.000  
G26  23091150.973   121344819.235       -2554.027          40.000  
G09  22492003.073   118196266.320        -226.202          44.000  
E04  25622577.931   134647537.321       -2128.700          44.000  
E31  25259933.750   132741842.804        1266.981          47.000  
G08  22034715.811   115793212.150        2746.334          46.000  
E09  26011969.422   136693811.639         396.279          44.000  
G04  22242736.265   116886352.260       -2245.342          45.000  
E26  26550934.229   139526111.100        1838.925          39.000  
E21  27648166.376                       -2085.112          32.000  
G07  24756758.520   130097636.664        3121.071          37.000  
J02  39978135.393   210086511.416         -46.055          48.000  
> 2023 12 06 08 59 17.8770000  0 17                     
S37  38199586.915   200740180.103         -27.442          39.000  
S28  38986805.984   204877047.4441        -20.179          44.000  
G16  21614945.163   113587303.054       -1869.528          45.000  
E13  27714718.546   145641790.424        -604.841          34.000  
G27  20615115.883   108333158.083         109.998          49.000  
G18  25063847.665                3       -777.331          25.000  
G26  23091211.713   121345138.400       -2552.944          40.000  
G09  22492008.453   118196294.616        -226.505          45.000  
E04  25622628.626   134647803.455       -2129.229          44.000  
E31  25259903.665   132741684.381        1267.106          48.000  
G08  22034650.517   115792868.996        2745.212          47.000  
E09  26011960.008   136693762.133         395.811          44.000  
G04  22242789.705   116886633.000       -2246.591          45.000  
E26  26550890.522   139525881.280        1838.371          39.000  
E21  27648215.007                       -2085.754          28.000  
G07  24756684.257                        3119.733          39.000  
J02  39978136.475   210086517.075         -44.964          48.000  
> 2023 12 06 08 59 18.0020000  0 18                     
S37  38199587.563   200740183.536         -27.262          38.000  
S28  38986806.449   204877049.843         -19.296          43.000  
G16  21614989.629   113587536.781       -1869.977          45.000  
E13  27714729.321                        -604.612          34.000  
G27  20615113.247   108333144.236         111.020          48.000  
J03  38512785.561                2        136.790          34.000  
G18  25063869.856                3       -777.507          24.000  
G26  23091272.455   121345457.575       -2554.278          38.000  
G09  22492013.831   118196322.921        -226.390          44.000  
E04  25622679.270   134648069.476       -2128.074          44.000  
E31  25259873.508   132741525.966        1267.377          47.000  
G08  22034585.182   115792525.709        2746.151          47.000  
E09  26011950.464   136693712.578         396.100          44.000  
G04  22242843.129   116886913.673       -2245.105          42.000  
E26  26550846.768   139525651.445        1838.880          39.000  
E21  27648264.894                       -2084.623          28.000  
G07  24756609.976                        3122.006          38.000  
J02  39978137.578   210086522.712         -45.131          48.000  
> 2023 12 06 08 59 18.1270000  0 18                     
S37  38199588.213   200740186.874         -27.022          38.000  
S28  38986806.926   204877052.331         -19.970          42.000  
G16  21615034.099   113587770.486       -1869.586          45.000  
E13  27714742.446                        -605.412          34.000  
G27  20615110.632   108333130.467         109.703          48.000  
J03  38512782.278                2        137.572          39.000  
G18  25063887.823                3       -773.651          24.000  
G26  23091333.185   121345776.709       -2552.872          40.000  
G09  22492019.221   118196351.268        -226.931          44.000  
E04  25622730.028   134648335.676       -2130.179          44.000  
E31  25259843.387   132741367.630        1266.483          47.000  
G08  22034519.872   115792182.520        2745.460          46.000  
E09  26011941.065   136693663.080         395.811          43.000  
G04  22242896.583   116887194.414       -2246.341          44.000  
E26  26550802.998   139525421.556        1839.147          39.000  
E21  27648314.809                       -2084.712          28.000  
G07  24756535.777                        3120.351          38.000  
J02  39978138.704   210086528.383         -45.478          47.000  
> 2023 12 06 08 59 18.2520000  0 18                     
S37  38199588.898   200740190.316         -27.675          38.000  
S28  38986807.420   204877054.829         -20.287          42.000  
G16  21615078.567   113588004.238       -1870.143          45.000  
E13  27714758.346   145642017.188        -605.099          36.000  
G27  20615107.948   108333116.683         110.180          48.000  
J03  38512779.004                2        136.435          38.000  
G18  25063905.018                3       -778.674          25.000  
G26  23091393.928   121346095.849       -2553.541          40.000  
G09  22492024.604   118196379.654        -227.228          45.000  
E04  25622780.562   134648601.706       -2128.344          43.000  
E31  25259813.253   132741209.276        1266.747          46.000  
G08  22034454.538   115791839.300        2745.681          46.000  
E09  26011931.594   136693613.622         395.655          43.000  
G04  22242950.006   116887475.151       -2246.066          44.000  
E26  26550759.336   139525191.732        1838.442          39.000  
E21  27648363.505                       -2087.069          32.000  
G07  24756461.546                        3121.835          40.000  
J02  39978139.781   210086534.042         -45.492          47.000  
> 2023 12 06 08 59 18.3770000  0 18                     
S37  38199589.527   200740193.595         -25.860          38.000  
S28  38986807.899   204877057.294         -19.836          43.000  
G16  21615123.049   113588237.991       -1870.160          46.000  
E13  27714773.458   145642092.881        -605.361          38.000  
G27  20615105.296   108333102.910         110.199          48.000  
J03  38512775.756                2        136.404          36.000  
G18  25063922.238                2       -774.455          31.000  
G26  23091454.658   121346415.009       -2553.445          40.000  
G09  22492030.014   118196408.039        -227.366          45.000  
E04  25622831.249   134648867.878       -2129.482          44.000  
E31  25259783.156   132741050.919        1266.740          47.000  
G08  22034389.256   115791496.107        2745.656          46.000  
E09  26011922.086   136693564.152         395.681          43.000  
G04  22243003.401   116887755.873       -2245.537          43.000  
E26  26550715.699   139524961.812        1839.424          39.000  
E21  27648415.347                       -2083.403          32.000  
G07  24756387.303                        3119.978          41.000  
J02  39978140.857   210086539.689         -45.132          46.000  
> 2023 12 06 08 59 18.5020000  0 18                     
S37  38199590.189   200740196.948         -27.113          38.000  
S28  38986808.403   204877059.790         -19.938          42.000  
G16  21615167.548   113588471.724       -1870.067          46.000  
E13  27714787.373   145642168.480        -605.005          38.000  
G27  20615102.665   108333089.174         109.663          48.000  
J03  38512772.491                2        136.965          36.000  
G18  25063937.641                2       -777.601          30.000  
G26  23091515.404   121346734.151       -2552.894          40.000  
G09  22492035.434   118196436.437        -227.287          45.000  
E04  25622881.902   134649133.955       -2128.555          44.000  
E31  25259752.917   132740892.543        1267.059          46.000  
G08  22034323.918   115791152.906        2745.417          47.000  
E09  26011912.748   136693514.717         395.424          44.000  
G04  22243056.833   116888036.683       -2247.030          44.000  
E26  26550671.997   139524732.041        1837.712          39.000  
E21  27648463.194                       -2085.736          32.000  
G07  24756313.052                        3121.666          40.000  
J02  39978141.961   210086545.351         -45.408          46.000  
> 2023 12 06 08 59 18.6270000  0 18                     
S37  38199590.879   200740200.379         -27.521          38.000  
S28  38986808.879   204877062.295         -20.002          41.000  
G16  21615212.033   113588705.485       -1870.140          45.000  
E13  27714801.324   145642244.153        -605.393          38.000  
G27  20615100.062   108333075.422         110.151          48.000  
J03  38512769.210                2        137.451          38.000  
G18  25063956.697                2       -775.268          30.000  
G26  23091576.149   121347053.353       -2553.336          40.000  
G09  22492040.853   118196464.822        -227.316          46.000  
E04  25622932.552   134649400.155       -2129.757          42.000  
E31  25259722.820   132740734.243        1266.236          46.000  
G08  22034258.624   115790809.732        2745.760          46.000  
E09  26011903.371   136693465.261         395.700          44.000  
G04  22243110.256   116888317.429       -2245.402          42.000  
E26  26550628.245   139524502.161        1839.370          39.000  
E21  27648509.323                       -2084.079          32.000  
G07  24756238.828   130094905.260        3120.720          40.000  
J02  39978143.049   210086551.012         -45.180          47.000  
> 2023 12 06 08 59 18.7520000  0 19                     
S37  38199591.520   200740203.752         -27.086          38.000  
S28  38986809.355   204877064.765         -19.675          42.000  
G16  21615256.539   113588939.267       -1870.331          45.000  
E13  27714815.380   145642319.807        -605.330          38.000  
G27  20615097.459   108333061.699         109.640          48.000  
J03  38512765.953   202385951.1283        137.704          38.000  
G18  25063976.172                2       -776.532          34.000  
G26  23091636.882   121347372.495       -2553.190          40.000  
G09  22492046.259   118196493.230        -227.558          46.000  
E04  25622983.198   134649666.251       -2128.880          44.000  
E31  25259692.513   132740575.898        1266.847          46.000  
G31  24579036.637                3      -3211.141          30.000  
G08  22034193.324   115790466.546        2744.841          45.000  
E09  26011893.889   136693415.814         395.632          44.000  
G04  22243163.696   116888598.213       -2246.327          43.000  
E26  26550584.479   139524272.373        1837.520          37.000  
E21  27648558.595                       -2085.928          32.000  
G07  24756164.561   130094515.037        3121.899          40.000  
J02  39978144.126   210086556.673         -45.444          47.000  
> 2023 12 06 08 59 18.8770000  0 18                     
S37  38199592.167   200740207.159         -27.456          38.000  
S28  38986809.805   204877067.248         -19.919          43.000  
G16  21615301.028   113589172.972       -1869.868          45.000  
E13  27714831.183   145642395.446        -604.908          38.000  
G27  20615094.881   108333047.962         109.768          48.000  
J03  38512762.730   202385934.0922        135.942          36.000  
G18  25063993.434                2       -776.199          34.000  
G26  23091697.625   121347691.667       -2553.327          40.000  
G09  22492051.659   118196521.610        -227.230          45.000  
E04  25623033.779   134649932.339       -2128.419          43.000  
E31  25259662.380   132740417.539        1267.015          46.000  
G08  22034128.029   115790123.393        2745.771          46.000  
E09  26011884.486   136693366.370         395.408          44.000  
G04  22243217.081   116888878.942       -2245.792          43.000  
E26  26550540.805   139524042.475        1839.690          39.000  
E21  27648610.463                       -2083.797          33.000  
G07  24756090.301   130094124.871        3121.820          38.000  
J02  39978145.201   210086562.297         -44.968          46.000  
> 2023 12 06 08 59 19.0020000  0 18                     
S37  38199592.804   200740210.559         -27.399          38.000  
S28  38986810.257   204877069.692         -19.957          42.000  
G16  21615345.535   113589406.743       -1870.566          45.000  
E13  27714845.513   145642471.128        -605.532          38.000  
G27  20615092.315   108333034.218         109.885          48.000  
J03  38512759.511   202385916.9962        137.738          38.000  
G18  25064011.510                2       -776.130          34.000  
G26  23091758.370   121348010.830       -2553.463          40.000  
G09  22492057.038   118196550.007        -226.943          45.000  
E04  25623084.384   134650198.504       -2129.519          43.000  
E31  25259632.204   132740259.153        1266.994          46.000  
G08  22034062.697   115789780.192        2744.889          46.000  
E09  26011875.213   136693316.935         395.313          45.000  
G04  22243270.525   116889159.784       -2247.271          43.000  
E26  26550497.085   139523812.656        1838.171          39.000  
E21  27648661.652                       -2083.857          32.000  
G07  24756016.082   130093734.691        3120.938          40.000  
J02  39978146.237   210086567.940         -45.188          46.000  
> 2023 12 06 08 59 19.1270000  0 18                     
S37  38199593.439   200740213.903         -27.178          38.000  
S28  38986810.747   204877072.213         -20.268          42.000  
G16  21615390.021   113589640.476       -1869.689          45.000  
E13  27714861.872   145642546.791        -605.395          38.000  
G27  20615089.705   108333020.550         109.221          49.000  
J03  38512756.279   202385899.9162        136.049          38.000  
G18  25064027.503                2       -775.892          34.000  
G26  23091819.114   121348329.956       -2552.915          40.000  
G09  22492062.469   118196578.439        -227.481          45.000  
E04  25623134.928   134650464.638       -2128.791          43.000  
E31  25259602.075   132740100.843        1266.387          46.000  
G08  22033997.380   115789437.049        2745.270          46.000  
E09  26011865.750   136693267.498         395.523          44.000  
G04  22243323.989   116889440.551       -2246.333          43.000  
E26  26550453.372   139523582.878        1837.779          39.000  
E21  27648707.857                       -2085.497          32.000  
G07  24755941.817   130093344.424        3122.361          40.000  
J02  39978147.312   210086573.595         -45.247          47.000  
> 2023 12 06 08 59 19.2520000  0 18                     
S37  38199594.112   200740217.356         -27.861          36.000  
S28  38986811.194   204877074.656         -19.772          42.000  
G16  21615434.510   113589874.265       -1870.309          45.000  
E13  27714875.071   145642622.521        -606.051          38.000  
G27  20615087.097   108333006.865         109.302          48.000  
J03  38512753.084   202385882.8252        136.938          40.000  
G18  25064047.620                2       -777.633          34.000  
G26  23091879.840   121348649.189       -2554.042          40.000  
G09  22492067.923   118196606.915        -227.619          46.000  
E04  25623185.641   134650730.880       -2130.359          44.000  
E31  25259571.860   132739942.499        1266.750          46.000  
G08  22033932.067   115789093.894        2744.993          46.000  
E09  26011856.331   136693218.098         395.199          44.000  
G04  22243377.423   116889721.374       -2246.645          44.000  
E26  26550409.677   139523353.082        1838.446          37.000  
E21  27648756.994                       -2084.177          32.000  
G07  24755867.590                        3121.934          41.000  
J02  39978148.372   210086579.255         -45.321          47.000  
> 2023 12 06 08 59 19.3770000  0 18                     
S37  38199594.773   200740220.756         -26.903          36.000  
S28  38986811.683   204877077.178         -20.219          41.000  
G16  21615478.998   113590108.052       -1869.990          44.000  
E13  27714887.016   145642698.251        -605.725          38.000  
G27  20615084.487   108332993.202         109.115          48.000  
J03  38512749.874   202385865.2411        135.846          39.000  
G18  25064065.464                2       -777.194          36.000  
G26  23091940.566   121348968.380       -2553.758          40.000  
G09  22492073.327   118196635.367        -227.687          46.000  
E04  25623236.301   134650996.982       -2128.540          43.000  
E31  25259541.795   132739784.160        1266.586          47.000  
G08  22033866.776   115788750.760        2744.939          46.000  
E09  26011847.106   136693168.706         394.996          44.000  
G04  22243430.854   116890002.180       -2246.906          44.000  
E26  26550365.931   139523123.260        1838.213          37.000  
E21  27648805.081                       -2085.190          32.000  
G07  24755793.313                        3122.738          40.000  
J02  39978149.433   210086584.923         -45.434          47.000  
> 2023 12 06 08 59 19.5020000  0 18                     
S37  38199595.392   200740224.095         -27.081          38.000  
S28  38986812.164   204877079.602         -19.179          42.000  
G16  21615523.521   113590341.842       -1870.274          45.000  
E13  27714901.700   145642773.976        -605.585          37.000  
G27  20615081.887   108332979.512         109.274          48.000  
J03  38512746.645   202385848.174         137.062          38.000  
G18  25064085.760                2       -777.214          36.000  
G26  23092001.293   121349287.546       -2552.954          42.000  
G09  22492078.725   118196663.818        -227.809          45.000  
E04  25623286.913   134651263.194       -2130.044          44.000  
E31  25259511.649   132739625.790        1266.880          47.000  
G08  22033801.501   115788407.598        2745.646          45.000  
E09  26011837.714   136693119.261         395.454          44.000  
G04  22243484.301   116890282.976       -2246.253          44.000  
E26  26550322.254   139522893.520        1838.016          37.000  
E21  27648853.852                       -2084.720          32.000  
G07  24755719.037                        3122.064          39.000  
J02  39978150.482   210086590.555         -45.034          46.000  
> 2023 12 06 08 59 19.6270000  0 18                     
S37  38199596.026   200740227.446         -26.560          40.000  
S28  38986812.632   204877082.105         -20.205          43.000  
G16  21615567.994   113590575.638       -1870.463          45.000  
E13  27714916.238   145642849.655        -606.067          37.000  
G27  20615079.320   108332965.880         108.885          48.000  
J03  38512743.389   202385831.014         137.527          38.000  
G18  25064105.083                2       -777.668          36.000  
G26  23092062.076   121349606.760       -2553.797          42.000  
G09  22492084.187   118196692.284        -227.791          44.000  
E04  25623337.702   134651529.306       -2128.915          44.000  
E31  25259481.508   132739467.465        1266.512          46.000  
G08  22033736.180   115788064.504        2744.452          46.000  
E09  26011828.298   136693069.862         395.025          44.000  
G04  22243537.745   116890563.813       -2247.064          44.000  
E26  26550278.485   139522663.634        1839.256          39.000  
E21  27648908.010                       -2084.339          35.000  
G07  24755644.819                        3121.066          40.000  
J02  39978151.525   210086596.224         -45.327          46.000  
> 2023 12 06 08 59 19.7520000  0 18                     
S37  38199596.655   200740230.824         -26.713          38.000  
S28  38986813.091   204877084.575         -20.226          43.000  
G16  21615612.468   113590809.444       -1870.563          45.000  
E13  27714931.287   145642925.439        -606.829          37.000  
G27  20615076.740   108332952.259         109.086          48.000  
J03  38512740.162   202385814.008         135.143          36.000  
G18  25064123.383                2       -777.003          33.000  
G26  23092122.836   121349925.976       -2554.066          41.000  
G09  22492089.626   118196720.779        -228.466          44.000  
E04  25623388.419   134651795.459       -2129.110          45.000  
E31  25259451.311   132739309.131        1266.697          46.000  
G08  22033670.873   115787721.357        2745.420          46.000  
E09  26011818.909   136693020.490         394.870          44.000  
G04  22243591.190   116890844.621       -2246.619          44.000  
E26  26550234.783   139522433.965        1837.255          38.000  
E21  27648956.423                       -2085.653          35.000  
G07  24755570.588   130091393.519        3121.029          42.000  
J02  39978152.571   210086601.892         -45.364          46.000  
> 2023 12 06 08 59 19.8770000  0 18                     
S37  38199597.295   200740234.270         -27.822          38.000  
S28  38986813.549   204877087.060         -19.465          42.000  
G16  21615656.959   113591043.297       -1870.883          45.000  
E13  27714944.440   145643001.241        -606.730          37.000  
G27  20615074.145   108332938.677         108.308          48.000  
J03  38512736.946   202385797.002         136.040          36.000  
G18  25064142.409                2       -776.847          33.000  
G26  23092183.593   121350245.279       -2554.627          40.000  
G09  22492095.062   118196749.288        -228.013          45.000  
E04  25623439.142   134652061.752       -2130.326          44.000  
E31  25259421.354   132739150.825        1266.486          47.000  
G08  22033605.598   115787378.257        2744.839          46.000  
E09  26011809.622   136692971.156         394.479          44.000  
G04  22243644.685   116891125.499       -2246.926          44.000  
E26  26550191.066   139522204.259        1837.547          38.000  
E21  27649008.318                       -2084.430          37.000  
G07  24755496.351   130091003.392        3120.513          42.000  
J02  39978153.629   210086607.587         -45.432          46.000  
> 2023 12 06 08 59 20.0020000  0 18                     
S37  38199597.951   200740237.690         -27.957          38.000  
S28  38986814.026   204877089.556         -19.639          42.000  
G16  21615701.442   113591277.114       -1870.594          45.000  
E13  27714959.634   145643077.032        -605.887          37.000  
G27  20615071.547   108332925.075         108.835          48.000  
J03  38512733.648   202385779.888         136.534          38.000  
G18  25064160.563                2       -778.986          29.000  
G26  23092244.297   121350564.460       -2553.540          40.000  
G09  22492100.452   118196777.819        -228.214          44.000  
E04  25623489.870   134652327.903       -2129.509          44.000  
E31  25259391.234   132738992.524        1266.244          47.000  
G08  22033540.330   115787035.212        2744.211          47.000  
E09  26011800.163   136692921.805         394.882          44.000  
G04  22243698.162   116891406.383       -2246.837          44.000  
E26  26550147.431   139521974.463        1838.613          38.000  
E21  27649057.714                       -2085.782          37.000  
G07  24755422.095   130090613.214        3120.896          40.000  
J02  39978154.708   210086613.271         -45.306          47.000  
> 2023 12 06 08 59 20.1270000  0 18                     
S37  38199598.593   200740241.083         -26.933          38.000  
S28  38986814.458   204877092.057         -20.374          42.000  
G16  21615745.949   113591510.967       -1870.769          45.000  
E13  27714974.348   145643152.817        -606.198          37.000  
G27  20615068.934   108332911.505         108.301          48.000  
J03  38512730.394   202385762.869         135.519          38.000  
G18  25064177.954                2       -777.818          29.000  
G26  23092305.071   121350883.762       -2554.781          40.000  
G09  22492105.919   118196806.366        -228.629          45.000  
E04  25623540.453   134652594.092       -2129.468          44.000  
E31  25259361.054   132738834.216        1266.109          46.000  
G08  22033475.018   115786692.069        2745.209          46.000  
E09  26011790.678   136692872.449         394.678          44.000  
G04  22243751.626   116891687.255       -2247.601          44.000  
E26  26550103.670   139521744.850        1836.773          37.000  
E21  27649107.131                       -2084.793          37.000  
G07  24755347.845                        3121.675          40.000  
J02  39978155.827   210086618.980         -45.943          47.000  
> 2023 12 06 08 59 20.2520000  0 18                     
S37  38199599.241   200740244.484         -27.133          38.000  
S28  38986814.934   204877094.545         -20.040          42.000  
G16  21615790.446   113591744.866       -1871.044          45.000  
E13  27714986.998   145643228.698        -606.984          37.000  
G27  20615066.310   108332897.946         108.599          48.000  
J03  38512727.158   202385745.810         136.689          40.000  
G18  25064197.269                2       -777.345          30.000  
G26  23092365.800   121351202.998       -2553.908          40.000  
G09  22492111.346   118196834.912        -228.407          45.000  
E04  25623591.109   134652860.332       -2130.066          44.000  
E31  25259330.906   132738675.925        1266.552          46.000  
G08  22033409.722   115786349.039        2743.905          46.000  
E09  26011781.293   136692823.096         394.750          44.000  
G04  22243805.079   116891968.103       -2246.718          44.000  
E26  26550059.978   139521515.133        1837.816          38.000  
E21  27649157.617                       -2085.364          37.000  
G07  24755273.636   130089832.933        3120.980          41.000  
J02  39978156.951   210086624.681         -45.494          47.000  
> 2023 12 06 08 59 20.3770000  0 18                     
S37  38199599.890   200740247.839         -27.204          38.000  
S28  38986815.391   204877097.005         -19.696          41.000  
G16  21615834.946   113591978.749       -1871.243          45.000  
E13  27715001.939   145643304.567        -607.157          37.000  
G27  20615063.735   108332884.437         107.795          48.000  
J03  38512723.934   202385728.760         136.737          40.000  
G18  25064214.530                2       -779.374          30.000  
G26  23092426.580   121351522.288       -2554.568          40.000  
G09  22492116.811   118196863.447        -228.284          45.000  
E04  25623641.720   134653126.507       -2129.228          44.000  
E31  25259300.881   132738517.587        1266.717          46.000  
G08  22033344.391   115786005.921        2745.098          45.000  
E09  26011771.865   136692773.768         394.528          44.000  
G04  22243858.515   116892248.970       -2246.944          42.000  
E26  26550016.274   139521285.430        1837.072          38.000  
E21  27649208.128   145297560.3711      -2085.600          37.000  
G07  24755199.375   130089442.654        3123.050          39.000  
J02  39978158.056   210086630.392         -45.936          47.000  
> 2023 12 06 08 59 20.5020000  0 18                     
S37  38199600.551   200740251.214         -26.925          40.000  
S28  38986815.848   204877099.463         -20.000          42.000  
G16  21615879.444   113592212.617       -1870.776          45.000  
E13  27715016.096   145643380.431        -607.232          37.000  
G27  20615061.136   108332870.867         108.524          48.000  
J03  38512720.700   202385711.612         137.386          41.000  
G18  25064232.969                2       -777.744          31.000  
G26  23092487.386   121351841.608       -2555.082          40.000  
G09  22492122.243   118196891.983        -228.496          45.000  
E04  25623692.374   134653392.700       -2129.748          44.000  
E31  25259270.675   132738359.249        1266.705          46.000  
G08  22033279.124   115785662.888        2744.116          45.000  
E09  26011762.377   136692724.457         394.275          44.000  
G04  22243911.990   116892529.870       -2246.750          42.000  
E26  26549972.580   139521055.827        1837.051          38.000  
E21  27649255.444   145297821.041       -2085.688          37.000  
G07  24755125.173   130089052.485        3120.592          41.000  
J02  39978159.126   210086636.100         -45.741          47.000  
> 2023 12 06 08 59 20.6270000  0 18                     
S37  38199601.204   200740254.608         -26.997          38.000  
S28  38986816.320   204877101.876         -18.702          41.000  
G16  21615923.934   113592446.509       -1871.014          45.000  
E13  27715031.431   145643456.318        -607.016          37.000  
G27  20615058.556   108332857.351         108.134          48.000  
J03  38512717.498   202385694.572         135.845          38.000  
G18  25064250.668                2       -777.792          31.000  
G26  23092548.118   121352160.879       -2553.929          40.000  
G09  22492127.623   118196920.500        -228.291          45.000  
E04  25623742.989   134653658.895       -2129.624          43.000  
E31  25259240.498   132738200.930        1266.553          46.000  
G08  22033213.787   115785319.716        2745.348          45.000  
E09  26011752.965   136692675.068         395.125          43.000  
G04  22243965.438   116892810.751       -2247.264          43.000  
E26  26549928.875   139520826.092        1838.082          38.000  
E21  27649306.853   145298081.787       -2085.889          37.000  
G07  24755050.949   130088662.340        3120.877          42.000  
J02  39978160.234   210086641.783         -45.426          47.000  
> 2023 12 06 08 59 20.7520000  0 18                     
S37  38199601.871   200740258.079         -28.580          40.000  
S28  38986816.798   204877104.334         -19.502          41.000  
G16  21615968.472   113592680.448       -1871.582          45.000  
E13  27715046.258   145643532.212        -607.079          37.000  
G27  20615055.995   108332843.843         107.679          48.000  
J03  38512714.242   202385677.607         135.595          36.000  
G18  25064268.926                2       -778.962          31.000  
G26  23092608.906   121352480.216       -2555.046          40.000  
G09  22492133.035   118196949.041        -228.483          45.000  
E04  25623793.666   134653925.078       -2129.453          43.000  
E31  25259210.357   132738042.556        1266.981          46.000  
G08  22033148.491   115784976.672        2744.200          46.000  
E09  26011743.563   136692625.690         394.988          43.000  
G04  22244018.875   116893091.577       -2246.943          43.000  
E26  26549885.200   139520596.500        1836.385          38.000  
E21  27649355.236   145298342.456       -2085.657          37.000  
G07  24754976.674   130088272.147        3121.588          43.000  
J02  39978161.329   210086647.493         -45.862          48.000  
> 2023 12 06 08 59 20.8770000  0 18                     
S37  38199602.483   200740261.482         -27.173          40.000  
S28  38986817.240   204877106.725         -19.015          42.000  
G16  21616012.983   113592914.346       -1871.170          45.000  
E13  27715060.946   145643608.168        -607.672          37.000  
G27  20615053.440   108332830.340         107.982          48.000  
J03  38512711.029   202385660.617         136.217          36.000  
G18  25064287.533                2       -778.648          34.000  
G26  23092669.682   121352799.566       -2554.676          40.000  
G09  22492138.434   118196977.505        -227.405          44.000  
E04  25623844.197   134654191.190       -2128.822          43.000  
E31  25259180.170   132737884.184        1267.065          46.000  
G08  22033083.189   115784633.549        2744.967          46.000  
E09  26011734.166   136692576.332         395.044          44.000  
G04  22244072.305   116893372.402       -2246.682          43.000  
E26  26549841.564   139520366.918        1836.835          38.000  
E21  27649405.323   145298603.245       -2086.249          37.000  
G07  24754902.421   130087881.976        3121.414          42.000  
J02  39978162.429   210086653.195         -45.706          47.000  
> 2023 12 06 08 59 21.0020000  0 18                     
S37  38199603.127   200740264.842         -26.788          40.000  
S28  38986817.706   204877109.115         -18.537          41.000  
G16  21616057.482   113593148.273       -1871.439          46.000  
E13  27715075.442   145643684.089        -607.348          38.000  
G27  20615050.858   108332816.817         108.095          48.000  
J03  38512707.813   202385643.631         135.652          36.000  
G18  25064306.144                2       -779.922          35.000  
G26  23092730.476   121353118.921       -2555.153          40.000  
G09  22492143.901   118197006.014        -228.005          44.000  
E04  25623894.782   134654457.378       -2129.481          43.000  
E31  25259149.982   132737725.802        1267.064          45.000  
G08  22033017.918   115784290.448        2744.854          46.000  
E09  26011724.724   136692526.945         395.286          44.000  
G04  22244125.769   116893653.272       -2246.474          43.000  
E26  26549797.840   139520137.320        1836.555          38.000  
E21  27649452.502   145298863.953       -2085.805          37.000  
G07  24754828.167   130087491.638        3123.042          40.000  
J02  39978163.525   210086658.929         -45.991          47.000  
> 2023 12 06 08 59 21.1270000  0 18                     
S37  38199603.797   200740268.283         -27.782          38.000  
S28  38986818.173   204877111.474         -18.932          41.000  
G16  21616102.010   113593382.225       -1871.860          46.000  
E13  27715090.334   145643760.101        -608.207          38.000  
G27  20615048.265   108332803.359         107.490          48.000  
J03  38512704.579   202385626.659         135.548          36.000  
G18  25064323.566                2       -779.055          37.000  
G26  23092791.269   121353438.296       -2555.031          40.000  
G09  22492149.297   118197034.505        -227.812          44.000  
E04  25623945.483   134654723.491       -2128.845          43.000  
E31  25259119.762   132737567.378        1267.425          45.000  
G08  22032952.612   115783947.337        2744.692          46.000  
E09  26011715.349   136692477.509         395.651          43.000  
G04  22244179.209   116893934.051       -2246.414          44.000  
E26  26549754.149   139519907.787        1835.887          38.000  
E21  27649503.926   145299124.733       -2086.138          37.000  
G07  24754753.931   130087101.402        3121.454          41.000  
J02  39978164.600   210086664.629         -45.762          47.000  
> 2023 12 06 08 59 21.2520000  0 18                     
S37  38199604.452   200740271.677         -27.230          40.000  
S28  38986818.632   204877113.789         -17.924          41.000  
G16  21616146.551   113593616.192       -1871.685          46.000  
E13  27715105.417   145643836.122        -608.571          38.000  
G27  20615045.721   108332789.918         107.203          49.000  
J03  38512701.334   202385609.600         135.905          38.000  
G18  25064342.448                2       -779.790          37.000  
G26  23092852.034   121353757.708       -2555.485          40.000  
G09  22492154.672   118197062.953        -227.172          43.000  
E04  25623996.155   134654989.630       -2129.263          44.000  
E31  25259089.609   132737408.956        1267.296          45.000  
G08  22032887.327   115783604.221        2745.104          46.000  
E09  26011706.065   136692428.112         394.783          45.000  
G04  22244232.674   116894214.895       -2246.886          44.000  
E26  26549710.473   139519678.269        1835.921          38.000  
E21  27649554.083   145299385.526       -2086.554          38.000  
G07  24754679.669   130086711.133        3122.651          42.000  
J02  39978165.667   210086670.386         -46.160          47.000  
> 2023 12 06 08 59 21.3770000  0 18                     
S37  38199605.101   200740275.125         -27.439          40.000  
S28  38986819.070   204877116.100         -18.599          42.000  
G16  21616191.084   113593850.174       -1871.959          44.000  
E13  27715120.371   145643912.175        -608.579          38.000  
G27  20615043.184   108332776.460         107.428          49.000  
J03  38512698.095   202385592.654         135.112          38.000  
G18  25064361.829   131714133.1383       -780.304          37.000  
G26  23092912.797   121354077.141       -2555.470          40.000  
G09  22492160.086   118197091.411        -227.892          44.000  
E04  25624046.837   134655255.735       -2129.167          44.000  
E31  25259059.326   132737250.502        1267.910          45.000  
G08  22032822.015   115783261.102        2745.338          45.000  
E09  26011696.663   136692378.666         395.847          44.000  
G04  22244286.123   116894495.698       -2246.157          43.000  
E26  26549666.824   139519448.786        1835.625          38.000  
E21  27649603.828   145299646.354       -2086.693          38.000  
G07  24754605.397   130086320.704        3123.760          42.000  
J02  39978166.713   210086676.129         -46.067          47.000  
> 2023 12 06 08 59 21.5020000  0 18                     
S37  38199605.759   200740278.536         -27.832          41.000  
S28  38986819.517   204877118.404         -18.545          42.000  
G16  21616235.629   113594084.169       -1872.025          45.000  
E13  27715134.991   145643988.257        -608.742          38.000  
G27  20615040.685   108332763.022         107.548          49.000  
J03  38512694.866   202385575.689         135.496          36.000  
G18  25064381.648   131714230.6632       -779.769          36.000  
G26  23092973.583   121354396.615       -2556.007          40.000  
G09  22492165.519   118197119.819        -227.035          44.000  
E04  25624097.408   134655521.774       -2128.127          43.000  
E31  25259029.251   132737091.965        1268.421          46.000  
G08  22032756.692   115782917.943        2745.776          45.000  
E09  26011687.215   136692329.101         396.640          44.000  
G04  22244339.532   116894776.438       -2246.016          43.000  
E26  26549623.112   139519219.301        1835.776          38.000  
E21  27649653.122   145299907.231       -2086.868          37.000  
G07  24754531.137   130085930.335        3122.958          43.000  
J02  39978167.803   210086681.873         -45.974          47.000  
> 2023 12 06 08 59 21.6270000  0 18                     
S37  38199606.431   200740281.958         -27.125          40.000  
S28  38986819.951   204877120.646         -18.005          40.000  
G16  21616280.162   113594318.175       -1872.261          45.000  
E13  27715149.237   145644064.358        -609.243          38.000  
G27  20615038.133   108332749.601         107.084          48.000  
J03  38512691.630   202385558.761         135.653          38.000  
G18  25064400.160   131714328.2522       -780.582          34.000  
G26  23093034.391   121354716.104       -2555.998          40.000  
G09  22492170.911   118197148.166        -227.154          44.000  
E04  25624148.067   134655787.840       -2128.505          43.000  
E31  25258999.192   132736933.441        1268.161          46.000  
G08  22032691.401   115782574.797        2745.256          45.000  
E09  26011677.925   136692279.656         395.471          44.000  
G04  22244392.943   116895057.189       -2246.005          44.000  
E26  26549579.497   139518989.926        1835.047          38.000  
E21  27649701.940   145300168.170       -2087.712          37.000  
G07  24754456.833   130085539.927        3123.185          43.000  
J02  39978168.881   210086687.629         -46.130          47.000  
> 2023 12 06 08 59 21.7520000  0 18                     
S37  38199607.134   200740285.440         -28.691          40.000  
S28  38986820.359   204877122.830         -17.456          40.000  
G16  21616324.693   113594552.263       -1873.361          45.000  
E13  27715163.569   145644140.581        -609.621          38.000  
G27  20615035.580   108332736.232         106.753          49.000  
J03  38512688.427   202385541.908         134.525          40.000  
G18  25064418.128   131714425.8552       -781.290          37.000  
G26  23093095.243   121355035.731       -2557.532          40.000  
G09  22492176.313   118197176.538        -226.893          44.000  
E04  25624198.635   134656053.904       -2128.408          43.000  
E31  25258969.008   132736774.893        1268.373          46.000  
G08  22032626.077   115782231.652        2745.115          45.000  
E09  26011668.359   136692230.025         397.434          44.000  
G04  22244446.360   116895337.968       -2246.153          43.000  
E26  26549535.781   139518760.630        1833.491          36.000  
E21  27649751.153   145300429.178       -2088.259          37.000  
G07  24754382.541   130085149.518        3123.572          43.000  
J02  39978169.979   210086693.433         -46.671          47.000  
> 2023 12 06 08 59 21.8770000  0 18                     
S37  38199607.826   200740288.921         -27.736          40.000  
S28  38986820.760   204877124.979         -16.955          40.000  
G16  21616369.243   113594786.315       -1872.253          45.000  
E13  27715178.073   145644216.741        -609.205          38.000  
G27  20615033.054   108332722.861         107.109          48.000  
J03  38512685.237   202385525.088         134.882          40.000  
G18  25064436.074   131714523.5112       -781.333          37.000  
G26  23093156.068   121355355.356       -2557.023          40.000  
G09  22492181.728   118197204.847        -226.489          43.000  
E04  25624249.170   134656319.903       -2128.043          43.000  
E31  25258938.748   132736616.268        1269.310          45.000  
G08  22032560.781   115781888.499        2745.521          45.000  
E09  26011659.065   136692180.465         396.612          45.000  
G04  22244499.791   116895618.683       -2245.625          43.000  
E26  26549492.179   139518531.335        1834.699          38.000  
E21  27649801.512   145300690.175       -2088.131          37.000  
G07  24754308.235   130084758.953        3124.746          43.000  
J02  39978171.110   210086699.246         -46.368          47.000  
> 2023 12 06 08 59 22.0020000  0 18                     
S37  38199608.500   200740292.398         -27.903          40.000  
S28  38986821.180   204877127.159         -17.668          40.000  
G16  21616413.777   113595020.425       -1873.301          45.000  
E13  27715192.554   145644293.031        -610.688          38.000  
G27  20615030.501   108332709.502         106.545          48.000  
J03  38512682.058   202385508.295         133.708          38.000  
G18  25064453.790   131714621.1282       -780.574          39.000  
G26  23093216.888   121355674.995       -2557.506          40.000  
G09  22492187.111   118197233.119        -225.961          43.000  
E04  25624299.722   134656585.892       -2128.026          43.000  
E31  25258908.548   132736457.634        1268.929          45.000  
G08  22032495.488   115781545.308        2745.732          46.000  
E09  26011649.658   136692130.836         397.158          45.000  
G04  22244553.213   116895899.367       -2245.345          43.000  
E26  26549448.566   139518302.101        1833.645          38.000  
E21  27649851.563   145300951.190       -2088.372          37.000  
G07  24754233.940   130084368.418        3124.249          41.000  
J02  39978172.221   210086705.061         -46.581          47.000  
> 2023 12 06 08 59 22.1270000  0 18                     
S37  38199609.176   200740295.861         -27.429          40.000  
S28  38986821.556   204877129.211         -16.087          40.000  
G16  21616458.341   113595254.568       -1873.352          45.000  
E13  27715207.052   145644369.322        -610.466          38.000  
G27  20615027.929   108332696.174         106.711          49.000  
J03  38512678.883   202385491.587         133.660          38.000  
G18  25064473.076   131714718.9862       -782.420          38.000  
G26  23093277.732   121355994.644       -2556.837          40.000  
G09  22492192.475   118197261.371        -225.673          44.000  
E04  25624350.301   134656851.871       -2127.799          43.000  
E31  25258878.248   132736298.945        1269.775          45.000  
G08  22032430.187   115781202.127        2745.379          46.000  
E09  26011640.145   136692081.187         397.390          44.000  
G04  22244606.596   116896180.056       -2245.358          44.000  
E26  26549404.938   139518072.934        1832.952          38.000  
E21  27649901.457   145301212.339       -2089.434          35.000  
G07  24754159.634   130083977.870        3124.098          42.000  
J02  39978173.365   210086710.921         -47.012          47.000  
> 2023 12 06 08 59 22.2520000  0 18                     
S37  38199609.872   200740299.408         -28.650          40.000  
S28  38986821.954   204877131.286         -16.583          41.000  
G16  21616502.914   113595488.739       -1873.779          45.000  
E13  27715221.522   145644445.738        -611.780          38.000  
G27  20615025.408   108332682.875         106.382          49.000  
J03  38512675.678   202385474.765         134.377          38.000  
G18  25064490.744   131714816.8202       -783.257          38.000  
G26  23093338.591   121356314.440       -2558.806          40.000  
G09  22492197.854   118197289.610        -226.155          44.000  
E04  25624400.839   134657117.797       -2127.565          43.000  
E31  25258848.111   132736140.267        1269.355          46.000  
G08  22032364.887   115780858.937        2745.322          45.000  
E09  26011630.661   136692031.522         397.293          44.000  
G04  22244660.014   116896460.698       -2245.157          44.000  
E26  26549361.360   139517843.780        1833.229          38.000  
E21  27649951.290   145301473.495       -2089.935          35.000  
G07  24754085.299   130083587.229        3125.807          41.000  
J02  39978174.520   210086716.794         -47.183          47.000  
> 2023 12 06 08 59 22.3770000  0 18                     
S37  38199610.539   200740302.868         -27.860          40.000  
S28  38986822.340   204877133.351         -17.234          40.000  
G16  21616547.486   113595722.963       -1874.088          45.000  
E13  27715236.144   145644522.173        -611.564          40.000  
G27  20615022.889   108332669.624         105.809          49.000  
J03  38512672.544   202385458.139         132.668          36.000  
G18  25064510.128   131714914.7372       -783.484          38.000  
G26  23093399.446   121356634.236       -2558.280          40.000  
G09  22492203.230   118197317.840        -225.576          44.000  
E04  25624451.478   134657383.716       -2127.411          44.000  
E31  25258817.880   132735981.530        1270.076          46.000  
G08  22032299.591   115780515.715        2745.860          45.000  
E09  26011621.230   136691981.820         397.638          43.000  
G04  22244713.422   116896741.363       -2245.294          44.000  
E26  26549317.737   139517614.742        1831.715          38.000  
E21  27650000.982   145301734.767       -2090.657          35.000  
G07  24754011.033   130083196.685        3123.649          42.000  
J02  39978175.669   210086722.709         -47.608          47.000  
> 2023 12 06 08 59 22.5020000  0 18                     
S37  38199611.221   200740306.357         -28.179          40.000  
S28  38986822.693   204877135.331         -15.218          40.000  
G16  21616592.072   113595957.198       -1873.817          46.000  
E13  27715250.673   145644598.687        -612.464          40.000  
G27  20615020.357   108332656.349         106.374          49.000  
J03  38512669.363   202385441.412         133.784          33.000  
G18  25064529.174   131715012.7522       -785.167          38.000  
G26  23093460.338   121356954.178       -2559.444          40.000  
G09  22492208.590   118197345.996        -225.053          44.000  
E04  25624502.032   134657649.640       -2127.418          44.000  
E31  25258787.568   132735822.751        1270.444          45.000  
G08  22032234.290   115780172.488        2745.687          45.000  
E09  26011611.920   136691932.081         397.967          43.000  
G04  22244766.807   116897021.955       -2244.570          44.000  
E26  26549274.124   139517385.775        1831.175          38.000  
E21  27650050.400   145301996.077       -2090.770          35.000  
G07  24753936.687   130082805.951        3126.631          40.000  
J02  39978176.780   210086728.609         -47.104          47.000  
> 2023 12 06 08 59 22.6270000  0 18                     
S37  38199611.880   200740309.838         -27.613          38.000  
S28  38986823.069   204877137.301         -15.732          40.000  
G16  21616636.653   113596191.464       -1874.421          45.000  
E13  27715265.132   145644675.187        -612.254          40.000  
G27  20615017.839   108332643.107         105.673          49.000  
J03  38512666.172   202385424.657         133.926          36.000  
G18  25064547.627   131715110.7142       -784.268          38.000  
G26  23093521.226   121357274.053       -2559.601          40.000  
G09  22492213.949   118197374.157        -225.219          45.000  
E04  25624552.576   134657915.470       -2126.536          43.000  
E31  25258757.365   132735663.995        1270.127          45.000  
G08  22032168.954   115779829.232        2746.073          45.000  
E09  26011602.342   136691882.309         398.279          43.000  
G04  22244820.212   116897302.538       -2244.766          43.000  
E26  26549230.486   139517156.718        1832.277          39.000  
E21  27650100.187   145302257.392       -2090.478          38.000  
G07  24753862.340   130082415.320        3125.101          41.000  
J02  39978177.944   210086734.540         -47.713          47.000  
> 2023 12 06 08 59 22.7520000  0 18                     
S37  38199612.557   200740313.289         -27.971          40.000  
S28  38986823.429   204877139.216         -15.104          40.000  
G16  21616681.246   113596425.756       -1874.141          45.000  
E13  27715279.734   145644751.789        -613.020          40.000  
G27  20615015.286   108332629.876         105.714          48.000  
J03  38512663.035   202385408.120         131.572          35.000  
G18  25064566.830   131715208.7712       -784.484          38.000  
G26  23093582.098   121357593.942       -2559.250          40.000  
G09  22492219.327   118197402.294        -224.983          44.000  
E04  25624603.130   134658181.295       -2126.666          43.000  
E31  25258727.137   132735505.156        1270.962          45.000  
G08  22032103.677   115779485.979        2746.302          46.000  
E09  26011592.725   136691832.571         398.145          44.000  
G04  22244873.600   116897583.095       -2244.432          43.000  
E26  26549186.946   139516927.828        1830.972          38.000  
E21  27650150.020   145302518.778       -2090.997          38.000  
G07  24753787.989   130082024.646        3125.751          41.000  
J02  39978179.068   210086740.482         -47.512          47.000  
> 2023 12 06 08 59 22.8770000  0 18                     
S37  38199613.288   200740316.871         -28.610          40.000  
S28  38986823.796   204877141.159         -15.686          39.000  
G16  21616725.840   113596660.060       -1874.508          45.000  
E13  27715294.301   145644828.362        -612.691          40.000  
G27  20615012.795   108332616.676         105.480          48.000  
J03  38512659.832   202385391.467         133.441          37.000  
G18  25064585.112   131715306.8952       -785.525          38.000  
G26  23093643.004   121357913.944       -2560.269          40.000  
G09  22492224.654   118197430.370        -224.294          44.000  
E04  25624653.760   134658447.136       -2126.588          43.000  
E31  25258696.895   132735346.290        1270.988          45.000  
G08  22032038.342   115779142.696        2746.098          46.000  
E09  26011583.368   136691782.717         398.998          44.000  
G04  22244927.004   116897863.637       -2244.261          44.000  
E26  26549143.369   139516698.933        1830.950          37.000  
E21  27650199.826   145302780.229       -2091.803          38.000  
G07  24753713.610   130081633.848        3126.492          41.000  
J02  39978180.214   210086746.424         -47.377          46.000  
> 2023 12 06 08 59 23.0020000  0 18                     
S37  38199613.937   200740320.371         -28.494          40.000  
S28  38986824.153   204877143.025         -14.207          40.000  
G16  21616770.416   113596894.428       -1875.296          45.000  
E13  27715308.869   145644905.034        -613.663          40.000  
G27  20615010.240   108332603.458         105.604          48.000  
J03  38512656.635   202385374.753         133.689          37.000  
G18  25064603.869   131715405.0152       -785.782          38.000  
G26  23093703.909   121358233.959       -2559.956          40.000  
G09  22492229.970   118197458.447        -224.510          44.000  
E04  25624704.344   134658712.915       -2126.119          43.000  
E31  25258666.771   132735187.424        1271.264          45.000  
G08  22031973.036   115778799.433        2745.974          45.000  
E09  26011573.921   136691732.893         398.641          45.000  
G04  22244980.368   116898144.174       -2244.211          44.000  
E26  26549099.802   139516470.050        1830.796          37.000  
E21  27650249.749   145303041.716       -2092.081          37.000  
G07  24753639.272   130081243.152        3125.157          43.000  
J02  39978181.342   210086752.422         -48.140          46.000  
> 2023 12 06 08 59 23.1270000  0 18                     
S37  38199614.629   200740323.911         -28.434          40.000  
S28  38986824.513   204877144.831         -14.714          39.000  
G16  21616815.004   113597128.802       -1875.378          45.000  
E13  27715323.431   145644981.757        -614.144          40.000  
G27  20615007.724   108332590.324         104.774          48.000  
J03  38512653.496   202385358.261         131.499          35.000  
G18  25064623.462   131715503.2152       -785.948          38.000  
G26  23093764.785   121358554.030       -2561.371          38.000  
G09  22492235.313   118197486.491        -224.483          44.000  
E04  25624754.887   134658978.702       -2126.440          43.000  
E31  25258636.525   132735028.520        1271.213          45.000  
G08  22031907.731   115778456.126        2746.633          45.000  
E09  26011564.365   136691683.027         399.025          44.000  
G04  22245033.799   116898424.704       -2244.552          44.000  
E26  26549056.250   139516241.288        1829.974          37.000  
E21  27650299.329   145303303.204       -2092.371          35.000  
G07  24753564.866   130080852.224        3127.863          40.000  
J02  39978182.445   210086758.427         -48.200          46.000  
> 2023 12 06 08 59 23.2520000  0 18                     
S37  38199615.322   200740327.442         -27.998          40.000  
S28  38986824.900   204877146.702         -15.067          39.000  
G16  21616859.604   113597363.200       -1875.568          45.000  
E13  27715337.991   145645058.495        -614.108          40.000  
G27  20615005.216   108332577.189         104.991          48.000  
J03  38512650.362   202385341.681         133.192          37.000  
G18  25064642.312   131715601.4792       -786.222          38.000  
G26  23093825.721   121358874.146       -2562.325          40.000  
G09  22492240.672   118197514.545        -224.516          44.000  
E04  25624805.518   134659244.511       -2126.378          43.000  
E31  25258606.333   132734869.609        1271.296          45.000  
G08  22031842.430   115778112.901        2745.472          46.000  
E09  26011554.890   136691633.146         398.950          44.000  
G04  22245087.178   116898705.221       -2244.434          43.000  
E26  26549012.738   139516012.566        1829.250          37.000  
E21  27650349.188   145303564.743       -2092.581          35.000  
G07  24753490.500   130080461.419        3126.678          39.000  
J02  39978183.605   210086764.450         -48.320          46.000  
> 2023 12 06 08 59 23.3770000  0 18                     
S37  38199616.007   200740331.010         -29.054          42.000  
S28  38986825.234   204877148.494         -14.949          39.000  
G16  21616904.251   113597597.650       -1875.740          45.000  
E13  27715352.615   145645135.342        -615.268          40.000  
G27  20615002.729   108332564.086         104.584          48.000  
J03  38512647.210                         129.591          34.000  
G18  25064660.664   131715699.8132       -787.247          38.000  
G26  23093886.658   121359194.280       -2561.223          40.000  
G09  22492245.982   118197542.569        -224.201          45.000  
E04  25624855.992   134659510.240       -2125.816          43.000  
E31  25258576.133   132734710.650        1271.827          45.000  
G08  22031777.089   115777769.531        2747.389          46.000  
E09  26011545.520   136691583.237         399.402          45.000  
G04  22245140.543   116898985.663       -2243.226          43.000  
E26  26548969.221   139515783.891        1829.146          39.000  
E21  27650398.967   145303826.387       -2093.103          35.000  
G07  24753416.117   130080070.561        3127.158          39.000  
J02  39978184.749   210086770.524         -48.709          46.000  
> 2023 12 06 08 59 23.5020000  0 18                     
S37  38199616.643   200740334.592         -28.734          42.000  
S28  38986825.574   204877150.195         -12.872          39.000  
G16  21616948.863   113597832.132       -1875.740          45.000  
E13  27715367.302   145645212.172        -614.700          40.000  
G27  20615000.285   108332551.020         104.369          49.000  
J03  38512644.088                         131.836          37.000  
G18  25064679.573   131715798.1592       -786.912          38.000  
G26  23093947.627   121359514.517       -2561.953          40.000  
G09  22492251.274   118197570.550        -223.881          44.000  
E04  25624906.569   134659775.964       -2125.700          43.000  
E31  25258545.851   132734551.667        1271.885          45.000  
G08  22031711.770   115777426.280        2745.483          45.000  
E09  26011535.917   136691533.289         399.748          45.000  
G04  22245193.913   116899266.193       -2244.439          43.000  
E26  26548925.748   139515555.272        1828.598          39.000  
E21  27650448.753   145304088.084       -2093.861          35.000  
G07  24753341.708   130079679.643        3127.481          39.000  
J02  39978185.911   210086776.558         -48.206          46.000  
> 2023 12 06 08 59 23.6270000  0 18                     
S37  38199617.314   200740338.103         -27.776          41.000  
S28  38986825.912   204877151.981         -13.398          39.000  
G16  21616993.478   113598066.621       -1876.229          45.000  
E13  27715381.881   145645289.060        -615.109          40.000  
G27  20614997.805   108332537.922         104.713          48.000  
J03  38512641.003                         132.297          39.000  
G18  25064697.964   131715896.5522       -787.156          38.000  
G26  23094008.550   121359834.740       -2562.013          40.000  
G09  22492256.603   118197598.511        -223.898          44.000  
E04  25624957.125   134660041.625       -2125.451          43.000  
E31  25258515.530   132734392.653        1272.232          45.000  
G08  22031646.406   115777082.920        2746.718          46.000  
E09  26011526.489   136691483.343         399.568          44.000  
G04  22245247.272   116899546.582       -2242.696          43.000  
E26  26548882.290   139515326.663        1829.019          37.000  
E21  27650498.603   145304349.779       -2093.861          35.000  
G07  24753267.313   130079288.731        3127.313          40.000  
J02  39978187.109   210086782.654         -48.856          46.000  
> 2023 12 06 08 59 23.7520000  0 18                     
S37  38199618.025   200740341.742         -29.305          41.000  
S28  38986826.220   204877153.583         -13.092          39.000  
G16  21617038.099   113598301.136       -1876.364          44.000  
E13  27715396.544   145645366.005        -616.004          40.000  
G27  20614995.352   108332524.852         104.244          48.000  
J03  38512637.882   202385275.786         131.320          40.000  
G18  25064716.922   131715994.9922       -787.789          37.000  
G26  23094069.499   121360155.000       -2562.339          40.000  
G09  22492261.931   118197626.436        -223.374          44.000  
E04  25625007.720   134660307.332       -2125.601          43.000  
E31  25258485.282   132734233.599        1272.591          45.000  
G08  22031581.108   115776739.587        2746.565          46.000  
E09  26011516.977   136691433.374         399.645          44.000  
G04  22245300.647   116899827.041       -2243.901          43.000  
E26  26548838.828   139515098.125        1827.507          38.000  
E21  27650548.432   145304611.506       -2094.050          35.000  
G07  24753192.909   130078897.796        3127.460          42.000  
J02  39978188.278   210086788.725         -48.885          46.000  
> 2023 12 06 08 59 23.8770000  0 18                     
S37  38199618.654   200740345.251         -28.652          41.000  
S28  38986826.578   204877155.288         -13.290          39.000  
G16  21617082.753   113598535.691       -1876.442          45.000  
E13  27715411.184   145645443.046        -616.838          39.000  
G27  20614992.874   108332511.823         104.193          48.000  
J03  38512634.756   202385259.306         131.824          40.000  
G18  25064735.142                2       -787.419          37.000  
G26  23094130.486   121360475.369       -2563.389          40.000  
G09  22492267.207   118197654.340        -223.323          43.000  
E04  25625058.226   134660572.948       -2124.625          42.000  
E31  25258455.071   132734074.551        1272.469          45.000  
G08  22031515.787   115776396.232        2746.654          46.000  
E09  26011507.440   136691383.357         400.041          44.000  
G04  22245354.003   116900107.420       -2243.385          43.000  
E26  26548795.357   139514869.572        1828.398          37.000  
E21  27650598.175   145304873.345       -2095.019          35.000  
G07  24753118.554   130078506.831        3127.808          41.000  
J02  39978189.439   210086794.829         -48.842          46.000  
> 2023 12 06 08 59 24.0020000  0 18                     
S37  38199619.336   200740348.806         -28.083          41.000  
S28  38986826.884   204877156.871         -12.311          39.000  
G16  21617127.398   113598770.234       -1876.917          45.000  
E13  27715425.796   145645520.036        -616.384          39.000  
G27  20614990.399   108332498.768         104.242          48.000  
J03  38512631.634   202385242.864         131.195          36.000  
G18  25064753.771                2       -788.186          37.000  
G26  23094191.443   121360795.666       -2562.943          40.000  
G09  22492272.520   118197682.246        -223.118          44.000  
E04  25625108.807   134660838.624       -2125.429          43.000  
E31  25258424.771   132733915.457        1272.651          45.000  
G08  22031450.450   115776052.858        2747.238          46.000  
E09  26011497.759   136691333.338         400.026          43.000  
G04  22245407.400   116900387.853       -2243.516          43.000  
E26  26548751.826   139514641.052        1828.363          37.000  
E21  27650647.997   145305135.185       -2094.891          35.000  
G07  24753044.160   130078115.887        3127.445          40.000  
J02  39978190.634   210086800.939         -49.117          46.000  
> 2023 12 06 08 59 24.1270000  0 18                     
S37  38199620.049   200740352.431         -29.177          41.000  
S28  38986827.212   204877158.536         -13.713          39.000  
G16  21617172.023   113599004.805       -1876.610          45.000  
E13  27715440.455   145645597.112        -616.880          40.000  
G27  20614987.924   108332485.765         103.784          48.000  
J03  38512628.494   202385226.493         131.602          38.000  
G18  25064772.945                2       -789.299          37.000  
G26  23094252.431   121361116.041       -2563.429          40.000  
G09  22492277.831   118197710.108        -222.703          43.000  
E04  25625159.336   134661104.242       -2125.161          43.000  
E31  25258394.454   132733756.357        1272.792          45.000  
G08  22031385.103   115775709.536        2746.785          46.000  
E09  26011488.308   136691283.305         400.344          43.000  
G04  22245460.764   116900668.208       -2242.473          43.000  
E26  26548708.335   139514412.664        1826.905          37.000  
E21  27650697.808   145305396.966       -2094.364          35.000  
G07  24752969.752   130077724.789        3128.276          41.000  
J02  39978191.806   210086807.059         -49.107          46.000  
> 2023 12 06 08 59 24.2520000  0 18                     
S37  38199620.738   200740356.015         -28.735          41.000  
S28  38986827.489   204877160.080         -11.780          40.000  
G16  21617216.692   113599239.371       -1876.705          45.000  
E13  27715455.168   145645674.180        -616.673          40.000  
G27  20614985.498   108332472.759         104.035          48.000  
J03  38512625.370   202385209.999         132.011          40.000  
G18  25064791.605                2       -788.527          37.000  
G26  23094313.420   121361436.457       -2563.551          40.000  
G09  22492283.125   118197737.974        -222.817          43.000  
E04  25625209.779   134661369.865       -2124.684          43.000  
E31  25258364.107   132733597.210        1273.254          45.000  
G08  22031319.776   115775366.143        2747.210          46.000  
E09  26011478.793   136691233.226         400.780          44.000  
G04  22245514.143   116900948.596       -2243.176          44.000  
E26  26548664.804   139514184.265        1826.424          37.000  
E21  27650747.662   145305658.879       -2095.493          35.000  
G07  24752895.371   130077333.739        3128.777          41.000  
J02  39978192.995   210086813.175         -49.021          46.000  
> 2023 12 06 08 59 24.3770000  0 18                     
S37  38199621.450   200740359.629         -29.099          40.000  
S28  38986827.760   204877161.610         -12.328          40.000  
G16  21617261.356   113599474.007       -1877.272          45.000  
E13  27715469.874   145645751.305        -617.428          40.000  
G27  20614983.059   108332459.792         103.558          48.000  
J03  38512622.309   202385193.778         128.884          39.000  
G18  25064810.311   131716487.7782       -789.667          39.000  
G26  23094374.415   121361756.862       -2563.486          40.000  
G09  22492288.403   118197765.784        -222.398          44.000  
E04  25625260.263   134661635.463       -2124.700          43.000  
E31  25258333.889   132733438.022        1273.540          45.000  
G08  22031254.445   115775022.795        2746.813          46.000  
E09  26011469.263   136691183.136         400.718          44.000  
G04  22245567.470   116901228.947       -2242.739          44.000  
E26  26548621.337   139513955.844        1827.445          37.000  
E21  27650797.463   145305920.760       -2095.705          35.000  
G07  24752820.942   130076942.559        3129.255          41.000  
J02  39978194.187   210086819.337         -49.612          46.000  
> 2023 12 06 08 59 24.5020000  0 19                     
S37  38199622.163   200740363.269         -29.543          41.000  
S28  38986828.071   204877163.247         -13.270          41.000  
G16  21617306.005   113599708.647       -1877.330          45.000  
E13  27715484.569   145645828.464        -617.643          40.000  
G27  20614980.611   108332446.856         103.390          48.000  
J03  38512619.213   202385177.444         131.419          36.000  
G18  25064829.185   131716586.4512       -789.142          37.000  
G26  23094435.382   121362077.372       -2564.478          40.000  
G09  22492293.710   118197793.628        -223.000          44.000  
E04  25625310.821   134661901.097       -2125.021          43.000  
E31  25258303.582   132733278.846        1273.342          45.000  
G31  24582557.749                3      -3206.868          26.000  
G08  22031189.122   115774679.436        2746.914          46.000  
E09  26011459.692   136691133.051         400.645          43.000  
G04  22245620.860   116901509.358       -2243.699          44.000  
E26  26548577.934   139513727.567        1825.386          37.000  
E21  27650847.313   145306182.768       -2096.186          35.000  
G07  24752746.527   130076551.505        3128.640          41.000  
J02  39978195.359   210086825.525         -49.663          46.000  
> 2023 12 06 08 59 24.6270000  0 19                     
S37  38199622.889   200740366.884         -28.717          41.000  
S28  38986828.325   204877164.672         -11.343          40.000  
G16  21617350.633   113599943.326       -1877.771          45.000  
E13  27715499.199   145645905.610        -617.422          40.000  
G27  20614978.144   108332433.909         103.408          48.000  
J03  38512616.092   202385161.119         130.529          40.000  
G18  25064847.901   131716685.1062       -789.022          37.000  
G26  23094496.368   121362397.804       -2563.664          40.000  
G09  22492298.998   118197821.404        -221.837          44.000  
E04  25625361.305   134662166.615       -2124.017          43.000  
E31  25258273.241   132733119.635        1273.877          45.000  
G31  24582636.355                3      -3206.868          26.000  
G08  22031123.773   115774336.068        2746.923          46.000  
E09  26011450.238   136691082.854         401.710          44.000  
G04  22245674.194   116901789.657       -2242.414          42.000  
E26  26548534.499   139513499.258        1826.355          37.000  
E21  27650897.215   145306444.738       -2095.904          35.000  
G07  24752672.086   130076160.344        3128.910          41.000  
J02  39978196.475   210086831.682         -49.372          46.000  
> 2023 12 06 08 59 24.7520000  0 19                     
S37  38199623.630   200740370.486         -28.862          41.000  
S28  38986828.613   204877166.148         -11.428          40.000  
G16  21617395.255   113600177.966       -1877.070          45.000  
E13  27715513.855   145645982.836        -618.019          40.000  
G27  20614975.641   108332420.959         103.634          49.000  
J03  38512613.000   202385144.881         129.768          40.000  
G18  25064866.693   131716783.9362       -790.896          37.000  
G26  23094557.398   121362718.394       -2564.821          41.000  
G09  22492304.222   118197849.143        -221.602          44.000  
E04  25625411.876   134662432.153       -2124.332          43.000  
E31  25258242.941   132732960.359        1274.345          46.000  
G31  24582710.880                3      -3206.868          25.000  
G08  22031058.441   115773992.656        2747.491          45.000  
E09  26011440.741   136691032.718         401.044          44.000  
G04  22245727.522   116902069.946       -2242.204          43.000  
E26  26548491.100   139513271.012        1825.749          37.000  
E21  27650947.121   145306706.803       -2096.185          38.000  
G07  24752597.606   130075769.111        3130.275          41.000  
J02  39978197.646   210086837.853         -49.348          46.000  
> 2023 12 06 08 59 24.8770000  0 19                     
S37  38199624.337   200740374.095         -29.101          41.000  
S28  38986828.871   204877167.541         -11.614          39.000  
G16  21617439.900   113600412.653       -1877.904          45.000  
E13  27715528.499   145646060.103        -618.383          40.000  
G27  20614973.143   108332408.026         103.324          48.000  
J03  38512609.916   202385128.592         130.330          40.000  
G18  25064885.533   131716882.7162       -790.893          37.000  
G26  23094618.414   121363038.929       -2564.113          40.000  
G09  22492309.510   118197876.866        -221.518          44.000  
E04  25625462.397   134662697.638       -2123.915          43.000  
E31  25258212.618   132732801.044        1274.501          46.000  
G31  24582786.720                3      -3206.868          25.000  
G08  22030993.112   115773649.202        2747.593          46.000  
E09  26011431.132   136690982.465         402.326          44.000  
G04  22245780.851   116902350.192       -2241.742          42.000  
E26  26548447.699   139513042.767        1825.663          38.000  
E21  27650996.967   145306968.858       -2096.642          37.000  
G07  24752523.150   130075377.859        3129.895          41.000  
J02  39978198.822   210086844.022         -49.380          46.000  
> 2023 12 06 08 59 25.0020000  0 19                     
S37  38199625.027   200740377.709         -29.401          41.000  
S28  38986829.137   204877168.953         -11.079          39.000  
G16  21617484.572   113600647.389       -1877.867          45.000  
E13  27715543.163   145646137.476        -619.671          38.000  
G27  20614970.652   108332395.141         102.984          48.000  
J03  38512606.813   202385112.287         130.189          38.000  
G18  25064904.200   131716981.4832       -790.389          39.000  
G26  23094679.472   121363359.575       -2565.597          40.000  
G09  22492314.790   118197904.562        -221.490          44.000  
E04  25625512.871   134662963.107       -2123.568          43.000  
E31  25258182.247   132732641.734        1274.379          45.000  
G31  24582867.804                3      -3206.868          26.000  
G08  22030927.793   115773305.771        2747.415          46.000  
E09  26011421.617   136690932.276         401.460          44.000  
G04  22245834.187   116902630.479       -2242.329          42.000  
E26  26548404.336   139512814.643        1824.563          38.000  
E21  27651046.812   145307231.029       -2097.942          35.000  
G07  24752448.688   130074986.597        3130.454          42.000  
J02  39978200.013   210086850.253         -50.072          46.000  
> 2023 12 06 08 59 25.1270000  0 19                     
S37  38199625.753   200740381.367         -29.632          41.000  
S28  38986829.381   204877170.301         -11.672          39.000  
G16  21617529.216   113600882.141       -1878.452          45.000  
E13  27715557.868   145646214.752        -618.248          40.000  
G27  20614968.196   108332382.273         102.742          48.000  
J03  38512603.728   202385096.190         128.341          40.000  
G18  25064922.947   131717080.4302       -791.108          38.000  
G26  23094740.501   121363680.237       -2565.137          40.000  
G09  22492320.075   118197932.227        -221.370          44.000  
E04  25625563.398   134663228.566       -2123.600          43.000  
E31  25258151.862   132732482.372        1275.236          45.000  
G31  24582941.142                3      -3206.868          25.000  
G08  22030862.435   115772962.346        2747.271          46.000  
E09  26011411.957   136690881.974         402.567          43.000  
G04  22245887.499   116902910.725       -2242.231          43.000  
E26  26548360.936   139512586.508        1825.164          38.000  
E21  27651096.619                       -2097.597          35.000  
G07  24752374.202   130074595.277        3131.195          42.000  
J02  39978201.201   210086856.482         -49.880          46.000  
> 2023 12 06 08 59 25.2520000  0 19                     
S37  38199626.446   200740385.034         -29.696          41.000  
S28  38986829.646   204877171.634         -10.957          39.000  
G16  21617573.912   113601116.920       -1878.226          45.000  
E13  27715572.514   145646292.267        -620.218          38.000  
G27  20614965.766   108332369.425         102.611          48.000  
J03  38512600.598   202385079.950         129.540          38.000  
G18  25064941.738   131717179.3422       -791.848          38.000  
G26  23094801.536   121364000.944       -2565.803          41.000  
G09  22492325.338   118197959.897        -221.516          44.000  
E04  25625613.937   134663494.019       -2123.556          43.000  
E31  25258121.600   132732322.977        1275.219          45.000  
G31  24583013.156                3      -3206.868          26.000  
G08  22030797.106   115772618.922        2747.046          46.000  
E09  26011402.361   136690831.690         402.111          44.000  
G04  22245940.793   116903190.944       -2241.771          43.000  
E26  26548317.610   139512358.513        1823.523          38.000  
E21  27651146.446                       -2098.458          35.000  
G07  24752299.756   130074203.952        3131.007          41.000  
J02  39978202.359   210086862.760         -50.640          46.000  
> 2023 12 06 08 59 25.3770000  0 19                     
S37  38199627.147   200740388.674         -29.827          41.000  
S28  38986829.882   204877172.910         -10.315          39.000  
G16  21617618.657   113601351.746       -1879.102          45.000  
E13  27715587.327   145646369.612        -618.886          40.000  
G27  20614963.351   108332356.591         102.451          48.000  
J03  38512597.533   202385063.764         128.988          40.000  
G18  25064960.512   131717278.419        -792.513          36.000  
G26  23094862.594   121364321.759       -2567.196          40.000  
G09  22492330.608   118197987.496        -221.010          44.000  
E04  25625664.440   134663759.460       -2123.680          43.000  
E31  25258091.251   132732163.601        1274.872          45.000  
G31  24583084.901                3      -3206.868          26.000  
G08  22030731.720   115772275.456        2747.658          46.000  
E09  26011392.854   136690781.371         402.685          44.000  
G04  22245994.129   116903471.160       -2241.698          44.000  
E26  26548274.235   139512130.507        1823.690          38.000  
E21  27651196.424   145308017.650       -2098.277          35.000  
G07  24752225.311   130073812.602        3130.765          42.000  
J02  39978203.543   210086869.008         -50.271          46.000  
> 2023 12 06 08 59 25.5020000  0 19                     
S37  38199627.854   200740392.346         -29.348          41.000  
S28  38986830.116   204877174.199         -10.341          39.000  
G16  21617663.338   113601586.610       -1879.267          45.000  
E13  27715602.127   145646447.196        -621.744          38.000  
G27  20614960.903   108332343.798         102.094          48.000  
J03  38512594.464   202385047.625         129.552          40.000  
G18  25064979.392   131717377.441        -792.106          36.000  
G26  23094923.629   121364642.481       -2566.293          40.000  
G09  22492335.909   118198015.131        -220.971          44.000  
E04  25625714.983   134664024.858       -2123.057          43.000  
E31  25258060.987   132732004.172        1275.478          45.000  
G31  24583165.086                3      -3206.868          26.000  
G08  22030666.383   115771931.996        2747.767          45.000  
E09  26011383.342   136690731.049         402.473          44.000  
G04  22246047.461   116903751.350       -2241.332          44.000  
E26  26548230.840   139511902.493        1823.723          38.000  
E21  27651246.338   145308279.983       -2098.939          35.000  
G07  24752150.841   130073421.245        3130.950          41.000  
J02  39978204.762   210086875.299         -50.333          46.000  
> 2023 12 06 08 59 25.6270000  0 19                     
S37  38199628.550   200740396.011         -29.703          41.000  
S28  38986830.360   204877175.443         -10.143          39.000  
G16  21617708.010   113601821.433       -1878.729          45.000  
E13  27715616.947   145646524.796        -621.236          38.000  
G27  20614958.456   108332330.972         102.606          48.000  
J03  38512591.423   202385031.546         128.132          41.000  
G18  25064998.262   131717476.567        -793.495          36.000  
G26  23094984.720   121364963.343       -2566.637          40.000  
G09  22492341.158   118198042.667        -220.057          44.000  
E04  25625765.519   134664290.241       -2122.865          43.000  
E31  25258030.707   132731844.685        1275.872          46.000  
G31  24583239.807                3      -3206.868          26.000  
G08  22030601.050   115771588.508        2747.939          45.000  
E09  26011373.565   136690680.679         403.042          44.000  
G04  22246100.767   116904031.527       -2241.571          44.000  
E26  26548187.436   139511674.608        1822.613          38.000  
E21  27651296.305   145308542.378       -2099.490          36.000  
G07  24752076.346   130073029.823        3131.290          41.000  
J02  39978205.968   210086881.598         -50.461          46.000  
> 2023 12 06 08 59 25.7520000  0 18                     
S37  38199629.232   200740399.661         -29.215          41.000  
S28  38986830.607   204877176.665         -10.035          39.000  
G16  21617752.674   113602056.320       -1878.894          45.000  
E13  27715631.735   145646602.252        -619.618          39.000  
G27  20614956.021   108332318.205         102.016          48.000  
J03  38512588.357   202385015.372         129.141          41.000  
G18  25065017.119   131717575.671        -792.600          36.000  
G26  23095045.761   121365284.199       -2567.870          40.000  
G09  22492346.402   118198070.236        -220.240          44.000  
E04  25625816.036   134664555.567       -2122.563          43.000  
E31  25258000.352   132731685.185        1276.261          46.000  
G08  22030535.705   115771245.010        2747.959          46.000  
E09  26011363.942   136690630.259         403.656          44.000  
G04  22246154.030   116904311.667       -2240.898          43.000  
E26  26548144.093   139511446.697        1823.661          38.000  
E21  27651346.249   145308804.755       -2099.215          36.000  
G07  24752001.845   130072638.341        3132.089          43.000  
J02  39978207.169   210086887.926         -50.656          46.000  
> 2023 12 06 08 59 25.8770000  0 18                     
S37  38199629.915   200740403.351         -29.748          41.000  
S28  38986830.808   204877177.780          -9.307          39.000  
G16  21617797.333   113602291.197       -1879.083          45.000  
E13  27715646.506   145646679.821        -620.348          38.000  
G27  20614953.589   108332305.419         102.410          48.000  
J03  38512585.314   202384999.309         129.270          41.000  
G18  25065036.017   131717674.758        -792.546          37.000  
G26  23095106.828   121365605.043       -2566.058          40.000  
G09  22492351.625   118198097.701        -219.515          44.000  
E04  25625866.535   134664820.931       -2122.685          43.000  
E31  25257970.047   132731525.620        1276.778          46.000  
G08  22030470.342   115770901.506        2748.240          46.000  
E09  26011354.415   136690579.842         403.386          44.000  
G04  22246207.333   116904591.831       -2241.533          43.000  
E26  26548100.753   139511218.829        1823.260          38.000  
E21  27651396.180   145309067.083       -2098.576          36.000  
G07  24751927.340   130072246.822        3132.392          42.000  
J02  39978208.391   210086894.212         -50.291          46.000  
> 2023 12 06 08 59 26.0020000  0 18                     
S37  38199630.610   200740407.003         -29.679          41.000  
S28  38986831.039   204877178.964          -9.601          39.000  
G16  21617842.036   113602526.078       -1879.196          45.000  
E13  27715661.287   145646757.500        -621.725          38.000  
G27  20614951.173   108332292.651         101.835          48.000  
J03  38512582.270   202384983.245         127.763          42.000  
G18  25065054.921   131717773.973        -794.224          37.000  
G26  23095167.888   121365925.991       -2568.706          40.000  
G09  22492356.850   118198125.220        -220.254          44.000  
E04  25625917.010   134665086.249       -2122.565          43.000  
E31  25257939.634   132731366.070        1276.562          46.000  
G08  22030404.964   115770557.974        2748.131          45.000  
E09  26011344.766   136690529.369         404.062          44.000  
G04  22246260.657   116904871.916       -2240.591          43.000  
E26  26548057.432   139510991.055        1822.010          38.000  
E21  27651446.138   145309329.561       -2099.990          36.000  
G07  24751852.852   130071855.316        3131.472          41.000  
J02  39978209.598   210086900.522         -50.699          46.000  
> 2023 12 06 08 59 26.1270000  0 18                     
S37  38199631.331   200740410.685         -29.320          41.000  
S28  38986831.246   204877180.024          -8.416          39.000  
G16  21617886.766   113602760.996       -1879.582          45.000  
E13  27715676.096   145646835.156        -622.048          38.000  
G27  20614948.754   108332279.890         102.087          48.000  
J03  38512579.207   202384967.178         128.276          41.000  
G18  25065073.779   131717873.193        -795.365          36.000  
G26  23095228.968   121366246.909       -2567.204          41.000  
G09  22492362.094   118198152.625        -219.106          44.000  
E04  25625967.409   134665351.496       -2121.948          43.000  
E31  25257909.202   132731206.446        1277.082          46.000  
G08  22030339.580   115770214.439        2748.297          46.000  
E09  26011334.999   136690478.863         404.040          44.000  
G04  22246313.954   116905151.993       -2240.619          43.000  
E26  26548014.030   139510763.205        1823.014          38.000  
E21  27651496.176   145309592.043       -2099.968          36.000  
G07  24751778.329   130071463.665        3133.883          43.000  
J02  39978210.805   210086906.848         -50.803          46.000  
> 2023 12 06 08 59 26.2520000  0 18                     
S37  38199631.993   200740414.289         -28.917          41.000  
S28  38986831.455   204877181.081          -8.678          39.000  
G16  21617931.467   113602995.946       -1879.692          45.000  
E13  27715690.895   145646912.852        -621.966          38.000  
G27  20614946.354   108332267.151         101.774          49.000  
J03  38512576.170   202384951.119         128.318          41.000  
G18  25065092.648   131717972.432        -793.618          36.000  
G26  23095290.047   121366567.875       -2568.269          40.000  
G09  22492367.315   118198180.073        -219.402          44.000  
E04  25626017.854   134665616.721       -2121.534          43.000  
E31  25257878.919   132731046.792        1277.397          45.000  
G08  22030274.221   115769870.829        2749.204          46.000  
E09  26011325.407   136690428.330         404.349          44.000  
G04  22246367.248   116905432.052       -2240.859          43.000  
E26  26547970.777   139510535.523        1821.340          37.000  
E21  27651546.105   145309854.523       -2100.133          36.000  
G07  24751703.816   130071072.114        3131.709          41.000  
J02  39978212.040   210086913.167         -50.485          46.000  
> 2023 12 06 08 59 26.3770000  0 18                     
S37  38199632.690   200740417.955         -29.187          41.000  
S28  38986831.687   204877182.036          -7.353          39.000  
G16  21617976.157   113603230.907       -1879.869          45.000  
E13  27715705.710   145646990.640        -622.749          37.000  
G27  20614943.968   108332254.397         101.880          49.000  
J03  38512573.137   202384935.080         128.365          41.000  
G18  25065111.563                        -795.107          34.000  
G26  23095351.130   121366888.889       -2568.253          40.000  
G09  22492372.502   118198207.462        -219.351          44.000  
E04  25626068.373   134665881.934       -2121.638          43.000  
E31  25257848.470   132730887.114        1277.429          45.000  
G08  22030208.855   115769527.268        2748.574          46.000  
E09  26011315.774   136690377.787         404.259          44.000  
G04  22246420.548   116905712.047       -2239.849          43.000  
E26  26547927.452   139510307.764        1821.970          37.000  
E21  27651596.038   145310117.122       -2100.916          36.000  
G07  24751629.309   130070680.449        3133.503          41.000  
J02  39978213.262   210086919.503         -50.966          46.000  
> 2023 12 06 08 59 26.5020000  0 18                     
S37  38199633.394   200740421.646         -29.801          41.000  
S28  38986831.865   204877183.049          -8.080          39.000  
G16  21618020.874   113603465.880       -1879.987          45.000  
E13  27715720.537   145647068.443        -622.746          35.000  
G27  20614941.563   108332241.712         101.229          49.000  
J03  38512570.079   202384919.091         127.727          42.000  
G18  25065130.515                        -796.051          34.000  
G26  23095412.245   121367209.924       -2568.864          40.000  
G09  22492377.684   118198234.833        -218.879          44.000  
E04  25626118.874   134666147.178       -2122.142          43.000  
E31  25257818.033   132730727.434        1277.493          45.000  
G08  22030143.463   115769183.675        2748.346          46.000  
E09  26011306.072   136690327.225         404.627          44.000  
G04  22246473.840   116905992.094       -2240.726          43.000  
E26  26547884.143   139510080.114        1820.886          37.000  
E21  27651646.036   145310379.668       -2100.196          36.000  
G07  24751554.756   130070288.783        3133.669          41.000  
J02  39978214.481   210086925.871         -50.955          46.000  
> 2023 12 06 08 59 26.6270000  0 18                     
S37  38199634.148   200740425.344         -29.822          41.000  
S28  38986832.081   204877184.022          -7.442          39.000  
G16  21618065.621   113603700.924       -1880.247          45.000  
E13  27715735.363   145647146.240        -622.480          35.000  
G27  20614939.141   108332229.045         101.333          49.000  
J03  38512567.043   202384903.138         127.867          42.000  
G18  25065149.403                        -794.634          34.000  
G26  23095473.350   121367531.104       -2569.709          40.000  
G09  22492382.882   118198262.214        -218.740          43.000  
E04  25626169.361   134666412.351       -2121.348          43.000  
E31  25257787.646   132730567.722        1277.799          45.000  
G08  22030078.091   115768840.094        2748.825          45.000  
E09  26011296.484   136690276.624         405.058          44.000  
G04  22246527.101   116906272.079       -2239.468          43.000  
E26  26547840.837   139509852.531        1820.218          37.000  
E21  27651696.013   145310642.408       -2102.139          36.000  
G07  24751480.211   130069897.101        3133.434          41.000  
J02  39978215.691   210086932.284         -51.374          46.000  
> 2023 12 06 08 59 26.7520000  0 18                     
S37  38199634.875   200740429.064         -29.810          41.000  
S28  38986832.262   204877184.965          -7.071          39.000  
G16  21618110.347   113603935.940       -1880.267          45.000  
E13  27715750.192   145647224.082        -622.722          38.000  
G27  20614936.707   108332216.357         101.394          48.000  
J03  38512564.004   202384887.202         127.788          42.000  
G18  25065168.324                        -793.799          36.000  
G26  23095534.435   121367852.176       -2568.928          40.000  
G09  22492388.084   118198289.528        -218.238          43.000  
E04  25626219.809   134666677.511       -2121.232          43.000  
E31  25257757.245   132730407.946        1278.462          45.000  
G08  22030012.719   115768496.500        2748.701          45.000  
E09  26011286.879   136690225.981         405.263          44.000  
G04  22246580.369   116906552.083       -2240.144          43.000  
E26  26547797.518   139509624.944        1820.786          38.000  
E21  27651746.009   145310904.959       -2100.209          36.000  
G07  24751405.680   130069505.359        3134.171          41.000  
J02  39978216.884   210086938.636         -50.862          46.000  
> 2023 12 06 08 59 26.8770000  0 18                     
S37  38199635.595   200740432.810         -30.438          41.000  
S28  38986832.480   204877185.996          -8.039          39.000  
G16  21618155.069   113604171.014       -1881.051          45.000  
E13  27715765.000   145647301.949        -623.531          39.000  
G27  20614934.298   108332203.747         100.527          48.000  
J03  38512560.999   202384871.327         126.226          43.000  
G18  25065187.246                        -794.530          38.000  
G26  23095595.533   121368173.309       -2568.731          40.000  
G09  22492393.322   118198316.921        -219.583          43.000  
E04  25626270.329   134666942.774       -2122.244          43.000  
E31  25257726.885   132730248.266        1277.333          45.000  
G08  22029947.360   115768152.968        2748.321          45.000  
E09  26011277.257   136690175.410         404.439          44.000  
G04  22246633.662   116906832.132       -2240.483          43.000  
E26  26547754.209   139509397.370        1820.286          38.000  
E21  27651795.912   145311167.754       -2103.188          36.000  
G07  24751331.164   130069113.654        3133.289          41.000  
J02  39978218.120   210086945.082         -51.766          46.000  
> 2023 12 06 08 59 27.0020000  0 19                     
S37  38199636.289   200740436.517         -29.807          41.000  
S28  38986832.650   204877186.952          -7.474          39.000  
G16  21618199.789   113604406.087       -1880.560          45.000  
E13  27715779.901   145647379.909        -623.841          39.000  
G27  20614931.882   108332191.133         100.783          48.000  
J03  38512557.958   202384855.384         127.559          41.000  
G18  25065206.208                        -797.007          36.000  
G26  23095656.669   121368494.489       -2569.943          40.000  
G09  22492398.509   118198344.286        -218.718          43.000  
E04  25626320.824   134667207.944       -2121.126          43.000  
E31  25257696.496   132730088.527        1278.060          45.000  
G31  24584076.228                2      -3220.779          32.000  
G08  22029881.980   115767809.415        2748.473          45.000  
E09  26011267.552   136690124.822         404.781          44.000  
G04  22246686.979   116907112.170       -2239.926          43.000  
E26  26547710.926   139509169.873        1819.870          38.000  
E21  27651845.929                       -2101.038          36.000  
G07  24751256.614   130068721.904        3134.555          41.000  
J02  39978219.372   210086951.517         -51.515          46.000  
> 2023 12 06 08 59 27.1270000  0 19                     
S37  38199637.027   200740440.260         -29.972          41.000  
S28  38986832.838   204877187.904          -7.585          39.000  
G16  21618244.518   113604641.187       -1881.195          45.000  
E13  27715794.689   145647457.826        -623.387          39.000  
G27  20614929.499   108332178.532         100.555          48.000  
J03  38512554.973   202384839.542         126.676          41.000  
G18  25065225.116                        -795.859          38.000  
G26  23095717.820   121368815.710       -2569.912          40.000  
G09  22492403.687   118198371.586        -218.322          43.000  
E04  25626371.293   134667473.138       -2121.522          43.000  
E31  25257666.085   132729928.739        1278.264          45.000  
G31  24584153.493                3      -3220.860          28.000  
G08  22029816.602   115767465.842        2748.513          45.000  
E09  26011258.004   136690074.149         405.466          44.000  
G04  22246740.231   116907392.198       -2240.671          43.000  
E26  26547667.636   139508942.414        1820.249          38.000  
E21  27651895.899   145311693.147       -2101.842          36.000  
G07  24751182.054   130068330.163        3133.769          40.000  
J02  39978220.574   210086957.945         -51.461          46.000  
> 2023 12 06 08 59 27.2520000  0 19                     
S37  38199637.735   200740443.972         -29.556          41.000  
S28  38986833.003   204877188.834          -7.818          39.000  
G16  21618289.222   113604876.278       -1880.847          45.000  
E13  27715809.514   145647535.767        -623.306          39.000  
G27  20614927.063   108332165.935         100.801          48.000  
J03  38512551.972   202384823.669         126.655          41.000  
G18  25065244.121                        -797.631          36.000  
G26  23095778.942   121369136.919       -2570.482          40.000  
G09  22492408.903   118198398.929        -219.073          43.000  
E04  25626421.757   134667738.320       -2121.551          43.000  
E31  25257635.746   132729768.967        1278.208          45.000  
G31  24584230.709                3      -3220.338          28.000  
G08  22029751.233   115767122.271        2748.416          45.000  
E09  26011248.386   136690023.532         404.854          44.000  
G04  22246793.493   116907672.178       -2240.114          43.000  
E26  26547624.312   139508714.866        1820.256          38.000  
E21  27651945.977   145311956.020       -2103.485          36.000  
G07  24751107.472   130067938.364        3134.298          40.000  
J02  39978221.754   210086964.374         -51.410          46.000  
> 2023 12 06 08 59 27.3770000  0 19                     
S37  38199638.452   200740447.718         -29.941          41.000  
S28  38986833.183   204877189.738          -7.658          39.000  
G16  21618333.943   113605111.392       -1881.431          45.000  
E13  27715824.244   145647613.659        -623.372          37.000  
G27  20614924.662   108332153.377         100.157          48.000  
J03  38512548.981   202384807.770         126.628          41.000  
G18  25065262.992                        -794.482          38.000  
G26  23095840.063   121369458.102       -2569.596          40.000  
G09  22492414.098   118198426.260        -218.844          43.000  
E04  25626472.254   134668003.488       -2121.390          43.000  
E31  25257605.263   132729609.185        1278.079          46.000  
G31  24584306.899                3      -3222.882          28.000  
G08  22029685.890   115766778.723        2748.363          45.000  
E09  26011238.770   136689972.912         404.734          44.000  
G04  22246846.782   116907952.197       -2240.212          43.000  
E26  26547580.997   139508487.501        1818.974          38.000  
E21  27651996.030   145312218.694       -2101.168          36.000  
G07  24751032.934   130067546.592        3134.775          40.000  
J02  39978222.975   210086970.831         -51.752          46.000  
> 2023 12 06 08 59 27.5020000  0 19                     
S37  38199639.185   200740451.511         -30.464          41.000  
S28  38986833.363   204877190.677          -7.345          39.000  
G16  21618378.698   113605346.540       -1881.084          45.000  
E13  27715839.119   145647691.831        -625.676          35.000  
G27  20614922.285   108332140.854          99.922          49.000  
J03  38512545.993   202384791.974         126.102          41.000  
G18  25065281.942                        -798.516          36.000  
G26  23095901.244   121369779.385       -2570.658          40.000  
G09  22492419.275   118198453.614        -219.050          43.000  
E04  25626522.794   134668268.707       -2121.776          43.000  
E31  25257574.902   132729449.428        1278.087          46.000  
G31  24584383.837                3      -3220.667          28.000  
G08  22029620.538   115766435.185        2748.130          45.000  
E09  26011229.162   136689922.278         404.970          44.000  
G04  22246900.068   116908232.240       -2240.456          43.000  
E26  26547537.720   139508260.127        1818.589          37.000  
E21  27652046.070   145312481.533       -2102.890          36.000  
G07  24750958.374   130067154.836        3133.903          40.000  
J02  39978224.225   210086977.315         -51.995          46.000  
> 2023 12 06 08 59 27.6270000  0 19                     
S37  38199639.864   200740455.270         -30.278          41.000  
S28  38986833.512   204877191.554          -7.246          39.000  
G16  21618423.441   113605581.694       -1881.195          45.000  
E13  27715853.953   145647769.769        -623.134          38.000  
G27  20614919.877   108332128.315         100.188          49.000  
J03  38512542.960   202384776.146         126.515          41.000  
G18  25065300.907                        -796.200          38.000  
G26  23095962.379   121370100.655       -2570.265          40.000  
G09  22492424.471   118198480.975        -218.655          43.000  
E04  25626573.183   134668533.898       -2121.528          43.000  
E31  25257544.501   132729289.651        1278.193          46.000  
G31  24584460.976                3      -3222.800          28.000  
G08  22029555.163   115766091.650        2748.267          45.000  
E09  26011219.602   136689871.670         404.683          44.000  
G04  22246953.384   116908512.260       -2240.261          43.000  
E26  26547494.368   139508032.651        1820.091          37.000  
E21  27652096.033   145312744.362       -2103.175          36.000  
G07  24750883.827   130066763.036        3134.351          40.000  
J02  39978225.441   210086983.764         -51.712          46.000  
> 2023 12 06 08 59 27.7520000  0 19                     
S37  38199640.600   200740459.075         -30.635          41.000  
S28  38986833.698   204877192.519          -7.499          39.000  
G16  21618468.178   113605816.891       -1882.036          45.000  
E13  27715868.855   145647847.800        -624.560          35.000  
G27  20614917.470   108332115.827          99.714          49.000  
J03  38512539.972   202384760.315         126.183          41.000  
G18  25065319.897                        -797.152          36.000  
G26  23096023.525   121370421.954       -2570.070          40.000  
G09  22492429.658   118198508.334        -219.137          43.000  
E04  25626623.656   134668799.112       -2121.828          43.000  
E31  25257514.028   132729129.870        1277.973          45.000  
G31  24584538.821                2      -3220.807          28.000  
G08  22029489.794   115765748.127        2747.942          45.000  
E09  26011209.900   136689821.029         405.080          44.000  
G04  22247006.689   116908792.310       -2240.560          43.000  
E26  26547451.193   139507805.306        1818.499          37.000  
E21  27652146.082                       -2104.107          36.000  
G07  24750809.305   130066371.253        3133.847          40.000  
J02  39978226.647   210086990.268         -52.134          46.000  
> 2023 12 06 08 59 27.8770000  0 19                     
S37  38199641.336   200740462.832         -29.770          41.000  
S28  38986833.865   204877193.401          -6.765          39.000  
G16  21618512.940   113606052.053       -1881.311          45.000  
E13  27715883.760   145647926.015        -626.190          35.000  
G27  20614915.077   108332103.361          99.556          49.000  
J03  38512536.981   202384744.503         126.890          41.000  
G18  25065338.906                        -797.209          36.000  
G26  23096084.683   121370743.274       -2570.772          40.000  
G09  22492434.868   118198535.702        -219.013          44.000  
E04  25626674.103   134669064.307       -2121.363          43.000  
E31  25257483.631   132728970.119        1278.223          45.000  
G31  24584615.813                3      -3220.361          29.000  
G08  22029424.403   115765404.612        2748.160          45.000  
E09  26011200.338   136689770.416         404.826          44.000  
G04  22247059.961   116909072.345       -2240.001          43.000  
E26  26547407.951   139507578.031        1818.090          37.000  
E21  27652196.138                       -2102.940          36.000  
G07  24750734.729   130065979.400        3134.819          39.000  
J02  39978227.866   210086996.764         -51.799          46.000  
> 2023 12 06 08 59 28.0020000  0 19                     
S37  38199642.082   200740466.674         -31.168          41.000  
S28  38986834.054   204877194.292          -7.720          39.000  
G16  21618557.710   113606287.276       -1881.758          45.000  
E13  27715898.578   145648004.054        -624.721          35.000  
G27  20614912.707   108332090.883          99.753          48.000  
J03  38512533.983   202384728.777         126.153          41.000  
G18  25065357.887                        -797.417          33.000  
G26  23096145.855   121371064.617       -2570.951          40.000  
G09  22492440.046   118198563.021        -218.518          44.000  
E04  25626724.522   134669329.484       -2121.240          43.000  
E31  25257453.295   132728810.286        1278.715          46.000  
G31  24584692.629                3      -3212.549          29.000  
G08  22029359.038   115765061.093        2748.018          45.000  
E09  26011190.755   136689719.773         405.280          44.000  
G04  22247113.256   116909352.399       -2240.244          43.000  
E26  26547364.676   139507350.666        1818.718          37.000  
E21  27652246.200                       -2101.433          36.000  
G07  24750660.168   130065587.603        3134.064          39.000  
J02  39978229.109   210087003.277         -52.343          46.000  
> 2023 12 06 08 59 28.1270000  0 19                     
S37  38199642.798   200740470.435         -29.890          41.000  
S28  38986834.206   204877195.189          -6.455          39.000  
G16  21618602.450   113606522.487       -1881.903          45.000  
E13  27715913.443   145648082.221        -625.160          35.000  
G27  20614910.337   108332078.419          99.661          48.000  
J03  38512530.976   202384712.979         126.541          41.000  
G18  25065376.854                        -797.197          33.000  
G26  23096206.996   121371385.920       -2570.407          40.000  
G09  22492445.276   118198590.404        -219.224          44.000  
E04  25626774.949   134669594.698       -2121.693          42.000  
E31  25257422.981   132728650.498        1278.174          46.000  
G31  24584769.907                2      -3222.292          33.000  
G08  22029293.672   115764717.569        2747.990          45.000  
E09  26011181.041   136689669.139         404.889          44.000  
G04  22247166.541   116909632.447       -2240.746          43.000  
E26  26547321.418   139507123.342        1818.569          37.000  
E21  27652296.295                       -2103.549          34.000  
G07  24750585.602   130065195.769        3134.949          40.000  
J02  39978230.344   210087009.772         -52.009          46.000  
> 2023 12 06 08 59 28.2520000  0 19                     
S37  38199643.543   200740474.272         -31.082          41.000  
S28  38986834.378   204877196.084          -7.435          39.000  
G16  21618647.199   113606757.699       -1881.950          45.000  
E13  27715928.320   145648160.374        -624.889          35.000  
G27  20614908.001   108332065.993          99.278          48.000  
J03  38512527.954   202384697.230         125.468          41.000  
G18  25065395.870                        -799.008          32.000  
G26  23096268.190   121371707.318       -2571.320          40.000  
G09  22492450.462   118198617.760        -219.305          44.000  
E04  25626825.383   134669859.874       -2121.342          42.000  
E31  25257392.544   132728490.698        1278.314          46.000  
G31  24584848.324                2      -3224.731          33.000  
G08  22029228.316   115764374.061        2747.897          45.000  
E09  26011171.311   136689618.553         404.697          44.000  
G04  22247219.833   116909912.478       -2240.521          43.000  
E26  26547278.238   139506896.086        1817.869          37.000  
E21  27652346.260                       -2103.566          36.000  
G07  24750511.065   130064803.988        3134.363          41.000  
J02  39978231.551   210087016.291         -52.374          46.000  
> 2023 12 06 08 59 28.3770000  0 19                     
S37  38199644.240   200740478.029         -30.075          41.000  
S28  38986834.545   204877196.940          -6.851          39.000  
G16  21618691.994   113606992.986       -1882.555          45.000  
E13  27715943.225   145648238.573        -625.721          35.000  
G27  20614905.657   108332053.582          99.161          48.000  
J03  38512524.910   202384681.462         126.184          41.000  
G18  25065414.870                3       -809.326          28.000  
G26  23096329.360   121372028.706       -2571.511          40.000  
G09  22492455.681   118198645.125        -218.815          43.000  
E04  25626875.879   134670125.065       -2121.564          42.000  
E31  25257362.126   132728330.904        1278.391          45.000  
G31  24584924.297                2      -3221.989          33.000  
G08  22029162.944   115764030.550        2748.084          45.000  
E09  26011161.719   136689567.923         405.056          44.000  
G04  22247273.127   116910192.535       -2240.511          43.000  
E26  26547235.009   139506668.821        1817.978          37.000  
E21  27652396.300                       -2104.276          36.000  
G07  24750436.513   130064412.205        3133.838          42.000  
J02  39978232.776   210087022.826         -52.512          46.000  
> 2023 12 06 08 59 28.5020000  0 19                     
S37  38199645.001   200740481.871         -31.122          41.000  
S28  38986834.733   204877197.800          -6.816          39.000  
G16  21618736.741   113607228.271       -1882.458          45.000  
E13  27715958.020   145648316.746        -625.420          36.000  
G27  20614903.309   108332041.187          98.961          48.000  
J03  38512521.930   202384665.738         125.912          41.000  
G18  25065433.903                3       -794.043          29.000  
G26  23096390.529   121372350.146       -2571.520          40.000  
G09  22492460.926   118198672.545        -219.294          43.000  
E04  25626926.269   134670390.260       -2121.457          43.000  
E31  25257331.667   132728171.116        1278.342          45.000  
G31  24585000.887                2      -3213.838          29.000  
G08  22029097.609   115763687.041        2747.837          45.000  
E09  26011152.054   136689517.322         404.634          44.000  
G04  22247326.385   116910472.573       -2240.165          43.000  
E26  26547191.741   139506441.639        1817.407          37.000  
E21  27652446.304                       -2103.253          36.000  
G07  24750361.953   130064020.435        3134.028          42.000  
J02  39978234.023   210087029.376         -52.401          46.000  
> 2023 12 06 08 59 28.6270000  0 19                     
S37  38199645.748   200740485.678         -30.758          41.000  
S28  38986834.897   204877198.695          -7.326          39.000  
G16  21618781.511   113607463.565       -1882.534          45.000  
E13  27715972.825   145648395.025        -626.074          38.000  
G27  20614900.975   108332028.831          98.663          48.000  
J03  38512518.970   202384650.036         125.316          41.000  
G18  25065452.861                2       -797.539          33.000  
G26  23096451.679   121372671.584       -2571.566          40.000  
G09  22492466.133   118198699.902        -219.342          43.000  
E04  25626976.754   134670655.496       -2122.016          43.000  
E31  25257301.267   132728011.317        1278.248          45.000  
G31  24585078.064                3      -3224.455          29.000  
G08  22029032.263   115763343.579        2747.379          46.000  
E09  26011142.288   136689466.719         404.795          44.000  
G04  22247379.680   116910752.673       -2241.020          43.000  
E26  26547148.544   139506214.388        1817.963          37.000  
E21  27652496.275                       -2103.935          36.000  
G07  24750287.368   130063628.563        3134.429          40.000  
J02  39978235.276   210087035.934         -52.704          46.000  
> 2023 12 06 08 59 28.7520000  0 19                     
S37  38199646.512   200740489.515         -30.653          41.000  
S28  38986835.060   204877199.552          -6.897          39.000  
G16  21618826.302   113607698.835       -1882.066          45.000  
E13  27715987.743   145648473.245        -625.890          38.000  
G27  20614898.630   108332016.454          99.006          48.000  
J03  38512515.988   202384634.299         125.749          41.000  
G18  25065471.917                2       -799.027          33.000  
G26  23096512.834   121372993.027       -2571.425          40.000  
G09  22492471.362   118198727.321        -218.940          43.000  
E04  25627027.228   134670920.698       -2121.718          42.000  
E31  25257270.863   132727851.533        1278.381          45.000  
G31  24585154.234                3      -3224.127          30.000  
G08  22028966.876   115763000.084        2747.942          46.000  
E09  26011132.709   136689416.101         405.019          44.000  
G04  22247432.978   116911032.744       -2240.720          43.000  
E26  26547105.305   139505987.234        1817.004          37.000  
E21  27652546.302   145315110.624       -2103.830          36.000  
G07  24750212.813   130063236.777        3133.748          38.000  
J02  39978236.518   210087042.475         -52.300          46.000  
> 2023 12 06 08 59 28.8770000  0 19                     
S37  38199647.274   200740493.355         -30.790          41.000  
S28  38986835.210   204877200.400          -6.712          39.000  
G16  21618871.080   113607934.150       -1882.565          45.000  
E13  27716002.661   145648551.504        -625.992          40.000  
G27  20614896.278   108332004.120          98.544          48.000  
J03  38512512.992   202384618.660         124.849          41.000  
G18  25065490.905                2       -798.783          36.000  
G26  23096574.011   121373314.485       -2571.691          40.000  
G09  22492476.536   118198754.646        -219.074          44.000  
E04  25627077.672   134671185.892       -2121.707          42.000  
E31  25257240.329   132727691.661        1279.088          45.000  
G31  24585229.747                2      -3224.162          33.000  
G08  22028901.505   115762656.591        2748.154          46.000  
E09  26011123.109   136689365.454         405.306          44.000  
G04  22247486.302   116911312.782       -2240.073          43.000  
E26  26547062.095   139505760.083        1816.958          37.000  
E21  27652596.357   145315373.663       -2104.518          35.000  
G07  24750138.200   130062844.858        3135.760          40.000  
J02  39978237.794   210087049.045         -52.618          46.000  
